[
  {
    "id": "10-barrel-brewing-co",
    "name": "10 Barrel Brewing Co",
    "brewery_type": "large",
    "street": "830 W Bannock St",
    "city": "Boise",
    "state": "Idaho",
    "postal_code": "83702-5857",
    "website_url": "http://www.10barrel.com",
    "phone": "5416785228",
    "created_at": "2018-07-24 01:33:17.03803",
    "updated_at": "2018-08-24 00:29:51.675289",
    "country": "United States",
    "longitude": "-116.202360204082",
    "latitude": "43.6174335918367",
    "tags": []
  },
  {
    "id": "payette-brewing-co",
    "name": "Payette Brewing Co",
    "brewery_type": "micro",
    "street": "733 S Pioneer St",
    "city": "Boise",
    "state": "Idaho",
    "postal_code": "83702-5219",
    "website_url": "http://www.payettebrewing.com",
    "phone": "2083440011",
    "created_at": "2018-07-24 01:33:17.505759",
    "updated_at": "2018-08-24 00:30:09.911074",
    "country": "United States",
    "longitude": "-116.214503263623",
    "latitude": "43.6130136314097",
    "tags": []
  },
  {
    "id": "bear-island-brewing-company",
    "name": "Bear Island Brewing Company",
    "brewery_type": "micro",
    "street": "3880 N Payson Ave",
    "city": "Boise",
    "state": "Idaho",
    "postal_code": "83704-4016",
    "website_url": "http://www.bearislandbrewing.com",
    "phone": "2089082496",
    "created_at": "2018-07-24 01:33:17.074236",
    "updated_at": "2018-08-11 21:37:05.168783",
    "country": "United States",
    "longitude": "",
    "latitude": "",
    "tags": []
  },
  {
    "id": "boise-brewing",
    "name": "Boise Brewing",
    "brewery_type": "micro",
    "street": "521 W Broad St",
    "city": "Boise",
    "state": "Idaho",
    "postal_code": "83702-7642",
    "website_url": "http://www.boisebrewing.com",
    "phone": "2083427655",
    "created_at": "2018-07-24 01:33:17.11138",
    "updated_at": "2018-08-11 21:37:05.276335",
    "country": "United States",
    "longitude": "",
    "latitude": "",
    "tags": []
  },
  {
    "id": "edge-brewing-company",
    "name": "Edge Brewing Company",
    "brewery_type": "brewpub",
    "street": "525 N Steelhead Way",
    "city": "Boise",
    "state": "Idaho",
    "postal_code": "83704-8374",
    "website_url": "http://www.edgebrew.com",
    "phone": "2089952979",
    "created_at": "2018-07-24 01:33:17.249962",
    "updated_at": "2018-08-11 21:37:05.598049",
    "country": "United States",
    "longitude": "",
    "latitude": "",
    "tags": []
  },
  {
    "id": "lost-grove-brewing",
    "name": "Lost Grove Brewing",
    "brewery_type": "micro",
    "street": "1026 S La Pointe St",
    "city": "Boise",
    "state": "Idaho",
    "postal_code": "83706-2827",
    "website_url": "http://www.lostgrovebrewing.com",
    "phone": "2082862258",
    "created_at": "2018-07-24 01:33:17.372336",
    "updated_at": "2018-08-11 21:37:05.916903",
    "country": "United States",
    "longitude": "",
    "latitude": "",
    "tags": []
  },
  {
    "id": "clairvoyant-brewing",
    "name": "Clairvoyant Brewing",
    "brewery_type": "micro",
    "street": "2800 W Idaho St",
    "city": "Boise",
    "state": "Idaho",
    "postal_code": "83702-4628",
    "website_url": "http://www.clairvoyantbrewing.com",
    "phone": "2089960095",
    "created_at": "2018-07-24 01:33:17.161152",
    "updated_at": "2018-08-24 00:29:55.580791",
    "country": "United States",
    "longitude": "-116.225417",
    "latitude": "43.622812",
    "tags": []
  },
  {
    "id": "cloud-9-brewery",
    "name": "Cloud 9 Brewery",
    "brewery_type": "brewpub",
    "street": "1750 W State St",
    "city": "Boise",
    "state": "Idaho",
    "postal_code": "83702-3923",
    "website_url": "http://www.cloud9brewery.com",
    "phone": "2083360681",
    "created_at": "2018-07-24 01:33:17.173775",
    "updated_at": "2018-08-24 00:29:56.131951",
    "country": "United States",
    "longitude": "-116.211680183673",
    "latitude": "43.6244106326531",
    "tags": []
  },
  {
    "id": "guns-and-oil-brewery",
    "name": "Guns & Oil Brewery",
    "brewery_type": "micro",
    "street": "111 W 33rd St",
    "city": "Boise",
    "state": "Idaho",
    "postal_code": "83714",
    "website_url": "http://www.gunsandoil.com",
    "phone": "",
    "created_at": "2018-07-24 01:33:17.273577",
    "updated_at": "2018-08-24 00:30:00.08706",
    "country": "United States",
    "longitude": "-116.238939530612",
    "latitude": "43.6213619591837",
    "tags": []
  },
  {
    "id": "ram-restaurant-and-brewery-boise",
    "name": "RAM Restaurant and Brewery - Boise",
    "brewery_type": "brewpub",
    "street": "709 E Park Blvd",
    "city": "Boise",
    "state": "Idaho",
    "postal_code": "83712-7715",
    "website_url": "http://www.theram.com",
    "phone": "2083452929",
    "created_at": "2018-07-24 01:33:17.567203",
    "updated_at": "2018-08-11 21:37:06.580414",
    "country": "United States",
    "longitude": "",
    "latitude": "",
    "tags": []
  },
  {
    "id": "sockeye-brewing-co",
    "name": "Sockeye Brewing Co",
    "brewery_type": "micro",
    "street": "12542 W Fairview Ave",
    "city": "Boise",
    "state": "Idaho",
    "postal_code": "83716-0026",
    "website_url": "http://www.sockyebrew.com",
    "phone": "2086581533",
    "created_at": "2018-07-24 01:33:17.680125",
    "updated_at": "2018-08-24 00:30:16.513623",
    "country": "United States",
    "longitude": "-116.252364",
    "latitude": "43.619049",
    "tags": []
  },
  {
    "id": "white-dog-brewing-boise",
    "name": "White Dog Brewing Boise",
    "brewery_type": "micro",
    "street": "705 W Fulton St",
    "city": "Boise",
    "state": "Idaho",
    "postal_code": "83702",
    "website_url": "http://www.whitedogbrewing.com",
    "phone": "2089060609",
    "created_at": "2018-07-24 01:33:17.755493",
    "updated_at": "2018-08-24 00:30:19.63661",
    "country": "United States",
    "longitude": "-116.206218612245",
    "latitude": "43.6112276122449",
    "tags": []
  },
  {
    "id": "highlands-hollow-brewhouse",
    "name": "Highlands Hollow Brewhouse",
    "brewery_type": "brewpub",
    "street": "2455 N Highlands Holw",
    "city": "Boise",
    "state": "Idaho",
    "postal_code": "83702-0962",
    "website_url": "http://www.highlandshollow.com",
    "phone": "2083436820",
    "created_at": "2018-07-24 01:33:17.297818",
    "updated_at": "2018-08-11 21:37:05.717033",
    "country": "United States",
    "longitude": "",
    "latitude": "",
    "tags": []
  },
  {
    "id": "mad-swede-brewing",
    "name": "Mad Swede Brewing",
    "brewery_type": "micro",
    "street": "2772 S Cole Rd Ste 140",
    "city": "Boise",
    "state": "Idaho",
    "postal_code": "83709-8028",
    "website_url": "http://www.madswedebrewing.com",
    "phone": "2089226883",
    "created_at": "2018-07-24 01:33:17.396057",
    "updated_at": "2018-08-24 00:30:05.732771",
    "country": "United States",
    "longitude": "-116.273944",
    "latitude": "43.5769344387159",
    "tags": []
  },
  {
    "id": "woodland-empire-ale-craft",
    "name": "Woodland Empire Ale Craft",
    "brewery_type": "micro",
    "street": "1114 W Front St",
    "city": "Boise",
    "state": "Idaho",
    "postal_code": "83702-6951",
    "website_url": "http://www.woodlandempire.com",
    "phone": "2086029318",
    "created_at": "2018-07-24 01:33:17.793287",
    "updated_at": "2018-08-24 00:30:21.224719",
    "country": "United States",
    "longitude": "-116.208681142857",
    "latitude": "43.616091",
    "tags": []
  }
]