[
  {
    "id": "daft-badger-brewing",
    "name": "Daft Badger Brewing",
    "brewery_type": "brewpub",
    "street": "1710 N 2nd St",
    "city": "Coeur D Alene",
    "state": "Idaho",
    "postal_code": "83814-3403",
    "website_url": "",
    "phone": "2086659892",
    "created_at": "2018-07-24 01:33:17.225996",
    "updated_at": "2018-08-11 21:37:05.537558",
    "country": "United States",
    "longitude": "",
    "latitude": "",
    "tags": []
  },
  {
    "id": "matchstick-brewing-company",
    "name": "Matchstick Brewing Company",
    "brewery_type": "planning",
    "street": "",
    "city": "Coeur D Alene",
    "state": "Idaho",
    "postal_code": "83815",
    "website_url": "http://www.matchstickbrewing.com",
    "phone": "",
    "created_at": "2018-07-24 01:33:17.419732",
    "updated_at": "2018-08-11 21:37:06.102052",
    "country": "United States",
    "longitude": "",
    "latitude": "",
    "tags": []
  },
  {
    "id": "paragon-brewing",
    "name": "Paragon Brewing",
    "brewery_type": "proprietor",
    "street": "5785 N Government Way",
    "city": "Coeur D Alene",
    "state": "Idaho",
    "postal_code": "83815-7329",
    "website_url": "http://www.paragonbrewing.com",
    "phone": "2087729292",
    "created_at": "2018-07-24 01:33:17.493234",
    "updated_at": "2018-08-11 21:37:06.369558",
    "country": "United States",
    "longitude": "",
    "latitude": "",
    "tags": []
  },
  {
    "id": "tricksters-brewing-company",
    "name": "Trickster's Brewing Company",
    "brewery_type": "micro",
    "street": "3850 N Schreiber Way",
    "city": "Coeur D Alene",
    "state": "Idaho",
    "postal_code": "83815-8362",
    "website_url": "http://www.trickstersbrewing.com",
    "phone": "9707647128",
    "created_at": "2018-07-24 01:33:17.705507",
    "updated_at": "2018-08-11 21:37:07.05049",
    "country": "United States",
    "longitude": "",
    "latitude": "",
    "tags": []
  }
]