[
  {
    "id": "barbarian-brewing",
    "name": "Barbarian Brewing",
    "brewery_type": "micro",
    "street": "5270 W Chinden Blvd",
    "city": "Garden City",
    "state": "Idaho",
    "postal_code": "83714-1457",
    "website_url": "http://www.barbarianbrewing.com",
    "phone": "2083872739",
    "created_at": "2018-07-24 01:33:17.062439",
    "updated_at": "2018-08-11 21:37:05.133918",
    "country": "United States",
    "longitude": "",
    "latitude": "",
    "tags": []
  },
  {
    "id": "bella-brewing",
    "name": "Bella Brewing",
    "brewery_type": "micro",
    "street": "4340 W Chinden Blvd",
    "city": "Garden City",
    "state": "Idaho",
    "postal_code": "83714-4866",
    "website_url": "http://www.bellabrewing.com",
    "phone": "2086295623",
    "created_at": "2018-07-24 01:33:17.086729",
    "updated_at": "2018-08-11 21:37:05.214596",
    "country": "United States",
    "longitude": "",
    "latitude": "",
    "tags": []
  },
  {
    "id": "county-line-brewing",
    "name": "County Line Brewing",
    "brewery_type": "micro",
    "street": "9115 W Chinden Blvd Ste 107",
    "city": "Garden City",
    "state": "Idaho",
    "postal_code": "83714-1903",
    "website_url": "http://www.countylinebrewing.com",
    "phone": "2088302456",
    "created_at": "2018-07-24 01:33:17.188556",
    "updated_at": "2018-08-11 21:37:05.454309",
    "country": "United States",
    "longitude": "",
    "latitude": "",
    "tags": []
  },
  {
    "id": "crooked-fence-brewing",
    "name": "Crooked Fence Brewing",
    "brewery_type": "micro",
    "street": "5220 N SAWYER AVE Suite A",
    "city": "GARDEN CITY",
    "state": "Idaho",
    "postal_code": "83714",
    "website_url": "http://www.crookedfencebrewing.com",
    "phone": "2089496130",
    "created_at": "2018-07-24 01:33:17.213273",
    "updated_at": "2018-08-11 21:37:05.510809",
    "country": "United States",
    "longitude": "",
    "latitude": "",
    "tags": []
  },
  {
    "id": "powderhaus-brewing",
    "name": "Powderhaus Brewing",
    "brewery_type": "micro",
    "street": "9719 W Chinden Blvd",
    "city": "Garden City",
    "state": "Idaho",
    "postal_code": "83714-2008",
    "website_url": "http://www.powderhausbrewing.com",
    "phone": "2083764026",
    "created_at": "2018-07-24 01:33:17.542995",
    "updated_at": "2018-08-11 21:37:06.496572",
    "country": "United States",
    "longitude": "",
    "latitude": "",
    "tags": []
  }
]