[
  {
    "id": "stark-brewing-company",
    "name": "Stark Brewing Company",
    "brewery_type": "brewpub",
    "street": "500 North Commercial St",
    "city": "Manchester",
    "state": "New Hampshire",
    "postal_code": "03101-1151",
    "website_url": "http://www.starkbrewingcompany.com",
    "phone": "6036254444",
    "created_at": "2018-07-24 01:33:45.759945",
    "updated_at": "2018-08-24 15:36:19.710305",
    "country": "United States",
    "longitude": "-71.4676557",
    "latitude": "42.9945554",
    "tags": []
  },
  {
    "id": "great-north-aleworks",
    "name": "Great North Aleworks",
    "brewery_type": "micro",
    "street": "1050 Holt Ave Unit 14",
    "city": "Manchester",
    "state": "New Hampshire",
    "postal_code": "03109-5615",
    "website_url": "http://greatnorthaleworks.com",
    "phone": "6034988152",
    "created_at": "2018-07-24 01:33:45.352122",
    "updated_at": "2018-08-11 21:38:19.597651",
    "country": "United States",
    "longitude": "",
    "latitude": "",
    "tags": []
  },
  {
    "id": "aigean-ales",
    "name": "Aigean Ales",
    "brewery_type": "micro",
    "street": "250 Commercial St Ste 2001",
    "city": "Manchester",
    "state": "New Hampshire",
    "postal_code": "03101-1165",
    "website_url": "",
    "phone": "6035188550",
    "created_at": "2018-07-24 01:33:44.915758",
    "updated_at": "2018-08-24 15:35:54.026066",
    "country": "United States",
    "longitude": "-71.4689918739142",
    "latitude": "42.9899594",
    "tags": []
  },
  {
    "id": "backyard-brewery",
    "name": "Backyard Brewery",
    "brewery_type": "brewpub",
    "street": "1211 S Mammoth Rd",
    "city": "Manchester",
    "state": "New Hampshire",
    "postal_code": "03109-5101",
    "website_url": "http://www.backyardbrewerynh.com",
    "phone": "6036233545",
    "created_at": "2018-07-24 01:33:44.9665",
    "updated_at": "2018-08-24 15:35:56.179232",
    "country": "United States",
    "longitude": "-71.413459802397",
    "latitude": "42.93534925",
    "tags": []
  },
  {
    "id": "to-share-brewing-company",
    "name": "To Share Brewing Company",
    "brewery_type": "planning",
    "street": "",
    "city": "Manchester",
    "state": "New Hampshire",
    "postal_code": "03104",
    "website_url": "http://www.tosharebrewing.com",
    "phone": "3012376579",
    "created_at": "2018-07-24 01:33:45.905465",
    "updated_at": "2018-08-11 21:38:21.44713",
    "country": "United States",
    "longitude": "",
    "latitude": "",
    "tags": []
  },
  {
    "id": "candia-road-brewing-/-nepenthe-ale-house",
    "name": "Candia Road Brewing / Nepenthe Ale House",
    "brewery_type": "micro",
    "street": "840 Candia Rd",
    "city": "Manchester",
    "state": "New Hampshire",
    "postal_code": "03109-5201",
    "website_url": "http://www.candiaroad.com",
    "phone": "6039358123",
    "created_at": "2018-07-24 01:33:45.206793",
    "updated_at": "2018-08-24 15:36:00.586513",
    "country": "United States",
    "longitude": "-71.4130109581101",
    "latitude": "42.9849563",
    "tags": []
  }
]