[
  {
    "id": "marthas-exchange-restaurant-and-brewery",
    "name": "Martha's Exchange Restaurant and Brewery",
    "brewery_type": "brewpub",
    "street": "185 Main St",
    "city": "Nashua",
    "state": "New Hampshire",
    "postal_code": "03060-2701",
    "website_url": "http://www.marthas-exchange.com",
    "phone": "6038838781",
    "created_at": "2018-07-24 01:33:45.493307",
    "updated_at": "2018-08-24 15:36:10.851893",
    "country": "United States",
    "longitude": "-71.4654818146987",
    "latitude": "42.7604446",
    "tags": []
  },
  {
    "id": "millyard-brewing",
    "name": "Millyard Brewing",
    "brewery_type": "micro",
    "street": "25 E Otterson St",
    "city": "Nashua",
    "state": "New Hampshire",
    "postal_code": "03060-3941",
    "website_url": "http://www.millyardbrewery.com",
    "phone": "6035055079",
    "created_at": "2018-07-24 01:33:45.505828",
    "updated_at": "2018-08-24 15:36:11.493369",
    "country": "United States",
    "longitude": "-71.4598818883104",
    "latitude": "42.7544214",
    "tags": []
  },
  {
    "id": "laughinghouse-brewing",
    "name": "Laughinghouse Brewing",
    "brewery_type": "planning",
    "street": "",
    "city": "Nashua",
    "state": "New Hampshire",
    "postal_code": "03060-5143",
    "website_url": "",
    "phone": "",
    "created_at": "2018-07-24 01:33:45.441922",
    "updated_at": "2018-08-11 21:38:19.838539",
    "country": "United States",
    "longitude": "",
    "latitude": "",
    "tags": []
  },
  {
    "id": "talespinner-craft-brewery",
    "name": "TaleSpinner Craft Brewery",
    "brewery_type": "planning",
    "street": "",
    "city": "Nashua",
    "state": "New Hampshire",
    "postal_code": "03062-1033",
    "website_url": "http://www.talespinnerbrew.com",
    "phone": "6032339636",
    "created_at": "2018-07-24 01:33:45.802257",
    "updated_at": "2018-08-11 21:38:21.218001",
    "country": "United States",
    "longitude": "",
    "latitude": "",
    "tags": []
  }
]