[
  {
    "id": "brewery-in-planning-portsmouth-nh",
    "name": "Brewery in Planning - Portsmouth, NH",
    "brewery_type": "planning",
    "street": "",
    "city": "Portsmouth",
    "state": "New Hampshire",
    "postal_code": "03801",
    "website_url": "http://backhillbeer.com",
    "phone": "",
    "created_at": "2018-07-24 01:33:45.180371",
    "updated_at": "2018-08-11 21:38:19.049402",
    "country": "United States",
    "longitude": "",
    "latitude": "",
    "tags": []
  },
  {
    "id": "liars-bench-beer-company",
    "name": "Liars Bench Beer Company",
    "brewery_type": "brewpub",
    "street": "459 Islington St Ste 4",
    "city": "Portsmouth",
    "state": "New Hampshire",
    "postal_code": "03801-4291",
    "website_url": "http://liarsbenchbeer.com",
    "phone": "6032949156",
    "created_at": "2018-07-24 01:33:45.454689",
    "updated_at": "2018-08-11 21:38:19.870802",
    "country": "United States",
    "longitude": "",
    "latitude": "",
    "tags": []
  },
  {
    "id": "loaded-question-brewing-co",
    "name": "Loaded Question Brewing Co",
    "brewery_type": "micro",
    "street": "909 Islington St Ste 12",
    "city": "Portsmouth",
    "state": "New Hampshire",
    "postal_code": "03801",
    "website_url": "http://www.loadedquestionbrewing.com",
    "phone": "",
    "created_at": "2018-07-24 01:33:45.48045",
    "updated_at": "2018-08-11 21:38:19.936869",
    "country": "United States",
    "longitude": "",
    "latitude": "",
    "tags": []
  },
  {
    "id": "appalachian-mountain-brewery-portsmouth",
    "name": "Appalachian Mountain Brewery - Portsmouth",
    "brewery_type": "micro",
    "street": "1 Redhook Way",
    "city": "Portsmouth",
    "state": "New Hampshire",
    "postal_code": "03801-6853",
    "website_url": "",
    "phone": "8282631111",
    "created_at": "2018-07-24 01:33:44.941205",
    "updated_at": "2018-08-24 15:35:55.030392",
    "country": "United States",
    "longitude": "-70.8044602",
    "latitude": "43.087884",
    "tags": []
  },
  {
    "id": "earth-eagle-brewing",
    "name": "Earth Eagle Brewing",
    "brewery_type": "brewpub",
    "street": "165 High Street",
    "city": "Portsmouth",
    "state": "New Hampshire",
    "postal_code": "03801",
    "website_url": "http://www.eartheaglebrewings.com",
    "phone": "",
    "created_at": "2018-07-24 01:33:45.259781",
    "updated_at": "2018-08-24 15:36:02.917136",
    "country": "United States",
    "longitude": "-70.7595719631718",
    "latitude": "43.0792548",
    "tags": []
  },
  {
    "id": "redhook-cataqua-public-house",
    "name": "Redhook - Cataqua Public House",
    "brewery_type": "regional",
    "street": "35 Corporate Dr",
    "city": "Portsmouth",
    "state": "New Hampshire",
    "postal_code": "03801-",
    "website_url": "http://www.redhook.com",
    "phone": "6034308600",
    "created_at": "2018-07-24 01:33:45.662075",
    "updated_at": "2018-08-24 15:36:15.823651",
    "country": "United States",
    "longitude": "-70.8023326882494",
    "latitude": "43.0858295074873",
    "tags": []
  },
  {
    "id": "the-portsmouth-brewery",
    "name": "The Portsmouth Brewery",
    "brewery_type": "brewpub",
    "street": "56 Market St",
    "city": "Portsmouth",
    "state": "New Hampshire",
    "postal_code": "03801-3750",
    "website_url": "http://www.portsmouthbrewery.com",
    "phone": "6034311115",
    "created_at": "2018-07-24 01:33:45.873116",
    "updated_at": "2018-08-24 15:36:23.446046",
    "country": "United States",
    "longitude": "-70.7576875",
    "latitude": "43.0780072",
    "tags": []
  },
  {
    "id": "great-rhythm-brewing-co",
    "name": "Great Rhythm Brewing Co.",
    "brewery_type": "micro",
    "street": "105 Bartlett St Ste 6",
    "city": "Portsmouth",
    "state": "New Hampshire",
    "postal_code": "03801-7608",
    "website_url": "http://www.greatrhythmbrewing.com",
    "phone": "6034309640",
    "created_at": "2018-07-24 01:33:45.365177",
    "updated_at": "2018-08-11 21:38:19.626843",
    "country": "United States",
    "longitude": "",
    "latitude": "",
    "tags": []
  },
  {
    "id": "beara-brewing-co",
    "name": "Beara Brewing Co.",
    "brewery_type": "micro",
    "street": "2800 Lafayette Rd",
    "city": "Portsmouth",
    "state": "New Hampshire",
    "postal_code": "03801-5915",
    "website_url": "http://www.bearairishbrew.com",
    "phone": "3475780585",
    "created_at": "2018-07-24 01:33:44.991732",
    "updated_at": "2018-08-24 15:35:57.2949",
    "country": "United States",
    "longitude": "-70.790732",
    "latitude": "43.027935",
    "tags": []
  }
]