[
  {
    "id": "iron-hill-brewery-and-restaurant-newark",
    "name": "Iron Hill Brewery & Restaurant - Newark",
    "brewery_type": "brewpub",
    "street": "147 East Main St",
    "city": "Newark",
    "state": "Delaware",
    "postal_code": "19711-7313",
    "website_url": "http://www.ironhillbrewery.com",
    "phone": "3022669000",
    "created_at": "2018-07-24 01:33:10.602932",
    "updated_at": "2018-08-24 00:26:04.959642",
    "country": "United States",
    "longitude": "-75.7468068",
    "latitude": "39.6834128",
    "tags": []
  },
  {
    "id": "argilla-brewing-co-pietros-pizza",
    "name": "Argilla Brewing Co @ Pietro's Pizza",
    "brewery_type": "brewpub",
    "street": "2667 Kirkwood Hwy",
    "city": "Newark",
    "state": "Delaware",
    "postal_code": "19711-7242",
    "website_url": "http://www.argillabrewing.com",
    "phone": "3027318200",
    "created_at": "2018-07-24 01:33:10.432322",
    "updated_at": "2018-08-11 21:36:48.081487",
    "country": "United States",
    "longitude": "",
    "latitude": "",
    "tags": []
  },
  {
    "id": "midnight-oil-brewing",
    "name": "Midnight Oil Brewing",
    "brewery_type": "micro",
    "street": "674 Pencader Dr",
    "city": "Newark",
    "state": "Delaware",
    "postal_code": "19702",
    "website_url": "",
    "phone": "3022867641",
    "created_at": "2018-07-24 01:33:10.64293",
    "updated_at": "2018-08-11 21:36:48.725692",
    "country": "United States",
    "longitude": "",
    "latitude": "",
    "tags": []
  },
  {
    "id": "midnight-oil-brewing-company",
    "name": "Midnight Oil Brewing Company",
    "brewery_type": "micro",
    "street": "674 Pencader Dr",
    "city": "Newark",
    "state": "Delaware",
    "postal_code": "19702-3348",
    "website_url": "http://www.midnightoilbrewing.com",
    "phone": "3022867641",
    "created_at": "2018-07-24 01:33:10.655695",
    "updated_at": "2018-08-11 21:36:48.75863",
    "country": "United States",
    "longitude": "",
    "latitude": "",
    "tags": []
  }
]