[
  {
    "id": "brewery-in-planning-rehoboth",
    "name": "Brewery in Planning - REHOBOTH",
    "brewery_type": "planning",
    "street": "",
    "city": "Rehoboth Beach",
    "state": "Delaware",
    "postal_code": "19971-0049",
    "website_url": "http://www.sodelconcepts.com",
    "phone": "3525625449",
    "created_at": "2018-07-24 01:33:10.474114",
    "updated_at": "2018-08-11 21:36:48.21764",
    "country": "United States",
    "longitude": "",
    "latitude": "",
    "tags": []
  },
  {
    "id": "38a°-75a°-brewing",
    "name": "38Â°-75Â° Brewing",
    "brewery_type": "brewpub",
    "street": "2000 Coastal Highway STE 105",
    "city": "Rehoboth Beach",
    "state": "Delaware",
    "postal_code": "19971",
    "website_url": "",
    "phone": "3022278519",
    "created_at": "2018-07-24 01:33:10.407115",
    "updated_at": "2018-08-24 00:25:58.195611",
    "country": "United States",
    "longitude": "-75.090191",
    "latitude": "38.7074994",
    "tags": []
  },
  {
    "id": "dogfish-head-brewings-and-eats",
    "name": "Dogfish Head Brewings & Eats",
    "brewery_type": "brewpub",
    "street": "320 Rehoboth Ave",
    "city": "Rehoboth Beach",
    "state": "Delaware",
    "postal_code": "19971-3108",
    "website_url": "http://www.dogfish.com",
    "phone": "3022262739",
    "created_at": "2018-07-24 01:33:10.539544",
    "updated_at": "2018-08-24 00:26:03.158548",
    "country": "United States",
    "longitude": "-75.08731545",
    "latitude": "38.7151767",
    "tags": []
  },
  {
    "id": "fins-big-oyster-brewery",
    "name": "Fins Big Oyster Brewery",
    "brewery_type": "brewpub",
    "street": "19269 Coastal Hwy",
    "city": "Rehoboth Beach",
    "state": "Delaware",
    "postal_code": "19971-6113",
    "website_url": "http://bigoysterbrewery.com",
    "phone": "3022902410",
    "created_at": "2018-07-24 01:33:10.565555",
    "updated_at": "2018-08-24 00:26:04.410365",
    "country": "United States",
    "longitude": "-75.090191",
    "latitude": "38.7074994",
    "tags": []
  },
  {
    "id": "iron-hill-brewery-and-restaurant-rehoboth-beach",
    "name": "Iron Hill Brewery & Restaurant - Rehoboth Beach",
    "brewery_type": "brewpub",
    "street": "19815 Coastal Hwy",
    "city": "Rehoboth Beach",
    "state": "Delaware",
    "postal_code": "19971",
    "website_url": "http://www.ironhillbrewery.com",
    "phone": "3022608000",
    "created_at": "2018-07-24 01:33:10.615489",
    "updated_at": "2018-08-24 00:26:05.51445",
    "country": "United States",
    "longitude": "-75.090191",
    "latitude": "38.7074994",
    "tags": []
  },
  {
    "id": "revelation-craft-brewing-co",
    "name": "Revelation Craft Brewing Co",
    "brewery_type": "micro",
    "street": "19841 Central Ave",
    "city": "Rehoboth Beach",
    "state": "Delaware",
    "postal_code": "19971-1112",
    "website_url": "http://Www.revbeer.com",
    "phone": "3022125674",
    "created_at": "2018-07-24 01:33:10.695253",
    "updated_at": "2018-08-11 21:36:48.882387",
    "country": "United States",
    "longitude": "",
    "latitude": "",
    "tags": []
  }
]