[
  {
    "id": "bellefonte-brewing-co",
    "name": "Bellefonte Brewing Co",
    "brewery_type": "micro",
    "street": "3605 Old Capitol Trl Unit C7/C8",
    "city": "Wilmington",
    "state": "Delaware",
    "postal_code": "19808-6043",
    "website_url": "http://www.bellefontebrewingco.com",
    "phone": "3025401055",
    "created_at": "2018-07-24 01:33:10.445003",
    "updated_at": "2018-08-11 21:36:48.126226",
    "country": "United States",
    "longitude": "",
    "latitude": "",
    "tags": []
  },
  {
    "id": "iron-hill-brewery-and-restaurant-wilmington",
    "name": "Iron Hill Brewery & Restaurant - Wilmington",
    "brewery_type": "brewpub",
    "street": "620 Justison St",
    "city": "Wilmington",
    "state": "Delaware",
    "postal_code": "19801-5141",
    "website_url": "http://www.ironhillbrewery.com",
    "phone": "3026588200",
    "created_at": "2018-07-24 01:33:10.629368",
    "updated_at": "2018-08-11 21:36:48.692158",
    "country": "United States",
    "longitude": "",
    "latitude": "",
    "tags": []
  },
  {
    "id": "twin-lakes-brewing-co",
    "name": "Twin Lakes Brewing Co",
    "brewery_type": "micro",
    "street": "405 Marsh Ln Ste 7",
    "city": "Wilmington",
    "state": "Delaware",
    "postal_code": "19804-2445",
    "website_url": "http://www.twinlakesbrewingcompany.com",
    "phone": "3029952337",
    "created_at": "2018-07-24 01:33:10.735815",
    "updated_at": "2018-08-11 21:36:48.984238",
    "country": "United States",
    "longitude": "",
    "latitude": "",
    "tags": []
  },
  {
    "id": "wilmington-brew-works",
    "name": "Wilmington Brew Works",
    "brewery_type": "planning",
    "street": "",
    "city": "Wilmington",
    "state": "Delaware",
    "postal_code": "19802-2542",
    "website_url": "http://www.wilmingtonbrewworks.com",
    "phone": "3027574971",
    "created_at": "2018-07-24 01:33:10.761339",
    "updated_at": "2018-08-11 21:36:49.079237",
    "country": "United States",
    "longitude": "",
    "latitude": "",
    "tags": []
  },
  {
    "id": "stitch-house-brewery",
    "name": "Stitch House Brewery",
    "brewery_type": "brewpub",
    "street": "829 North Market Street",
    "city": "Wilmington",
    "state": "Delaware",
    "postal_code": "19801",
    "website_url": "http://www.stitchhousebrewery.com",
    "phone": "3022504280",
    "created_at": "2018-07-24 01:33:10.723314",
    "updated_at": "2018-08-24 00:26:09.597224",
    "country": "United States",
    "longitude": "-75.5490871634984",
    "latitude": "39.7438473029416",
    "tags": []
  }
]