[
  {
    "id": "two-monks-brewing-company",
    "name": "Two Monks Brewing Company",
    "brewery_type": "micro",
    "street": "352 Massillon Rd",
    "city": "Akron",
    "state": "Ohio",
    "postal_code": "44312-2021",
    "website_url": "http://www.2monksbru.com",
    "phone": "2347382337",
    "created_at": "2018-07-24 01:34:03.493272",
    "updated_at": "2018-08-24 15:45:15.418183",
    "country": "United States",
    "longitude": "-81.4629236768124",
    "latitude": "41.0520502548408",
    "tags": []
  },
  {
    "id": "akronym-brewing-llc",
    "name": "Akronym Brewing LLC",
    "brewery_type": "micro",
    "street": "58 E Market St",
    "city": "Akron",
    "state": "Ohio",
    "postal_code": "4430",
    "website_url": "http://www.akronymbrewing.com",
    "phone": "3306208274",
    "created_at": "2018-07-24 01:33:59.408302",
    "updated_at": "2018-08-24 15:43:22.076854",
    "country": "United States",
    "longitude": "-81.516458822277",
    "latitude": "41.0851219267793",
    "tags": []
  },
  {
    "id": "aqueduct-brewing",
    "name": "Aqueduct Brewing",
    "brewery_type": "micro",
    "street": "529 Grant St Ste 106",
    "city": "Akron",
    "state": "Ohio",
    "postal_code": "44311-1184",
    "website_url": "http://www.aqueductbrewing.shutterfly.com",
    "phone": "3306066583",
    "created_at": "2018-07-24 01:33:59.459423",
    "updated_at": "2018-08-24 15:43:23.190484",
    "country": "United States",
    "longitude": "-81.5178848685887",
    "latitude": "41.0698532030387",
    "tags": []
  },
  {
    "id": "hoppin-frog-brewing-co",
    "name": "Hoppin' Frog Brewing Co",
    "brewery_type": "micro",
    "street": "1680 E Waterloo Rd Ste F",
    "city": "Akron",
    "state": "Ohio",
    "postal_code": "44306-4523",
    "website_url": "http://www.hoppinfrog.com",
    "phone": "",
    "created_at": "2018-07-24 01:34:01.191732",
    "updated_at": "2018-08-11 21:38:59.539591",
    "country": "United States",
    "longitude": "",
    "latitude": "",
    "tags": []
  },
  {
    "id": "lock-15-brewing-co",
    "name": "Lock 15 Brewing Co",
    "brewery_type": "planning",
    "street": "",
    "city": "Akron",
    "state": "Ohio",
    "postal_code": "44304-1035",
    "website_url": "http://www.lock15brewing.com",
    "phone": "",
    "created_at": "2018-07-24 01:34:01.515621",
    "updated_at": "2018-08-11 21:39:00.388781",
    "country": "United States",
    "longitude": "",
    "latitude": "",
    "tags": []
  },
  {
    "id": "missing-falls-brewery",
    "name": "Missing Falls Brewery",
    "brewery_type": "planning",
    "street": "",
    "city": "Akron",
    "state": "Ohio",
    "postal_code": "44311-1079",
    "website_url": "",
    "phone": "3308086097",
    "created_at": "2018-07-24 01:34:01.828302",
    "updated_at": "2018-08-11 21:39:01.389564",
    "country": "United States",
    "longitude": "",
    "latitude": "",
    "tags": []
  },
  {
    "id": "mucky-duck-brewery",
    "name": "Mucky Duck Brewery",
    "brewery_type": "brewpub",
    "street": "4019 S Main St",
    "city": "Akron",
    "state": "Ohio",
    "postal_code": "44319-3668",
    "website_url": "",
    "phone": "3306445444",
    "created_at": "2018-07-24 01:34:01.951782",
    "updated_at": "2018-08-24 15:44:32.667287",
    "country": "United States",
    "longitude": "-81.5268804",
    "latitude": "41.0629094",
    "tags": []
  },
  {
    "id": "rshea-brewing",
    "name": "R.Shea Brewing",
    "brewery_type": "micro",
    "street": "1662 Merriman Rd",
    "city": "Akron",
    "state": "Ohio",
    "postal_code": "44313-9000",
    "website_url": "http://www.rsheabrewing.com",
    "phone": "3307945654",
    "created_at": "2018-07-24 01:34:02.574397",
    "updated_at": "2018-08-24 15:44:48.221836",
    "country": "United States",
    "longitude": "-81.5534150333579",
    "latitude": "41.134899952298",
    "tags": []
  },
  {
    "id": "roobrew",
    "name": "Roobrew",
    "brewery_type": "contract",
    "street": "",
    "city": "Akron",
    "state": "Ohio",
    "postal_code": "44311-1051",
    "website_url": "http://www.roobrew.com",
    "phone": "3307033947",
    "created_at": "2018-07-24 01:34:02.79362",
    "updated_at": "2018-08-11 21:39:03.87714",
    "country": "United States",
    "longitude": "",
    "latitude": "",
    "tags": []
  },
  {
    "id": "the-brick-oven-brewpub",
    "name": "The Brick Oven Brewpub",
    "brewery_type": "brewpub",
    "street": "604 Canton Rd",
    "city": "Akron",
    "state": "Ohio",
    "postal_code": "44312-2513",
    "website_url": "http://www.thebrickovenbrewpub.com",
    "phone": "3304757005",
    "created_at": "2018-07-24 01:34:03.256634",
    "updated_at": "2018-08-24 15:45:07.804521",
    "country": "United States",
    "longitude": "-81.4373419398895",
    "latitude": "41.0471953371375",
    "tags": []
  },
  {
    "id": "thirsty-dog-brewing-company",
    "name": "Thirsty Dog Brewing Company",
    "brewery_type": "micro",
    "street": "529 Grant St Ste 103",
    "city": "Akron",
    "state": "Ohio",
    "postal_code": "44311-1184",
    "website_url": "http://www.thirstydog.com",
    "phone": "3302522739",
    "created_at": "2018-07-24 01:34:03.387817",
    "updated_at": "2018-08-24 15:45:11.684411",
    "country": "United States",
    "longitude": "-81.5178848685887",
    "latitude": "41.0698532030387",
    "tags": []
  }
]