[
  {
    "id": "jackie-os-brewery",
    "name": "Jackie O's Brewery",
    "brewery_type": "micro",
    "street": "25 Campbell St",
    "city": "Athens",
    "state": "Ohio",
    "postal_code": "45701-2616",
    "website_url": "",
    "phone": "6147473434",
    "created_at": "2018-07-24 01:34:01.283792",
    "updated_at": "2018-08-24 15:44:11.587098",
    "country": "United States",
    "longitude": "-82.0905355476436",
    "latitude": "39.3315139",
    "tags": []
  },
  {
    "id": "jackie-os-pub-and-brewery",
    "name": "Jackie O's Pub & Brewery",
    "brewery_type": "brewpub",
    "street": "22-24 W Union St",
    "city": "Athens",
    "state": "Ohio",
    "postal_code": "45701-2818",
    "website_url": "http://www.jackieos.com",
    "phone": "7405929686",
    "created_at": "2018-07-24 01:34:01.296584",
    "updated_at": "2018-08-24 15:44:12.145201",
    "country": "United States",
    "longitude": "-82.1021617142857",
    "latitude": "39.3276418571429",
    "tags": []
  },
  {
    "id": "little-fish-brewing-company",
    "name": "Little Fish Brewing Company",
    "brewery_type": "micro",
    "street": "8675 Armitage Rd",
    "city": "Athens",
    "state": "Ohio",
    "postal_code": "45701-8900",
    "website_url": "http://www.littlefishbrewing.com",
    "phone": "7402046187",
    "created_at": "2018-07-24 01:34:01.489162",
    "updated_at": "2018-08-24 15:44:18.85203",
    "country": "United States",
    "longitude": "-82.1295773821057",
    "latitude": "39.3333322660354",
    "tags": []
  },
  {
    "id": "devils-kettle-brewing",
    "name": "Devil's Kettle Brewing",
    "brewery_type": "micro",
    "street": "97 Columbus Rd",
    "city": "Athens",
    "state": "Ohio",
    "postal_code": "45701-1313",
    "website_url": "http://www.devilskettlebrewing.com",
    "phone": "7405897187",
    "created_at": "2018-07-24 01:34:00.477948",
    "updated_at": "2018-08-24 15:43:44.632218",
    "country": "United States",
    "longitude": "-82.0954317616037",
    "latitude": "39.3487142533636",
    "tags": []
  }
]