[
  {
    "id": "muskellunge-brewing-company",
    "name": "Muskellunge Brewing Company",
    "brewery_type": "micro",
    "street": "425 5th St NW",
    "city": "Canton",
    "state": "Ohio",
    "postal_code": "44702",
    "website_url": "http://www.muskybrewco.com",
    "phone": "",
    "created_at": "2018-07-24 01:34:01.997534",
    "updated_at": "2018-08-24 15:44:34.180415",
    "country": "United States",
    "longitude": "-81.3767243265306",
    "latitude": "40.8019184081633",
    "tags": []
  },
  {
    "id": "canton-brewing-company",
    "name": "Canton Brewing Company",
    "brewery_type": "brewpub",
    "street": "120 3rd St NW",
    "city": "Canton",
    "state": "Ohio",
    "postal_code": "44702",
    "website_url": "http://www.drinkcantonbeer.com",
    "phone": "",
    "created_at": "2018-07-24 01:34:00.152894",
    "updated_at": "2018-08-24 15:43:35.424409",
    "country": "United States",
    "longitude": "-81.3745386734694",
    "latitude": "40.7998288979592",
    "tags": []
  },
  {
    "id": "fat-heads-brewpub-canton",
    "name": "Fat Head's Brewpub - Canton",
    "brewery_type": "brewpub",
    "street": "3885 Everhard Rd NW",
    "city": "Canton",
    "state": "Ohio",
    "postal_code": "44709-4003",
    "website_url": "",
    "phone": "",
    "created_at": "2018-07-24 01:34:00.678075",
    "updated_at": "2018-08-24 15:43:50.396494",
    "country": "United States",
    "longitude": "-81.4186757120517",
    "latitude": "40.8597243589905",
    "tags": []
  },
  {
    "id": "royal-docks-brewing-company",
    "name": "Royal Docks Brewing Company",
    "brewery_type": "contract",
    "street": "7162 Fulton Dr NW",
    "city": "Canton",
    "state": "Ohio",
    "postal_code": "44718-1523",
    "website_url": "http://www.docks.beer",
    "phone": "3303539103",
    "created_at": "2018-07-24 01:34:02.833634",
    "updated_at": "2018-08-11 21:39:04.007534",
    "country": "United States",
    "longitude": "",
    "latitude": "",
    "tags": []
  }
]