[
  {
    "id": "christian-moerlein-brewing-co",
    "name": "Christian Moerlein Brewing Co",
    "brewery_type": "regional",
    "street": "1621 Moore St",
    "city": "Cincinnati",
    "state": "Ohio",
    "postal_code": "45202-6438",
    "website_url": "http://www.christianmoerlein.com",
    "phone": "5138276025",
    "created_at": "2018-07-24 01:34:00.218329",
    "updated_at": "2018-08-24 15:43:37.274335",
    "country": "United States",
    "longitude": "-84.5153343213929",
    "latitude": "39.113225087534",
    "tags": []
  },
  {
    "id": "fibonacci-brewing-company",
    "name": "Fibonacci Brewing Company",
    "brewery_type": "micro",
    "street": "1445 Compton Rd",
    "city": "Cincinnati",
    "state": "Ohio",
    "postal_code": "45231-3559",
    "website_url": "http://fibbrew.com",
    "phone": "5138321422",
    "created_at": "2018-07-24 01:34:00.702902",
    "updated_at": "2018-08-24 15:43:51.294404",
    "country": "United States",
    "longitude": "-84.4805528",
    "latitude": "39.218908",
    "tags": []
  },
  {
    "id": "moerlein-lager-house",
    "name": "Moerlein Lager House",
    "brewery_type": "brewpub",
    "street": "115 Joe Nuxhall Way",
    "city": "Cincinnati",
    "state": "Ohio",
    "postal_code": "45202-4143",
    "website_url": "http://www.moerleinlagerhouse.com",
    "phone": "5134212337",
    "created_at": "2018-07-24 01:34:01.882783",
    "updated_at": "2018-08-24 15:44:30.805489",
    "country": "United States",
    "longitude": "-84.5087167704914",
    "latitude": "39.09630095",
    "tags": []
  },
  {
    "id": "tap-and-screw-brewery",
    "name": "Tap and Screw Brewery",
    "brewery_type": "brewpub",
    "street": "4721 Red Bank Rd",
    "city": "Cincinnati",
    "state": "Ohio",
    "postal_code": "45277",
    "website_url": "http://www.tapandscrew.com",
    "phone": "5134511763",
    "created_at": "2018-07-24 01:34:03.152866",
    "updated_at": "2018-08-24 15:45:04.576924",
    "country": "United States",
    "longitude": "-84.4043431560687",
    "latitude": "39.158691",
    "tags": []
  },
  {
    "id": "the-woodburn-brewery",
    "name": "The Woodburn Brewery",
    "brewery_type": "micro",
    "street": "2800 Woodburn Ave",
    "city": "Cincinnati",
    "state": "Ohio",
    "postal_code": "45206-1793",
    "website_url": "http://www.woodburnbrewery.com",
    "phone": "5132212337",
    "created_at": "2018-07-24 01:34:03.359807",
    "updated_at": "2018-08-24 15:45:11.146478",
    "country": "United States",
    "longitude": "-84.4768398",
    "latitude": "39.1289592",
    "tags": []
  },
  {
    "id": "revel-urban-winery-/-revel-otr",
    "name": "Revel Urban Winery / Revel OTR",
    "brewery_type": "brewpub",
    "street": "111 E 12th St",
    "city": "Cincinnati",
    "state": "Ohio",
    "postal_code": "45202",
    "website_url": "http://www.revelotr.com",
    "phone": "5135799463",
    "created_at": "2018-07-24 01:34:02.656456",
    "updated_at": "2018-08-24 15:44:51.072412",
    "country": "United States",
    "longitude": "-84.5126641",
    "latitude": "39.1085275",
    "tags": []
  },
  {
    "id": "brewery-in-planning-cincinnati",
    "name": "Brewery in Planning - Cincinnati",
    "brewery_type": "planning",
    "street": "",
    "city": "Cincinnati",
    "state": "Ohio",
    "postal_code": "45245-2833",
    "website_url": "",
    "phone": "5855767169",
    "created_at": "2018-07-24 01:33:59.808511",
    "updated_at": "2018-08-11 21:38:56.640106",
    "country": "United States",
    "longitude": "",
    "latitude": "",
    "tags": []
  },
  {
    "id": "big-ash-brewing-company",
    "name": "Big Ash Brewing Company",
    "brewery_type": "planning",
    "street": "",
    "city": "Cincinnati",
    "state": "Ohio",
    "postal_code": "45244-3244",
    "website_url": "http://www.BigAshBrewing.com",
    "phone": "5133079688",
    "created_at": "2018-07-24 01:33:59.561083",
    "updated_at": "2018-08-11 21:38:55.931453",
    "country": "United States",
    "longitude": "",
    "latitude": "",
    "tags": []
  },
  {
    "id": "13-below-brewery",
    "name": "13 Below Brewery",
    "brewery_type": "micro",
    "street": "7391 Forbes Rd",
    "city": "Cincinnati",
    "state": "Ohio",
    "postal_code": "45233-1013",
    "website_url": "http://www.13belowbrewery.com",
    "phone": "5139750613",
    "created_at": "2018-07-24 01:33:59.314406",
    "updated_at": "2018-08-24 15:43:19.853877",
    "country": "United States",
    "longitude": "-84.7063481503403",
    "latitude": "39.1263976398717",
    "tags": []
  },
  {
    "id": "bad-tom-smith-brewing",
    "name": "Bad Tom Smith Brewing",
    "brewery_type": "micro",
    "street": "4720 Eastern Ave",
    "city": "Cincinnati",
    "state": "Ohio",
    "postal_code": "45226-1893",
    "website_url": "http://www.badtomsmithbrewing.com",
    "phone": "5138714677",
    "created_at": "2018-07-24 01:33:59.487367",
    "updated_at": "2018-08-24 15:43:24.1367",
    "country": "United States",
    "longitude": "-84.4180308597704",
    "latitude": "39.1199575504541",
    "tags": []
  },
  {
    "id": "dead-low-brewing",
    "name": "Dead Low Brewing",
    "brewery_type": "planning",
    "street": "",
    "city": "Cincinnati",
    "state": "Ohio",
    "postal_code": "45230",
    "website_url": "http://www.deadlowbrewing.com",
    "phone": "5132909434",
    "created_at": "2018-07-24 01:34:00.450917",
    "updated_at": "2018-08-11 21:38:57.930295",
    "country": "United States",
    "longitude": "",
    "latitude": "",
    "tags": []
  },
  {
    "id": "brink-brewing-company",
    "name": "Brink Brewing Company",
    "brewery_type": "micro",
    "street": "5905 Hamilton Ave",
    "city": "Cincinnati",
    "state": "Ohio",
    "postal_code": "45224-3045",
    "website_url": "http://www.brinkbrewing.com",
    "phone": "5138823334",
    "created_at": "2018-07-24 01:34:00.081341",
    "updated_at": "2018-08-24 15:43:33.335495",
    "country": "United States",
    "longitude": "-84.545876",
    "latitude": "39.192788",
    "tags": []
  },
  {
    "id": "fifty-west-brewing-co",
    "name": "Fifty West Brewing Co",
    "brewery_type": "brewpub",
    "street": "7668 Wooster Pike",
    "city": "Cincinnati",
    "state": "Ohio",
    "postal_code": "45227-3926",
    "website_url": "http://www.fiftywestbrew.com",
    "phone": "5138348789",
    "created_at": "2018-07-24 01:34:00.728749",
    "updated_at": "2018-08-24 15:43:52.294529",
    "country": "United States",
    "longitude": "-84.4134859",
    "latitude": "39.11952",
    "tags": []
  },
  {
    "id": "fifty-west-brewing-co",
    "name": "Fifty West Brewing Co",
    "brewery_type": "micro",
    "street": "7605 Wooster Pike",
    "city": "Cincinnati",
    "state": "Ohio",
    "postal_code": "45227-3925",
    "website_url": "",
    "phone": "5138348789",
    "created_at": "2018-07-24 01:34:00.740964",
    "updated_at": "2018-08-24 15:43:52.770031",
    "country": "United States",
    "longitude": "-84.4134859",
    "latitude": "39.11952",
    "tags": []
  },
  {
    "id": "march-first-brewing",
    "name": "March First Brewing",
    "brewery_type": "brewpub",
    "street": "7885 E Kemper Rd",
    "city": "Cincinnati",
    "state": "Ohio",
    "postal_code": "45249-1622",
    "website_url": "http://www.marchfirstbrewing.com",
    "phone": "5135620759",
    "created_at": "2018-07-24 01:34:01.706411",
    "updated_at": "2018-08-11 21:39:00.942491",
    "country": "United States",
    "longitude": "",
    "latitude": "",
    "tags": []
  },
  {
    "id": "mt-carmel-brewing-co",
    "name": "Mt. Carmel Brewing Co",
    "brewery_type": "micro",
    "street": "4362 Mount Carmel Tobasco Rd",
    "city": "Cincinnati",
    "state": "Ohio",
    "postal_code": "45244-2338",
    "website_url": "",
    "phone": "5132402739",
    "created_at": "2018-07-24 01:34:01.936951",
    "updated_at": "2018-08-11 21:39:01.745553",
    "country": "United States",
    "longitude": "",
    "latitude": "",
    "tags": []
  },
  {
    "id": "listermann-brewing-company",
    "name": "Listermann Brewing Company",
    "brewery_type": "micro",
    "street": "1621 Dana Ave",
    "city": "Cincinnati",
    "state": "Ohio",
    "postal_code": "45207-1007",
    "website_url": "http://Listermannbrewing.com",
    "phone": "5137311130",
    "created_at": "2018-07-24 01:34:01.474354",
    "updated_at": "2018-08-24 15:44:18.372448",
    "country": "United States",
    "longitude": "-84.4721318",
    "latitude": "39.1463506",
    "tags": []
  },
  {
    "id": "madtree-brewing",
    "name": "MadTree Brewing",
    "brewery_type": "regional",
    "street": "3301 Madison Rd",
    "city": "Cincinnati",
    "state": "Ohio",
    "postal_code": "45209-1132",
    "website_url": "http://www.madtreebrewing.com",
    "phone": "5138368733",
    "created_at": "2018-07-24 01:34:01.620397",
    "updated_at": "2018-08-24 15:44:22.2817",
    "country": "United States",
    "longitude": "-84.4239715",
    "latitude": "39.1563725",
    "tags": []
  },
  {
    "id": "madtree-brewing-20",
    "name": "MadTree Brewing 2.0",
    "brewery_type": "regional",
    "street": "5164 Kennedy Ave",
    "city": "Cincinnati",
    "state": "Ohio",
    "postal_code": "45213",
    "website_url": "http://www.madtreebrewing.com",
    "phone": "5138368733",
    "created_at": "2018-07-24 01:34:01.634613",
    "updated_at": "2018-08-24 15:44:22.908298",
    "country": "United States",
    "longitude": "-84.4137736",
    "latitude": "39.1885752",
    "tags": []
  },
  {
    "id": "queen-city-brewery-of-cincinnati",
    "name": "Queen City Brewery of Cincinnati",
    "brewery_type": "micro",
    "street": "11253 Williamson Rd",
    "city": "Cincinnati",
    "state": "Ohio",
    "postal_code": "45241-2230",
    "website_url": "",
    "phone": "",
    "created_at": "2018-07-24 01:34:02.560741",
    "updated_at": "2018-08-11 21:39:03.343997",
    "country": "United States",
    "longitude": "",
    "latitude": "",
    "tags": []
  },
  {
    "id": "rock-bottom-brewery-cincinnati",
    "name": "Rock Bottom Brewery - Cincinnati",
    "brewery_type": "brewpub",
    "street": "10 Fountain Square Plz",
    "city": "Cincinnati",
    "state": "Ohio",
    "postal_code": "45202-3102",
    "website_url": "http://www.rockbottom.com",
    "phone": "5136211588",
    "created_at": "2018-07-24 01:34:02.736765",
    "updated_at": "2018-08-11 21:39:03.734272",
    "country": "United States",
    "longitude": "",
    "latitude": "",
    "tags": []
  },
  {
    "id": "nine-giant-brewing",
    "name": "Nine Giant Brewing",
    "brewery_type": "brewpub",
    "street": "6095 Montgomery Rd",
    "city": "Cincinnati",
    "state": "Ohio",
    "postal_code": "45213-1617",
    "website_url": "http://www.ninegiant.com",
    "phone": "5133664550",
    "created_at": "2018-07-24 01:34:02.104946",
    "updated_at": "2018-08-24 15:44:35.554533",
    "country": "United States",
    "longitude": "-84.4276285",
    "latitude": "39.1822755",
    "tags": []
  },
  {
    "id": "northern-row-brewery-and-distillery",
    "name": "Northern Row Brewery & Distillery",
    "brewery_type": "micro",
    "street": "111 W McMicken Ave",
    "city": "Cincinnati",
    "state": "Ohio",
    "postal_code": "45202-4915",
    "website_url": "http://www.northernrow.com",
    "phone": "5136736689",
    "created_at": "2018-07-24 01:34:02.164153",
    "updated_at": "2018-08-24 15:44:37.463355",
    "country": "United States",
    "longitude": "-84.5192446613843",
    "latitude": "39.1183685524544",
    "tags": []
  },
  {
    "id": "off-track-brewing-company",
    "name": "Off Track Brewing Company",
    "brewery_type": "micro",
    "street": "227 Stark Street",
    "city": "Cincinnati",
    "state": "Ohio",
    "postal_code": "45214",
    "website_url": "http://www.OffTrackBrewingCompany.com",
    "phone": "5136044527",
    "created_at": "2018-07-24 01:34:02.21279",
    "updated_at": "2018-08-24 15:44:38.327505",
    "country": "United States",
    "longitude": "-84.522243",
    "latitude": "39.118674",
    "tags": []
  },
  {
    "id": "platform-cincinnati",
    "name": "Platform Cincinnati",
    "brewery_type": "micro",
    "street": "916 Dalton Ave",
    "city": "Cincinnati",
    "state": "Ohio",
    "postal_code": "45203",
    "website_url": "",
    "phone": "2162021386",
    "created_at": "2018-07-24 01:34:02.477607",
    "updated_at": "2018-08-24 15:44:44.886097",
    "country": "United States",
    "longitude": "-84.5362431006277",
    "latitude": "39.1059299127606",
    "tags": []
  },
  {
    "id": "rhinegeist-brewery",
    "name": "Rhinegeist Brewery",
    "brewery_type": "regional",
    "street": "1910 Elm St",
    "city": "Cincinnati",
    "state": "Ohio",
    "postal_code": "45202-7751",
    "website_url": "http://www.rhinegeist.com",
    "phone": "5133811356",
    "created_at": "2018-07-24 01:34:02.669437",
    "updated_at": "2018-08-24 15:44:51.54647",
    "country": "United States",
    "longitude": "-84.5199207586262",
    "latitude": "39.1172",
    "tags": []
  },
  {
    "id": "streetside-brewery",
    "name": "Streetside Brewery",
    "brewery_type": "micro",
    "street": "4003 Eastern Ave",
    "city": "Cincinnati",
    "state": "Ohio",
    "postal_code": "45226-1747",
    "website_url": "",
    "phone": "5136155877",
    "created_at": "2018-07-24 01:34:03.087474",
    "updated_at": "2018-08-24 15:45:02.322648",
    "country": "United States",
    "longitude": "-84.4329507755102",
    "latitude": "39.1091954081633",
    "tags": []
  },
  {
    "id": "tafts-ale-house",
    "name": "Taft's Ale House",
    "brewery_type": "micro",
    "street": "1429 Race St",
    "city": "Cincinnati",
    "state": "Ohio",
    "postal_code": "45202-7009",
    "website_url": "",
    "phone": "",
    "created_at": "2018-07-24 01:34:03.113871",
    "updated_at": "2018-08-24 15:45:03.186364",
    "country": "United States",
    "longitude": "-84.51750995",
    "latitude": "39.111325",
    "tags": []
  },
  {
    "id": "tafts-brewing-co",
    "name": "Taft's Brewing Co",
    "brewery_type": "brewpub",
    "street": "4831 Spring Grove Ave",
    "city": "Cincinnati",
    "state": "Ohio",
    "postal_code": "45232-1938",
    "website_url": "",
    "phone": "5138535016",
    "created_at": "2018-07-24 01:34:03.127515",
    "updated_at": "2018-08-24 15:45:03.661057",
    "country": "United States",
    "longitude": "-84.5127071",
    "latitude": "39.1681213",
    "tags": []
  },
  {
    "id": "third-eye-brewery",
    "name": "Third Eye Brewery",
    "brewery_type": "planning",
    "street": "",
    "city": "Cincinnati",
    "state": "Ohio",
    "postal_code": "45246",
    "website_url": "http://www.thirdeyebrewingcompany.com",
    "phone": "",
    "created_at": "2018-07-24 01:34:03.373491",
    "updated_at": "2018-08-11 21:39:06.026428",
    "country": "United States",
    "longitude": "",
    "latitude": "",
    "tags": []
  },
  {
    "id": "three-points-urban-brewery",
    "name": "Three Points Urban Brewery",
    "brewery_type": "micro",
    "street": "331 E 13th St",
    "city": "Cincinnati",
    "state": "Ohio",
    "postal_code": "45202-7307",
    "website_url": "http://www.3pointsbeer.com",
    "phone": "5135555555",
    "created_at": "2018-07-24 01:34:03.401319",
    "updated_at": "2018-08-24 15:45:12.146503",
    "country": "United States",
    "longitude": "-84.509442",
    "latitude": "39.1100908181818",
    "tags": []
  },
  {
    "id": "urban-artifact",
    "name": "Urban Artifact",
    "brewery_type": "micro",
    "street": "1660 Blue Rock St",
    "city": "Cincinnati",
    "state": "Ohio",
    "postal_code": "45223-2554",
    "website_url": "http://www.artifactbeer.com",
    "phone": "",
    "created_at": "2018-07-24 01:34:03.534364",
    "updated_at": "2018-08-24 15:45:17.010506",
    "country": "United States",
    "longitude": "-84.5419628181115",
    "latitude": "39.1607827",
    "tags": []
  },
  {
    "id": "west-side-brewing",
    "name": "West Side Brewing",
    "brewery_type": "micro",
    "street": "3044 Harrison Ave",
    "city": "Cincinnati",
    "state": "Ohio",
    "postal_code": "45211-5752",
    "website_url": "http://www.westsidebrewing.com",
    "phone": "5136612337",
    "created_at": "2018-07-24 01:34:03.660472",
    "updated_at": "2018-08-24 15:45:20.433821",
    "country": "United States",
    "longitude": "-84.598433",
    "latitude": "39.1489024615385",
    "tags": []
  },
  {
    "id": "wiedemann-brewing-co-llc",
    "name": "Wiedemann Brewing Co, LLC",
    "brewery_type": "micro",
    "street": "4811 Vine St",
    "city": "Cincinnati",
    "state": "Ohio",
    "postal_code": "45217-1217",
    "website_url": "http://www.wiedemannbeer.com",
    "phone": "5138009560",
    "created_at": "2018-07-24 01:34:03.687475",
    "updated_at": "2018-08-24 15:45:21.541081",
    "country": "United States",
    "longitude": "-84.4746169",
    "latitude": "39.2072785",
    "tags": []
  },
  {
    "id": "boston-beer-co-dba-samuel-adams-brewing-co",
    "name": "Boston Beer Co - DBA Samuel Adams Brewing Co",
    "brewery_type": "regional",
    "street": "1625 Central Pkwy",
    "city": "Cincinnati",
    "state": "Ohio",
    "postal_code": "45214-2423",
    "website_url": "http://www.samueladams.com",
    "phone": "6173685000",
    "created_at": "2018-07-24 01:33:59.662095",
    "updated_at": "2018-08-24 15:43:28.521282",
    "country": "United States",
    "longitude": "-84.5207651",
    "latitude": "39.11257",
    "tags": []
  }
]