[
  {
    "id": "brick-and-barrel",
    "name": "Brick and Barrel",
    "brewery_type": "micro",
    "street": "1844 Columbus Rd",
    "city": "Cleveland",
    "state": "Ohio",
    "postal_code": "44113-2412",
    "website_url": "http://www.brickandbarrelbrewing.com",
    "phone": "5039270629",
    "created_at": "2018-07-24 01:33:59.993098",
    "updated_at": "2018-08-24 15:43:32.373551",
    "country": "United States",
    "longitude": "-81.7008861",
    "latitude": "41.4895629",
    "tags": []
  },
  {
    "id": "hofbrauhaus-cleveland-/-cincinatti-restaurant-group",
    "name": "Hofbrauhaus Cleveland / Cincinatti Restaurant Group",
    "brewery_type": "brewpub",
    "street": "1550 Chester Ave",
    "city": "Cleveland",
    "state": "Ohio",
    "postal_code": "44114-3615",
    "website_url": "http://www.hofbrauhauscleveland.com",
    "phone": "2166212337",
    "created_at": "2018-07-24 01:34:01.111774",
    "updated_at": "2018-08-24 15:44:06.085127",
    "country": "United States",
    "longitude": "-81.6811534444444",
    "latitude": "41.5031089191919",
    "tags": []
  },
  {
    "id": "nano-brew-cleveland",
    "name": "Nano Brew Cleveland",
    "brewery_type": "brewpub",
    "street": "1859 W 25th St",
    "city": "Cleveland",
    "state": "Ohio",
    "postal_code": "44113",
    "website_url": "http://www.nanobrewcleveland.com",
    "phone": "2168626631",
    "created_at": "2018-07-24 01:34:02.049365",
    "updated_at": "2018-08-24 15:44:34.666352",
    "country": "United States",
    "longitude": "-81.7045531",
    "latitude": "41.4860486",
    "tags": []
  },
  {
    "id": "bookhouse-brewing-llc",
    "name": "Bookhouse Brewing, LLC.",
    "brewery_type": "planning",
    "street": "",
    "city": "Cleveland",
    "state": "Ohio",
    "postal_code": "44113-3104",
    "website_url": "http://www.bookhouse.beer",
    "phone": "4144264555",
    "created_at": "2018-07-24 01:33:59.635008",
    "updated_at": "2018-08-11 21:38:56.174504",
    "country": "United States",
    "longitude": "",
    "latitude": "",
    "tags": []
  },
  {
    "id": "bad-tom-smith-brewing",
    "name": "Bad Tom Smith Brewing",
    "brewery_type": "brewpub",
    "street": "1836 W 25th St",
    "city": "Cleveland",
    "state": "Ohio",
    "postal_code": "44113-3142",
    "website_url": "",
    "phone": "",
    "created_at": "2018-07-24 01:33:59.472992",
    "updated_at": "2018-08-24 15:43:23.67068",
    "country": "United States",
    "longitude": "-81.7051638",
    "latitude": "41.4861772",
    "tags": []
  },
  {
    "id": "boss-dog-brewing",
    "name": "Boss Dog Brewing",
    "brewery_type": "brewpub",
    "street": "2179 Lee Rd",
    "city": "Cleveland",
    "state": "Ohio",
    "postal_code": "44118-2907",
    "website_url": "http://www.bossdogbrewing.com",
    "phone": "2163212337",
    "created_at": "2018-07-24 01:33:59.648557",
    "updated_at": "2018-08-24 15:43:28.002138",
    "country": "United States",
    "longitude": "-81.5652955454545",
    "latitude": "41.5003064545455",
    "tags": []
  },
  {
    "id": "earlybird-brewing-company",
    "name": "Earlybird Brewing Company",
    "brewery_type": "contract",
    "street": "737 Bolivar Rd Ste 4100",
    "city": "Cleveland",
    "state": "Ohio",
    "postal_code": "44115-1259",
    "website_url": "http://www.earlybirdbrewing.com",
    "phone": "",
    "created_at": "2018-07-24 01:34:00.550171",
    "updated_at": "2018-08-11 21:38:58.131671",
    "country": "United States",
    "longitude": "",
    "latitude": "",
    "tags": []
  },
  {
    "id": "cleveland-brewing-company-butcher-and-the-brewer",
    "name": "Cleveland Brewing Company @ Butcher and The Brewer",
    "brewery_type": "brewpub",
    "street": "2043 E 4th St",
    "city": "Cleveland",
    "state": "Ohio",
    "postal_code": "44115-1023",
    "website_url": "",
    "phone": "",
    "created_at": "2018-07-24 01:34:00.244073",
    "updated_at": "2018-08-24 15:43:38.200119",
    "country": "United States",
    "longitude": "-81.690036",
    "latitude": "41.4991502",
    "tags": []
  },
  {
    "id": "collision-bend-brewing-co",
    "name": "Collision Bend Brewing Co",
    "brewery_type": "brewpub",
    "street": "1250 Old River Rd",
    "city": "Cleveland",
    "state": "Ohio",
    "postal_code": "44113-1243",
    "website_url": "http://www.collisionbendbrewery.com",
    "phone": "2162737879",
    "created_at": "2018-07-24 01:34:00.272554",
    "updated_at": "2018-08-24 15:43:39.140912",
    "country": "United States",
    "longitude": "-81.703971902824",
    "latitude": "41.4988482948004",
    "tags": []
  },
  {
    "id": "forest-city-brewery",
    "name": "Forest City Brewery",
    "brewery_type": "brewpub",
    "street": "2135 Columbus Rd Ste A",
    "city": "Cleveland",
    "state": "Ohio",
    "postal_code": "44113-4243",
    "website_url": "http://www.forestcitybrewery.com",
    "phone": "",
    "created_at": "2018-07-24 01:34:00.789864",
    "updated_at": "2018-08-11 21:38:58.641991",
    "country": "United States",
    "longitude": "",
    "latitude": "",
    "tags": []
  },
  {
    "id": "goldhorn-brewery",
    "name": "Goldhorn Brewery",
    "brewery_type": "brewpub",
    "street": "1361 E 55th St",
    "city": "Cleveland",
    "state": "Ohio",
    "postal_code": "44103-1301",
    "website_url": "",
    "phone": "",
    "created_at": "2018-07-24 01:34:00.857569",
    "updated_at": "2018-08-24 15:43:56.793986",
    "country": "United States",
    "longitude": "-81.6516143",
    "latitude": "41.5214479",
    "tags": []
  },
  {
    "id": "granite-city-food-and-brewery",
    "name": "Granite City Food & Brewery",
    "brewery_type": "brewpub",
    "street": "24519 Cedar Rd",
    "city": "Cleveland",
    "state": "Ohio",
    "postal_code": "44124-3780",
    "website_url": "",
    "phone": "",
    "created_at": "2018-07-24 01:34:00.909133",
    "updated_at": "2018-08-24 15:43:58.715607",
    "country": "United States",
    "longitude": "-81.5040317990171",
    "latitude": "41.5033931",
    "tags": []
  },
  {
    "id": "great-lakes-brewing-co",
    "name": "Great Lakes Brewing Co",
    "brewery_type": "brewpub",
    "street": "2516 Market Ave",
    "city": "Cleveland",
    "state": "Ohio",
    "postal_code": "44113-3434",
    "website_url": "http://www.greatlakesbrewing.com",
    "phone": "",
    "created_at": "2018-07-24 01:34:00.960003",
    "updated_at": "2018-08-24 15:44:00.888632",
    "country": "United States",
    "longitude": "-81.7044266",
    "latitude": "41.4844172",
    "tags": []
  },
  {
    "id": "great-lakes-brewing-co",
    "name": "Great Lakes Brewing Co",
    "brewery_type": "regional",
    "street": "1947 W 28th St",
    "city": "Cleveland",
    "state": "Ohio",
    "postal_code": "44113-3422",
    "website_url": "http://www.greatlakesbrewing.com",
    "phone": "2167714404",
    "created_at": "2018-07-24 01:34:00.974065",
    "updated_at": "2018-08-24 15:44:01.374642",
    "country": "United States",
    "longitude": "-81.705711125",
    "latitude": "41.484058025",
    "tags": []
  },
  {
    "id": "gypsy-brewery",
    "name": "Gypsy Brewery",
    "brewery_type": "micro",
    "street": "3506 Vega Ave",
    "city": "Cleveland",
    "state": "Ohio",
    "postal_code": "44113-4900",
    "website_url": "",
    "phone": "",
    "created_at": "2018-07-24 01:34:01.000137",
    "updated_at": "2018-08-24 15:44:01.842333",
    "country": "United States",
    "longitude": "-81.7078548787879",
    "latitude": "41.4744919393939",
    "tags": []
  },
  {
    "id": "hansa-brewery",
    "name": "Hansa Brewery",
    "brewery_type": "brewpub",
    "street": "2717 Lorain Ave",
    "city": "Cleveland",
    "state": "Ohio",
    "postal_code": "44113-3414",
    "website_url": "http://www.hansabrewery.com",
    "phone": "2166316585",
    "created_at": "2018-07-24 01:34:01.028666",
    "updated_at": "2018-08-24 15:44:02.87467",
    "country": "United States",
    "longitude": "-81.7047913939394",
    "latitude": "41.4834420707071",
    "tags": []
  },
  {
    "id": "market-garden-brewery",
    "name": "Market Garden Brewery",
    "brewery_type": "micro",
    "street": "1947 W 25th St",
    "city": "Cleveland",
    "state": "Ohio",
    "postal_code": "44113-3418",
    "website_url": "http://www.marketgardenbrewery.com",
    "phone": "2166214000",
    "created_at": "2018-07-24 01:34:01.733855",
    "updated_at": "2018-08-24 15:44:26.350725",
    "country": "United States",
    "longitude": "-81.7036495",
    "latitude": "41.4848964",
    "tags": []
  },
  {
    "id": "market-garden-brewery",
    "name": "Market Garden Brewery",
    "brewery_type": "micro",
    "street": "1849 W 24th St",
    "city": "Cleveland",
    "state": "Ohio",
    "postal_code": "44113",
    "website_url": "",
    "phone": "2166214000",
    "created_at": "2018-07-24 01:34:01.746488",
    "updated_at": "2018-08-24 15:44:26.77996",
    "country": "United States",
    "longitude": "-81.7027281463415",
    "latitude": "41.4857374634146",
    "tags": []
  },
  {
    "id": "masthead-brewing-co",
    "name": "Masthead Brewing Co",
    "brewery_type": "brewpub",
    "street": "1261 Superior Ave E",
    "city": "Cleveland",
    "state": "Ohio",
    "postal_code": "44114-3204",
    "website_url": "http://www.mastheadbrewingco.com",
    "phone": "4192604770",
    "created_at": "2018-07-24 01:34:01.759648",
    "updated_at": "2018-08-24 15:44:27.21835",
    "country": "United States",
    "longitude": "-81.6853889",
    "latitude": "41.5041432",
    "tags": []
  },
  {
    "id": "noble-beast-brewing-co",
    "name": "Noble Beast Brewing Co.",
    "brewery_type": "brewpub",
    "street": "1470 Lakeside Ave E",
    "city": "Cleveland",
    "state": "Ohio",
    "postal_code": "44114-1137",
    "website_url": "http://noblebeastbeer.com",
    "phone": "7175859216",
    "created_at": "2018-07-24 01:34:02.122757",
    "updated_at": "2018-08-24 15:44:36.014256",
    "country": "United States",
    "longitude": "-81.6869233422819",
    "latitude": "41.5076810738255",
    "tags": []
  },
  {
    "id": "platform-beer-co",
    "name": "Platform Beer Co",
    "brewery_type": "regional",
    "street": "4125 Lorain Ave",
    "city": "Cleveland",
    "state": "Ohio",
    "postal_code": "44113-3718",
    "website_url": "http://platformbeer.co",
    "phone": "2162021386",
    "created_at": "2018-07-24 01:34:02.434872",
    "updated_at": "2018-08-24 15:44:43.506319",
    "country": "United States",
    "longitude": "-81.7140045",
    "latitude": "41.4799605",
    "tags": []
  },
  {
    "id": "platform-beer-co-production-facility",
    "name": "Platform Beer Co - Production Facility",
    "brewery_type": "micro",
    "street": "3506 Vega Ave",
    "city": "Cleveland",
    "state": "Ohio",
    "postal_code": "44113-4900",
    "website_url": "http://www.platformbeer.co",
    "phone": "",
    "created_at": "2018-07-24 01:34:02.449164",
    "updated_at": "2018-08-24 15:44:43.918825",
    "country": "United States",
    "longitude": "-81.7078548787879",
    "latitude": "41.4744919393939",
    "tags": []
  },
  {
    "id": "southern-tier-brewing-co",
    "name": "Southern Tier Brewing Co",
    "brewery_type": "planning",
    "street": "",
    "city": "Cleveland",
    "state": "Ohio",
    "postal_code": "44115-1111",
    "website_url": "",
    "phone": "",
    "created_at": "2018-07-24 01:34:03.003749",
    "updated_at": "2018-08-11 21:39:04.634142",
    "country": "United States",
    "longitude": "",
    "latitude": "",
    "tags": []
  },
  {
    "id": "saucy-brew-works",
    "name": "Saucy Brew Works",
    "brewery_type": "brewpub",
    "street": "2885 Detroit Ave",
    "city": "Cleveland",
    "state": "Ohio",
    "postal_code": "44113-2765",
    "website_url": "http://www.saucybrewworks.com",
    "phone": "2166662568",
    "created_at": "2018-07-24 01:34:02.872046",
    "updated_at": "2018-08-24 15:44:56.596325",
    "country": "United States",
    "longitude": "-81.7105691",
    "latitude": "41.4894793",
    "tags": []
  },
  {
    "id": "terrestrial-brewing-company",
    "name": "Terrestrial Brewing Company",
    "brewery_type": "micro",
    "street": "7524 Father Frascati Dr",
    "city": "Cleveland",
    "state": "Ohio",
    "postal_code": "44102-2087",
    "website_url": "",
    "phone": "2164659999",
    "created_at": "2018-07-24 01:34:03.180011",
    "updated_at": "2018-08-24 15:45:05.546287",
    "country": "United States",
    "longitude": "-81.7361552",
    "latitude": "41.4869219",
    "tags": []
  },
  {
    "id": "the-cleveland-brewery",
    "name": "The Cleveland Brewery",
    "brewery_type": "micro",
    "street": "777 E 185th St",
    "city": "Cleveland",
    "state": "Ohio",
    "postal_code": "44119-2170",
    "website_url": "http://Www.facebook.com/216brew",
    "phone": "2165346992",
    "created_at": "2018-07-24 01:34:03.268807",
    "updated_at": "2018-08-24 15:45:08.304212",
    "country": "United States",
    "longitude": "-81.549766",
    "latitude": "41.586428",
    "tags": []
  },
  {
    "id": "the-jolly-scholar",
    "name": "The Jolly Scholar",
    "brewery_type": "brewpub",
    "street": "11111 Euclid Ave",
    "city": "Cleveland",
    "state": "Ohio",
    "postal_code": "44106-1715",
    "website_url": "http://www.thejollyscholar.com",
    "phone": "2163680090",
    "created_at": "2018-07-24 01:34:03.294506",
    "updated_at": "2018-08-24 15:45:08.800982",
    "country": "United States",
    "longitude": "-81.6083649792596",
    "latitude": "41.5074076",
    "tags": []
  },
  {
    "id": "west-east-brewing-co",
    "name": "West East Brewing Co",
    "brewery_type": "contract",
    "street": "4125 Lorain Ave",
    "city": "Cleveland",
    "state": "Ohio",
    "postal_code": "44113-3718",
    "website_url": "",
    "phone": "2162021386",
    "created_at": "2018-07-24 01:34:03.644649",
    "updated_at": "2018-08-24 15:45:19.966285",
    "country": "United States",
    "longitude": "-81.7140045",
    "latitude": "41.4799605",
    "tags": []
  },
  {
    "id": "working-class-brewery",
    "name": "Working Class Brewery",
    "brewery_type": "micro",
    "street": "17448 Lorain Ave",
    "city": "Cleveland",
    "state": "Ohio",
    "postal_code": "44111-4028",
    "website_url": "http://www.workingclassbrewery.com",
    "phone": "2164175112",
    "created_at": "2018-07-24 01:34:03.752449",
    "updated_at": "2018-08-24 15:45:23.98969",
    "country": "United States",
    "longitude": "-81.820461",
    "latitude": "41.44993",
    "tags": []
  }
]