[
  {
    "id": "barleys-brewing-company-ale-house-no-1",
    "name": "Barley's Brewing Company (Ale House No. 1)",
    "brewery_type": "brewpub",
    "street": "467 N High St",
    "city": "Columbus",
    "state": "Ohio",
    "postal_code": "43215-2007",
    "website_url": "http://www.barleysbrewing.com",
    "phone": "6142282537",
    "created_at": "2018-07-24 01:33:59.536265",
    "updated_at": "2018-08-24 15:43:25.107046",
    "country": "United States",
    "longitude": "-83.0027669",
    "latitude": "39.9719408",
    "tags": []
  },
  {
    "id": "knotty-pine-brewing",
    "name": "Knotty Pine Brewing",
    "brewery_type": "brewpub",
    "street": "1765 W 3rd Ave",
    "city": "Columbus",
    "state": "Ohio",
    "postal_code": "43212-2769",
    "website_url": "http://www.knottypinebrewing.net",
    "phone": "6148171515",
    "created_at": "2018-07-24 01:34:01.349603",
    "updated_at": "2018-08-24 15:44:14.258719",
    "country": "United States",
    "longitude": "-83.0529324",
    "latitude": "39.9852813",
    "tags": []
  },
  {
    "id": "random-precision-brewing-company",
    "name": "Random Precision Brewing Company",
    "brewery_type": "micro",
    "street": "2365 W Dublin Granville Rd",
    "city": "Columbus",
    "state": "Ohio",
    "postal_code": "43235-2700",
    "website_url": "http://www.randomprecisionbrewing.com",
    "phone": "6143893864",
    "created_at": "2018-07-24 01:34:02.629015",
    "updated_at": "2018-08-24 15:44:50.093664",
    "country": "United States",
    "longitude": "-83.05232",
    "latitude": "40.090144",
    "tags": []
  },
  {
    "id": "hoof-hearted-brewing-brewery-and-kitchen",
    "name": "Hoof Hearted Brewing - Brewery and Kitchen",
    "brewery_type": "brewpub",
    "street": "850 N 4th St",
    "city": "Columbus",
    "state": "Ohio",
    "postal_code": "43215-1845",
    "website_url": "",
    "phone": "6144014033",
    "created_at": "2018-07-24 01:34:01.164692",
    "updated_at": "2018-08-11 21:38:59.473715",
    "country": "United States",
    "longitude": "",
    "latitude": "",
    "tags": []
  },
  {
    "id": "actual-brewing-company-llc",
    "name": "Actual Brewing Company, LLC",
    "brewery_type": "micro",
    "street": "655 N James Rd",
    "city": "Columbus",
    "state": "Ohio",
    "postal_code": "43219-1837",
    "website_url": "http://wwww.actualbeer.com",
    "phone": "6146363825",
    "created_at": "2018-07-24 01:33:59.39476",
    "updated_at": "2018-08-24 15:43:21.512918",
    "country": "United States",
    "longitude": "-82.9080986",
    "latitude": "39.9868523",
    "tags": []
  },
  {
    "id": "anheuser-busch-inc-a-columbus",
    "name": "Anheuser-Busch Inc â Columbus",
    "brewery_type": "large",
    "street": "700 Schrock Rd",
    "city": "Columbus",
    "state": "Ohio",
    "postal_code": "43229-1123",
    "website_url": "",
    "phone": "6148886644",
    "created_at": "2018-07-24 01:33:59.446106",
    "updated_at": "2018-08-24 15:43:22.613628",
    "country": "United States",
    "longitude": "-82.99307",
    "latitude": "40.102197",
    "tags": []
  },
  {
    "id": "brewery-in-planning-worthington-oh",
    "name": "Brewery In Planning - Worthington, OH.",
    "brewery_type": "planning",
    "street": "",
    "city": "Columbus",
    "state": "Ohio",
    "postal_code": "43085",
    "website_url": "",
    "phone": "",
    "created_at": "2018-07-24 01:33:59.980433",
    "updated_at": "2018-08-11 21:38:57.061119",
    "country": "United States",
    "longitude": "",
    "latitude": "",
    "tags": []
  },
  {
    "id": "elevator-brewing-co-production-facility",
    "name": "Elevator Brewing Co - Production facility",
    "brewery_type": "micro",
    "street": "165 N 4th St",
    "city": "Columbus",
    "state": "Ohio",
    "postal_code": "43215-2906",
    "website_url": "http://elevatorbrewery.com",
    "phone": "6146792337",
    "created_at": "2018-07-24 01:34:00.595501",
    "updated_at": "2018-08-11 21:38:58.225583",
    "country": "United States",
    "longitude": "",
    "latitude": "",
    "tags": []
  },
  {
    "id": "columbus-brewing-co",
    "name": "Columbus Brewing Co",
    "brewery_type": "regional",
    "street": "2555 Harrison Rd",
    "city": "Columbus",
    "state": "Ohio",
    "postal_code": "43204-3511",
    "website_url": "http://www.columbusbrewing.com",
    "phone": "6142243626",
    "created_at": "2018-07-24 01:34:00.308372",
    "updated_at": "2018-08-24 15:43:39.577231",
    "country": "United States",
    "longitude": "-83.0692897",
    "latitude": "39.9675898",
    "tags": []
  },
  {
    "id": "commonhouse-ales",
    "name": "Commonhouse Ales",
    "brewery_type": "micro",
    "street": "535 Short St",
    "city": "Columbus",
    "state": "Ohio",
    "postal_code": "43215-5614",
    "website_url": "http://www.commonhouseales.com",
    "phone": "6142530272",
    "created_at": "2018-07-24 01:34:00.335339",
    "updated_at": "2018-08-24 15:43:40.493592",
    "country": "United States",
    "longitude": "-83.0036774052528",
    "latitude": "39.9504533390161",
    "tags": []
  },
  {
    "id": "elevator-brewery-and-draught-haus",
    "name": "Elevator Brewery and Draught Haus",
    "brewery_type": "brewpub",
    "street": "161 N High St",
    "city": "Columbus",
    "state": "Ohio",
    "postal_code": "43215-2402",
    "website_url": "http://www.elevatorbrewing.com",
    "phone": "6142280500",
    "created_at": "2018-07-24 01:34:00.578448",
    "updated_at": "2018-08-24 15:43:48.045781",
    "country": "United States",
    "longitude": "-83.0017892",
    "latitude": "39.9656697",
    "tags": []
  },
  {
    "id": "endeavor-brewing-company",
    "name": "Endeavor Brewing Company",
    "brewery_type": "micro",
    "street": "909 W 5th Ave",
    "city": "Columbus",
    "state": "Ohio",
    "postal_code": "43212",
    "website_url": "http://www.endeavorbrewingco.com",
    "phone": "6144567074",
    "created_at": "2018-07-24 01:34:00.610939",
    "updated_at": "2018-08-24 15:43:49.009572",
    "country": "United States",
    "longitude": "-83.030429",
    "latitude": "39.988002",
    "tags": []
  },
  {
    "id": "four-string-brewing-company-west-side-production-facility",
    "name": "Four String Brewing Company - West Side Production Facility",
    "brewery_type": "micro",
    "street": "660 N Hague Ave",
    "city": "Columbus",
    "state": "Ohio",
    "postal_code": "43204-",
    "website_url": "",
    "phone": "6147251282",
    "created_at": "2018-07-24 01:34:00.815449",
    "updated_at": "2018-08-11 21:38:58.704862",
    "country": "United States",
    "longitude": "",
    "latitude": "",
    "tags": []
  },
  {
    "id": "kindred-beer",
    "name": "Kindred Beer",
    "brewery_type": "micro",
    "street": "750 Cross Pointe Rd Unit I and J",
    "city": "Columbus",
    "state": "Ohio",
    "postal_code": "43230",
    "website_url": "http://www.kindredbeer.com",
    "phone": "6146264341",
    "created_at": "2018-07-24 01:34:01.335856",
    "updated_at": "2018-08-11 21:38:59.878351",
    "country": "United States",
    "longitude": "",
    "latitude": "",
    "tags": []
  },
  {
    "id": "four-string-brewing-company",
    "name": "Four String Brewing Company",
    "brewery_type": "micro",
    "street": "985 W 6th Ave",
    "city": "Columbus",
    "state": "Ohio",
    "postal_code": "43212-2601",
    "website_url": "http://www.fourstringbrewing.com",
    "phone": "6147251282",
    "created_at": "2018-07-24 01:34:00.802432",
    "updated_at": "2018-08-24 15:43:55.004169",
    "country": "United States",
    "longitude": "-83.0327994285714",
    "latitude": "39.9890465714286",
    "tags": []
  },
  {
    "id": "hofbrauhaus-columbus",
    "name": "Hofbrauhaus Columbus",
    "brewery_type": "brewpub",
    "street": "800 Goodale Blvd",
    "city": "Columbus",
    "state": "Ohio",
    "postal_code": "43212-3825",
    "website_url": "http://www.hofbrauhauscolumbus.com",
    "phone": "6142942437",
    "created_at": "2018-07-24 01:34:01.124569",
    "updated_at": "2018-08-24 15:44:06.5884",
    "country": "United States",
    "longitude": "-83.025737",
    "latitude": "39.974313",
    "tags": []
  },
  {
    "id": "hoster-brewing-co",
    "name": "Hoster Brewing Co",
    "brewery_type": "contract",
    "street": "760 Harmon Ave",
    "city": "Columbus",
    "state": "Ohio",
    "postal_code": "43223",
    "website_url": "http://www.hosterbeer.com",
    "phone": "6142213606",
    "created_at": "2018-07-24 01:34:01.204568",
    "updated_at": "2018-08-24 15:44:09.545882",
    "country": "United States",
    "longitude": "-83.0161537324999",
    "latitude": "39.9444086863438",
    "tags": []
  },
  {
    "id": "land-grant-brewing-company",
    "name": "Land-Grant Brewing Company",
    "brewery_type": "micro",
    "street": "424 W Town St",
    "city": "Columbus",
    "state": "Ohio",
    "postal_code": "43215-4040",
    "website_url": "http://www.landgrantbrewing.com",
    "phone": "2169562634",
    "created_at": "2018-07-24 01:34:01.408111",
    "updated_at": "2018-08-24 15:44:16.386244",
    "country": "United States",
    "longitude": "-83.0115076283597",
    "latitude": "39.95787195",
    "tags": []
  },
  {
    "id": "lineage-brewing",
    "name": "Lineage Brewing",
    "brewery_type": "brewpub",
    "street": "2971 N High St",
    "city": "Columbus",
    "state": "Ohio",
    "postal_code": "43202",
    "website_url": "http://www.lineagebrew.com",
    "phone": "6144613622",
    "created_at": "2018-07-24 01:34:01.459766",
    "updated_at": "2018-08-24 15:44:17.860452",
    "country": "United States",
    "longitude": "-83.01413155",
    "latitude": "40.0225652",
    "tags": []
  },
  {
    "id": "permission-brewing-company",
    "name": "Permission Brewing Company",
    "brewery_type": "planning",
    "street": "",
    "city": "Columbus",
    "state": "Ohio",
    "postal_code": "43004",
    "website_url": "http://Www.permissionbrewing.com",
    "phone": "6143530762",
    "created_at": "2018-07-24 01:34:02.395445",
    "updated_at": "2018-08-11 21:39:02.906489",
    "country": "United States",
    "longitude": "",
    "latitude": "",
    "tags": []
  },
  {
    "id": "platform-beer-co-taproom",
    "name": "Platform Beer Co Taproom",
    "brewery_type": "micro",
    "street": "408 N 6th St",
    "city": "Columbus",
    "state": "Ohio",
    "postal_code": "43215-2137",
    "website_url": "http://www.platformbeer.co",
    "phone": "6148262285",
    "created_at": "2018-07-24 01:34:02.46381",
    "updated_at": "2018-08-11 21:39:03.103249",
    "country": "United States",
    "longitude": "",
    "latitude": "",
    "tags": []
  },
  {
    "id": "north-high-brewing",
    "name": "North High Brewing",
    "brewery_type": "micro",
    "street": "1125 Cleveland Ave",
    "city": "Columbus",
    "state": "Ohio",
    "postal_code": "43201-2900",
    "website_url": "http://www.northhighbrewing.com",
    "phone": "6142263244",
    "created_at": "2018-07-24 01:34:02.150095",
    "updated_at": "2018-08-24 15:44:37.037024",
    "country": "United States",
    "longitude": "-82.982658",
    "latitude": "39.992787",
    "tags": []
  },
  {
    "id": "pretentious-barrel-house",
    "name": "Pretentious Barrel House",
    "brewery_type": "micro",
    "street": "745 Taylor Ave",
    "city": "Columbus",
    "state": "Ohio",
    "postal_code": "43219-2526",
    "website_url": "http://www.pretentiousbarrelhouse.com",
    "phone": "6148877687",
    "created_at": "2018-07-24 01:34:02.505851",
    "updated_at": "2018-08-24 15:44:45.806979",
    "country": "United States",
    "longitude": "-82.960769",
    "latitude": "39.981855",
    "tags": []
  },
  {
    "id": "seventh-son-brewing-co",
    "name": "Seventh Son Brewing Co",
    "brewery_type": "micro",
    "street": "1101 N 4th St",
    "city": "Columbus",
    "state": "Ohio",
    "postal_code": "43201-3683",
    "website_url": "http://www.seventhsonbrewing.com",
    "phone": "6144212337",
    "created_at": "2018-07-24 01:34:02.884789",
    "updated_at": "2018-08-11 21:39:04.173756",
    "country": "United States",
    "longitude": "",
    "latitude": "",
    "tags": []
  },
  {
    "id": "sideswipe-brewing",
    "name": "Sideswipe Brewing",
    "brewery_type": "micro",
    "street": "2419 Scioto Harper Dr",
    "city": "Columbus",
    "state": "Ohio",
    "postal_code": "43204-3420",
    "website_url": "http://www.sideswipebrewing.com",
    "phone": "6147199654",
    "created_at": "2018-07-24 01:34:02.923713",
    "updated_at": "2018-08-24 15:44:58.409261",
    "country": "United States",
    "longitude": "-83.0662676671791",
    "latitude": "39.9672375080153",
    "tags": []
  },
  {
    "id": "smokehouse-brewing",
    "name": "Smokehouse Brewing",
    "brewery_type": "brewpub",
    "street": "1130 Dublin Rd",
    "city": "Columbus",
    "state": "Ohio",
    "postal_code": "43215-1039",
    "website_url": "http://www.smokehousebrewing.com",
    "phone": "6144850227",
    "created_at": "2018-07-24 01:34:02.949419",
    "updated_at": "2018-08-24 15:44:59.423524",
    "country": "United States",
    "longitude": "-83.047935",
    "latitude": "39.973715",
    "tags": []
  },
  {
    "id": "the-brew-brothers-/-scioto-downs-racino",
    "name": "The Brew Brothers / Scioto Downs Racino",
    "brewery_type": "brewpub",
    "street": "6000 S. High Street",
    "city": "Columbus",
    "state": "Ohio",
    "postal_code": "43207",
    "website_url": "",
    "phone": "",
    "created_at": "2018-07-24 01:34:03.217409",
    "updated_at": "2018-08-24 15:45:06.485592",
    "country": "United States",
    "longitude": "-82.995426",
    "latitude": "39.922819",
    "tags": []
  },
  {
    "id": "zaftig-brewing-co",
    "name": "Zaftig Brewing Co.",
    "brewery_type": "micro",
    "street": "7020 Huntley Rd Ste A",
    "city": "Columbus",
    "state": "Ohio",
    "postal_code": "43229-1050",
    "website_url": "http://www.drinkzaftig.com",
    "phone": "6146362537",
    "created_at": "2018-07-24 01:34:03.790161",
    "updated_at": "2018-08-11 21:39:07.221619",
    "country": "United States",
    "longitude": "",
    "latitude": "",
    "tags": []
  },
  {
    "id": "wolfs-ridge-brewing",
    "name": "Wolf's Ridge Brewing",
    "brewery_type": "micro",
    "street": "215 N 4th St",
    "city": "Columbus",
    "state": "Ohio",
    "postal_code": "43215-2510",
    "website_url": "http://www.wolfsridgebrewing.com",
    "phone": "6144293936",
    "created_at": "2018-07-24 01:34:03.725244",
    "updated_at": "2018-08-24 15:45:23.060824",
    "country": "United States",
    "longitude": "-82.9951795344828",
    "latitude": "39.9577586034483",
    "tags": []
  },
  {
    "id": "gordon-biersch-brewery-restaurant-columbus",
    "name": "Gordon Biersch Brewery Restaurant - Columbus",
    "brewery_type": "brewpub",
    "street": "401 N Front St Ste 120",
    "city": "Columbus",
    "state": "Ohio",
    "postal_code": "43215-8200",
    "website_url": "http://www.gordonbiersch.com/restaurant",
    "phone": "6142462900",
    "created_at": "2018-07-24 01:34:00.869892",
    "updated_at": "2018-08-11 21:38:58.821695",
    "country": "United States",
    "longitude": "",
    "latitude": "",
    "tags": []
  }
]