[
  {
    "id": "brewery-in-planning-cuyahoga-falls",
    "name": "Brewery in Planning - Cuyahoga Falls",
    "brewery_type": "planning",
    "street": "",
    "city": "Cuyahoga Falls",
    "state": "Ohio",
    "postal_code": "44221-2946",
    "website_url": "",
    "phone": "",
    "created_at": "2018-07-24 01:33:59.827543",
    "updated_at": "2018-08-11 21:38:56.672083",
    "country": "United States",
    "longitude": "",
    "latitude": "",
    "tags": []
  },
  {
    "id": "hiho-brewing-co",
    "name": "HiHO Brewing Co",
    "brewery_type": "brewpub",
    "street": "1707 Front St",
    "city": "Cuyahoga Falls",
    "state": "Ohio",
    "postal_code": "44221-4711",
    "website_url": "http://www.hihobrewingco.com",
    "phone": "2343347564",
    "created_at": "2018-07-24 01:34:01.098762",
    "updated_at": "2018-08-24 15:44:05.605797",
    "country": "United States",
    "longitude": "-81.4853611797515",
    "latitude": "41.1281350246101",
    "tags": []
  },
  {
    "id": "mcarthurs-brew-house",
    "name": "McArthur's Brew House",
    "brewery_type": "micro",
    "street": "2721 Front St",
    "city": "Cuyahoga Falls",
    "state": "Ohio",
    "postal_code": "44221-1904",
    "website_url": "http://www.mcarthursbrewhouse.com",
    "phone": "3308054600",
    "created_at": "2018-07-24 01:34:01.786255",
    "updated_at": "2018-08-24 15:44:28.115256",
    "country": "United States",
    "longitude": "-81.4723705789474",
    "latitude": "41.1461834736842",
    "tags": []
  },
  {
    "id": "missing-mountain-brewing-company",
    "name": "Missing Mountain Brewing Company",
    "brewery_type": "brewpub",
    "street": "2811 Front St",
    "city": "Cuyahoga Falls",
    "state": "Ohio",
    "postal_code": "44262",
    "website_url": "http://www.missingmountain.com",
    "phone": "",
    "created_at": "2018-07-24 01:34:01.841784",
    "updated_at": "2018-08-24 15:44:29.488872",
    "country": "United States",
    "longitude": "-81.4692809652492",
    "latitude": "41.148384529808",
    "tags": []
  },
  {
    "id": "ohio-brewing-company",
    "name": "Ohio Brewing Company",
    "brewery_type": "micro",
    "street": "2250 Front St",
    "city": "Cuyahoga Falls",
    "state": "Ohio",
    "postal_code": "44221-2510",
    "website_url": "http://www.ohiobrewing.com",
    "phone": "2342086243",
    "created_at": "2018-07-24 01:34:02.226279",
    "updated_at": "2018-08-24 15:44:38.781805",
    "country": "United States",
    "longitude": "-81.4748217",
    "latitude": "41.1444116",
    "tags": []
  }
]