[
  {
    "id": "dayton-beer-co-production-brewery-and-bierhall",
    "name": "Dayton Beer Co Production Brewery & Bierhall",
    "brewery_type": "micro",
    "street": "41 Madison St",
    "city": "Dayton",
    "state": "Ohio",
    "postal_code": "45402-2105",
    "website_url": "http://www.thedaytonbeerco.com",
    "phone": "9372282337",
    "created_at": "2018-07-24 01:34:00.437854",
    "updated_at": "2018-08-24 15:43:43.518954",
    "country": "United States",
    "longitude": "-84.1852886764706",
    "latitude": "39.7622667647059",
    "tags": []
  },
  {
    "id": "branch-and-bone-artisan-ales",
    "name": "Branch & Bone Artisan Ales",
    "brewery_type": "micro",
    "street": "905 Wayne Ave",
    "city": "Dayton",
    "state": "Ohio",
    "postal_code": "45410-1247",
    "website_url": "http://www.branchandboneales.com",
    "phone": "9377237608",
    "created_at": "2018-07-24 01:33:59.703133",
    "updated_at": "2018-08-24 15:43:30.0134",
    "country": "United States",
    "longitude": "-84.1772341867514",
    "latitude": "39.7522308470898",
    "tags": []
  },
  {
    "id": "carillon-brewing-company",
    "name": "Carillon Brewing Company",
    "brewery_type": "brewpub",
    "street": "1000 Carillon Blvd",
    "city": "Dayton",
    "state": "Ohio",
    "postal_code": "45409-2023",
    "website_url": "http://www.carillonbrewingco.org",
    "phone": "9372932841",
    "created_at": "2018-07-24 01:34:00.172995",
    "updated_at": "2018-08-24 15:43:35.87686",
    "country": "United States",
    "longitude": "-84.20121",
    "latitude": "39.730102",
    "tags": []
  },
  {
    "id": "eudora-brewing-co",
    "name": "Eudora Brewing Co",
    "brewery_type": "micro",
    "street": "4716 Wilmington Pike",
    "city": "Dayton",
    "state": "Ohio",
    "postal_code": "45440-2021",
    "website_url": "http://www.eudorabrewing.com",
    "phone": "9377236863",
    "created_at": "2018-07-24 01:34:00.639595",
    "updated_at": "2018-08-24 15:43:49.484029",
    "country": "United States",
    "longitude": "-84.162271",
    "latitude": "39.735916",
    "tags": []
  },
  {
    "id": "fifth-street-brewpub",
    "name": "Fifth Street Brewpub",
    "brewery_type": "brewpub",
    "street": "1600 E 5th St",
    "city": "Dayton",
    "state": "Ohio",
    "postal_code": "45403-2304",
    "website_url": "http://Fifthstreetbrewpub.coop",
    "phone": "9374430919",
    "created_at": "2018-07-24 01:34:00.715688",
    "updated_at": "2018-08-24 15:43:51.803202",
    "country": "United States",
    "longitude": "-84.1881863",
    "latitude": "39.7572259",
    "tags": []
  },
  {
    "id": "lock-27-brewing",
    "name": "Lock 27 Brewing",
    "brewery_type": "brewpub",
    "street": "329 E 1st St",
    "city": "Dayton",
    "state": "Ohio",
    "postal_code": "45402-1705",
    "website_url": "http://www.lock27brewing.com",
    "phone": "9374332739",
    "created_at": "2018-07-24 01:34:01.528732",
    "updated_at": "2018-08-24 15:44:19.833247",
    "country": "United States",
    "longitude": "-84.1869352943494",
    "latitude": "39.7633200283236",
    "tags": []
  },
  {
    "id": "nowhere-in-particular-brewing-company",
    "name": "Nowhere In Particular Brewing Company",
    "brewery_type": "proprietor",
    "street": "6826 Loop Rd",
    "city": "Dayton",
    "state": "Ohio",
    "postal_code": "45459-2159",
    "website_url": "http://www.nipbrewco.com",
    "phone": "5133487282",
    "created_at": "2018-07-24 01:34:02.179093",
    "updated_at": "2018-08-11 21:39:02.309793",
    "country": "United States",
    "longitude": "",
    "latitude": "",
    "tags": []
  },
  {
    "id": "warped-wing-brewing-co",
    "name": "Warped Wing Brewing Co",
    "brewery_type": "micro",
    "street": "26 Wyandot St",
    "city": "Dayton",
    "state": "Ohio",
    "postal_code": "45402-2145",
    "website_url": "http://www.warpedwing.com",
    "phone": "9372227003",
    "created_at": "2018-07-24 01:34:03.617226",
    "updated_at": "2018-08-11 21:39:06.759333",
    "country": "United States",
    "longitude": "",
    "latitude": "",
    "tags": []
  },
  {
    "id": "toxic-brew-company",
    "name": "Toxic Brew Company",
    "brewery_type": "brewpub",
    "street": "431 E 5th St",
    "city": "Dayton",
    "state": "Ohio",
    "postal_code": "45402-2911",
    "website_url": "http://www.toxicbrewcompany.com",
    "phone": "9379853618",
    "created_at": "2018-07-24 01:34:03.428605",
    "updated_at": "2018-08-24 15:45:13.057473",
    "country": "United States",
    "longitude": "-84.1843655035001",
    "latitude": "39.7572488739183",
    "tags": []
  }
]