[
  {
    "id": "brewery-in-planning-newark",
    "name": "Brewery in Planning - Newark",
    "brewery_type": "planning",
    "street": "",
    "city": "Newark",
    "state": "Ohio",
    "postal_code": "43055-6722",
    "website_url": "",
    "phone": "7404044646",
    "created_at": "2018-07-24 01:33:59.883047",
    "updated_at": "2018-08-11 21:38:56.817444",
    "country": "United States",
    "longitude": "",
    "latitude": "",
    "tags": []
  },
  {
    "id": "bucks-brewing-co",
    "name": "Buck's Brewing Co",
    "brewery_type": "micro",
    "street": "993 Mount Vernon Rd",
    "city": "Newark",
    "state": "Ohio",
    "postal_code": "43055-4728",
    "website_url": "",
    "phone": "7406412337",
    "created_at": "2018-07-24 01:34:00.138752",
    "updated_at": "2018-08-24 15:43:34.862434",
    "country": "United States",
    "longitude": "-82.4175214285714",
    "latitude": "40.0836782857143",
    "tags": []
  },
  {
    "id": "dankhouse-brewing-company",
    "name": "DankHouse Brewing Company",
    "brewery_type": "micro",
    "street": "161 Forry St",
    "city": "Newark",
    "state": "Ohio",
    "postal_code": "43055-3760",
    "website_url": "http://www.dankhousebrewing.com",
    "phone": "",
    "created_at": "2018-07-24 01:34:00.423381",
    "updated_at": "2018-08-24 15:43:43.044322",
    "country": "United States",
    "longitude": "-82.4172052767494",
    "latitude": "40.0442340994456",
    "tags": []
  },
  {
    "id": "trek-brewing",
    "name": "Trek Brewing",
    "brewery_type": "micro",
    "street": "1486 Granville Rd",
    "city": "Newark",
    "state": "Ohio",
    "postal_code": "43055-1538",
    "website_url": "http://www.trekbeer.com",
    "phone": "",
    "created_at": "2018-07-24 01:34:03.441398",
    "updated_at": "2018-08-24 15:45:13.492387",
    "country": "United States",
    "longitude": "-82.4556440922082",
    "latitude": "40.057228172848",
    "tags": []
  }
]