[
  {
    "id": "earnest-brew-works",
    "name": "Earnest Brew Works",
    "brewery_type": "micro",
    "street": "4342 S Detroit Ave",
    "city": "Toledo",
    "state": "Ohio",
    "postal_code": "43614-5367",
    "website_url": "http://www.earnestbrewworks.com",
    "phone": "4193402589",
    "created_at": "2018-07-24 01:34:00.564452",
    "updated_at": "2018-08-24 15:43:47.476366",
    "country": "United States",
    "longitude": "-83.61522535",
    "latitude": "41.590252",
    "tags": []
  },
  {
    "id": "great-black-swamp-brewing-co",
    "name": "Great Black Swamp Brewing Co",
    "brewery_type": "micro",
    "street": "3323 Monroe St",
    "city": "Toledo",
    "state": "Ohio",
    "postal_code": "43606-4553",
    "website_url": "http://www.greatblackswampbrewing.com",
    "phone": "4199731256",
    "created_at": "2018-07-24 01:34:00.947855",
    "updated_at": "2018-08-24 15:44:00.392221",
    "country": "United States",
    "longitude": "-83.5462275",
    "latitude": "41.6530711",
    "tags": []
  },
  {
    "id": "maumee-bay-brewing-co",
    "name": "Maumee Bay Brewing Co",
    "brewery_type": "brewpub",
    "street": "27 Broadway St Ste A",
    "city": "Toledo",
    "state": "Ohio",
    "postal_code": "43604-8701",
    "website_url": "http://www.maumeebaybrewing.com",
    "phone": "4192431302",
    "created_at": "2018-07-24 01:34:01.772559",
    "updated_at": "2018-08-11 21:39:01.229488",
    "country": "United States",
    "longitude": "",
    "latitude": "",
    "tags": []
  },
  {
    "id": "patron-saints-brewery",
    "name": "Patron Saints Brewery",
    "brewery_type": "micro",
    "street": "4730 W Bancroft St #8",
    "city": "Toledo",
    "state": "Ohio",
    "postal_code": "43615",
    "website_url": "http://www.PatronSaintsBrewery.com",
    "phone": "",
    "created_at": "2018-07-24 01:34:02.370427",
    "updated_at": "2018-08-24 15:44:42.182151",
    "country": "United States",
    "longitude": "-83.650886",
    "latitude": "41.662495",
    "tags": []
  },
  {
    "id": "black-cloister-brewing-co",
    "name": "Black Cloister Brewing Co",
    "brewery_type": "brewpub",
    "street": "619 Monroe St",
    "city": "Toledo",
    "state": "Ohio",
    "postal_code": "43604-1015",
    "website_url": "http://www.blackcloister.com",
    "phone": "4192141500",
    "created_at": "2018-07-24 01:33:59.604808",
    "updated_at": "2018-08-24 15:43:27.01922",
    "country": "United States",
    "longitude": "-83.5399665",
    "latitude": "41.6499863",
    "tags": []
  }
]