[
  {
    "id": "barley-and-hops-grill",
    "name": "Barley and Hops Grill",
    "brewery_type": "brewpub",
    "street": "5473 Urbana Pike",
    "city": "Frederick",
    "state": "Maryland",
    "postal_code": "21704-7275",
    "website_url": "http://www.barleyandhops.net",
    "phone": "3016685555",
    "created_at": "2018-07-24 01:33:28.388667",
    "updated_at": "2018-08-24 00:40:19.465918",
    "country": "United States",
    "longitude": "-77.3995969",
    "latitude": "39.38204685",
    "tags": []
  },
  {
    "id": "brewers-alley-restaurant-and-brewery",
    "name": "Brewer's Alley Restaurant and Brewery",
    "brewery_type": "brewpub",
    "street": "124 N Market St",
    "city": "Frederick",
    "state": "Maryland",
    "postal_code": "21701-5422",
    "website_url": "http://www.brewers-alley.com",
    "phone": "3016310089",
    "created_at": "2018-07-24 01:33:28.474973",
    "updated_at": "2018-08-24 00:40:21.333837",
    "country": "United States",
    "longitude": "-77.4104551496397",
    "latitude": "39.41607325",
    "tags": []
  },
  {
    "id": "flying-dog-brewery",
    "name": "Flying Dog Brewery",
    "brewery_type": "regional",
    "street": "4607 Wedgewood Blvd",
    "city": "Frederick",
    "state": "Maryland",
    "postal_code": "21703-7120",
    "website_url": "http://www.flyingdogbrewery.com",
    "phone": "3016947899",
    "created_at": "2018-07-24 01:33:28.920835",
    "updated_at": "2018-08-24 00:40:30.783562",
    "country": "United States",
    "longitude": "-77.4267910677553",
    "latitude": "39.3628322",
    "tags": []
  },
  {
    "id": "attaboy-beer",
    "name": "Attaboy Beer",
    "brewery_type": "micro",
    "street": "400 Sagner Ave Ste 400",
    "city": "Frederick",
    "state": "Maryland",
    "postal_code": "21701-6083",
    "website_url": "",
    "phone": "4157106459",
    "created_at": "2018-07-24 01:33:28.315678",
    "updated_at": "2018-08-11 21:37:34.727938",
    "country": "United States",
    "longitude": "",
    "latitude": "",
    "tags": []
  },
  {
    "id": "house-cat-brewing-company",
    "name": "House Cat Brewing Company",
    "brewery_type": "planning",
    "street": "",
    "city": "Frederick",
    "state": "Maryland",
    "postal_code": "21704",
    "website_url": "",
    "phone": "3016050733",
    "created_at": "2018-07-24 01:33:29.167768",
    "updated_at": "2018-08-11 21:37:36.549225",
    "country": "United States",
    "longitude": "",
    "latitude": "",
    "tags": []
  },
  {
    "id": "monocacy-brewing-co",
    "name": "Monocacy Brewing Co",
    "brewery_type": "micro",
    "street": "1781 N Market St",
    "city": "Frederick",
    "state": "Maryland",
    "postal_code": "21701-4305",
    "website_url": "",
    "phone": "3016310671",
    "created_at": "2018-07-24 01:33:29.341234",
    "updated_at": "2018-08-24 00:40:39.225007",
    "country": "United States",
    "longitude": "-77.3989904",
    "latitude": "39.4403205",
    "tags": []
  },
  {
    "id": "olde-mother-brewing-llc",
    "name": "Olde Mother Brewing, LLC",
    "brewery_type": "micro",
    "street": "911 E Patrick St",
    "city": "Frederick",
    "state": "Maryland",
    "postal_code": "21701-3132",
    "website_url": "http://OldeMother.com",
    "phone": "3016241700",
    "created_at": "2018-07-24 01:33:29.426789",
    "updated_at": "2018-08-24 00:40:41.579998",
    "country": "United States",
    "longitude": "-77.3912138",
    "latitude": "39.40928",
    "tags": []
  },
  {
    "id": "rockwell-brewery",
    "name": "Rockwell Brewery",
    "brewery_type": "micro",
    "street": "880 N East St Unit 201",
    "city": "Frederick",
    "state": "Maryland",
    "postal_code": "21701-5045",
    "website_url": "http://www.rockwellbrewery.com",
    "phone": "3017324880",
    "created_at": "2018-07-24 01:33:29.565967",
    "updated_at": "2018-08-11 21:37:37.364283",
    "country": "United States",
    "longitude": "",
    "latitude": "",
    "tags": []
  },
  {
    "id": "steinhardt-brewing-company",
    "name": "Steinhardt Brewing Company",
    "brewery_type": "micro",
    "street": "5710 Jefferson Blvd",
    "city": "Frederick",
    "state": "Maryland",
    "postal_code": "21703-6947",
    "website_url": "http://www.steinhardtbrewing.com",
    "phone": "",
    "created_at": "2018-07-24 01:33:29.690666",
    "updated_at": "2018-08-24 00:40:49.588618",
    "country": "United States",
    "longitude": "-77.512519",
    "latitude": "39.391045",
    "tags": []
  }
]