[
  {
    "id": "greene-growlers",
    "name": "Greene Growlers",
    "brewery_type": "brewpub",
    "street": "227 E Diamond Ave",
    "city": "Gaithersburg",
    "state": "Maryland",
    "postal_code": "20877",
    "website_url": "http://www.greenegrowlers.com",
    "phone": "2402616196",
    "created_at": "2018-07-24 01:33:29.066136",
    "updated_at": "2018-08-24 00:40:34.510006",
    "country": "United States",
    "longitude": "-77.1935558364428",
    "latitude": "39.1419364",
    "tags": []
  },
  {
    "id": "brawling-bear",
    "name": "Brawling Bear",
    "brewery_type": "micro",
    "street": "15 Fulks Corner Ave",
    "city": "Gaithersburg",
    "state": "Maryland",
    "postal_code": "20877-2067",
    "website_url": "http://www.brawlingbear.com",
    "phone": "2408423272",
    "created_at": "2018-07-24 01:33:28.448571",
    "updated_at": "2018-08-11 21:37:35.008302",
    "country": "United States",
    "longitude": "",
    "latitude": "",
    "tags": []
  },
  {
    "id": "elder-pine-brewing-and-blending-co",
    "name": "Elder Pine Brewing and Blending Co",
    "brewery_type": "micro",
    "street": "4200 Sundown Rd",
    "city": "Gaithersburg",
    "state": "Maryland",
    "postal_code": "20882",
    "website_url": "http://www.elderpine.com",
    "phone": "",
    "created_at": "2018-07-24 01:33:28.843094",
    "updated_at": "2018-08-11 21:37:35.83399",
    "country": "United States",
    "longitude": "",
    "latitude": "",
    "tags": []
  },
  {
    "id": "waredaca-brewing-company",
    "name": "Waredaca Brewing Company",
    "brewery_type": "micro",
    "street": "4017 Damascus Rd",
    "city": "Gaithersburg",
    "state": "Maryland",
    "postal_code": "20882-2105",
    "website_url": "http://www.waredacabrewing.com",
    "phone": "2404322255",
    "created_at": "2018-07-24 01:33:29.868748",
    "updated_at": "2018-08-11 21:37:38.022713",
    "country": "United States",
    "longitude": "",
    "latitude": "",
    "tags": []
  }
]