[
  {
    "id": "astro-lab-brewing",
    "name": "Astro Lab Brewing",
    "brewery_type": "planning",
    "street": "",
    "city": "Silver Spring",
    "state": "Maryland",
    "postal_code": "20910-4519",
    "website_url": "http://www.astrolabbrewing.com",
    "phone": "3106910475",
    "created_at": "2018-07-24 01:33:28.300891",
    "updated_at": "2018-08-11 21:37:34.692798",
    "country": "United States",
    "longitude": "",
    "latitude": "",
    "tags": []
  },
  {
    "id": "brewery-in-planning-silver-spring",
    "name": "Brewery in Planning - Silver Spring",
    "brewery_type": "planning",
    "street": "",
    "city": "Silver Spring",
    "state": "Maryland",
    "postal_code": "20910-5122",
    "website_url": "",
    "phone": "2027148869",
    "created_at": "2018-07-24 01:33:28.526669",
    "updated_at": "2018-08-11 21:37:35.217588",
    "country": "United States",
    "longitude": "",
    "latitude": "",
    "tags": []
  },
  {
    "id": "denizens-brewing-company",
    "name": "Denizens Brewing Company",
    "brewery_type": "brewpub",
    "street": "1115 E West Hwy",
    "city": "Silver Spring",
    "state": "Maryland",
    "postal_code": "20910-4852",
    "website_url": "http://www.denizensbrewingco.com",
    "phone": "3015579818",
    "created_at": "2018-07-24 01:33:28.782763",
    "updated_at": "2018-08-24 00:40:27.043945",
    "country": "United States",
    "longitude": "-77.0284814165893",
    "latitude": "38.9895771493914",
    "tags": []
  },
  {
    "id": "silver-branch-brewing-company",
    "name": "Silver Branch Brewing Company",
    "brewery_type": "planning",
    "street": "",
    "city": "Silver Spring",
    "state": "Maryland",
    "postal_code": "20910-3487",
    "website_url": "http://www.silverbranchbrewing.com",
    "phone": "2028418646",
    "created_at": "2018-07-24 01:33:29.653408",
    "updated_at": "2018-08-11 21:37:37.576585",
    "country": "United States",
    "longitude": "",
    "latitude": "",
    "tags": []
  }
]