[
  {
    "id": "lion-bridge-brewing-company",
    "name": "Lion Bridge Brewing Company",
    "brewery_type": "brewpub",
    "street": "59 16th Ave SW",
    "city": "Cedar Rapids",
    "state": "Iowa",
    "postal_code": "52404-5948",
    "website_url": "http://www.lionbridgebrewing.com",
    "phone": "3192004460",
    "created_at": "2018-07-24 01:33:24.007407",
    "updated_at": "2018-08-24 00:38:02.185034",
    "country": "United States",
    "longitude": "-91.66095280967",
    "latitude": "41.9647894789684",
    "tags": []
  },
  {
    "id": "quarter-barrel-arcade",
    "name": "Quarter Barrel Arcade",
    "brewery_type": "brewpub",
    "street": "616 2nd Ave SE",
    "city": "Cedar Rapids",
    "state": "Iowa",
    "postal_code": "52401-1306",
    "website_url": "http://www.thequarterbarrel.com",
    "phone": "3196211836",
    "created_at": "2018-07-24 01:33:24.283892",
    "updated_at": "2018-08-24 00:38:09.776206",
    "country": "United States",
    "longitude": "-91.6631809387755",
    "latitude": "41.9806253265306",
    "tags": []
  },
  {
    "id": "clock-house-brewing",
    "name": "Clock House Brewing",
    "brewery_type": "micro",
    "street": "600 1st St SE",
    "city": "Cedar Rapids",
    "state": "Iowa",
    "postal_code": "52401",
    "website_url": "http://www.clockhousebrewing.com",
    "phone": "3192004099",
    "created_at": "2018-07-24 01:33:23.543583",
    "updated_at": "2018-08-24 00:33:53.37047",
    "country": "United States",
    "longitude": "-91.665354",
    "latitude": "41.973813",
    "tags": []
  },
  {
    "id": "granite-city-food-and-brewery-#5",
    "name": "Granite City Food & Brewery (#5)",
    "brewery_type": "brewpub",
    "street": "4755 1st Ave SE",
    "city": "Cedar Rapids",
    "state": "Iowa",
    "postal_code": "52402-3211",
    "website_url": "http://www.gcfb.net",
    "phone": "3193957500",
    "created_at": "2018-07-24 01:33:23.821119",
    "updated_at": "2018-08-11 21:37:23.822291",
    "country": "United States",
    "longitude": "",
    "latitude": "",
    "tags": []
  },
  {
    "id": "iowa-brewing",
    "name": "Iowa Brewing",
    "brewery_type": "micro",
    "street": "708 3rd St SE",
    "city": "Cedar Rapids",
    "state": "Iowa",
    "postal_code": "52401-2012",
    "website_url": "http://www.iowabrewing.beer",
    "phone": "3193662337",
    "created_at": "2018-07-24 01:33:23.886051",
    "updated_at": "2018-08-24 00:37:57.896985",
    "country": "United States",
    "longitude": "-91.6621246326531",
    "latitude": "41.9742173877551",
    "tags": []
  },
  {
    "id": "thew-brewing-company",
    "name": "Thew Brewing Company",
    "brewery_type": "micro",
    "street": "301 2nd Ave",
    "city": "Cedar Rapids",
    "state": "Iowa",
    "postal_code": "52404",
    "website_url": "http://www.thewbrew.com",
    "phone": "3193438439",
    "created_at": "2018-07-24 01:33:24.413355",
    "updated_at": "2018-08-24 00:38:14.456187",
    "country": "United States",
    "longitude": "-91.67294",
    "latitude": "42.035746",
    "tags": []
  },
  {
    "id": "third-base-brewery",
    "name": "Third Base Brewery",
    "brewery_type": "brewpub",
    "street": "500 Blairs Ferry Rd NE Ste 2",
    "city": "Cedar Rapids",
    "state": "Iowa",
    "postal_code": "52402-1466",
    "website_url": "http://www.Thirdbasebrew.com",
    "phone": "3193789090",
    "created_at": "2018-07-24 01:33:24.426509",
    "updated_at": "2018-08-11 21:37:25.023735",
    "country": "United States",
    "longitude": "",
    "latitude": "",
    "tags": []
  }
]