[
  {
    "id": "confluence-brewing-co",
    "name": "Confluence Brewing Co",
    "brewery_type": "micro",
    "street": "1235 Thomas Beck Rd Ste A",
    "city": "Des Moines",
    "state": "Iowa",
    "postal_code": "50315-1055",
    "website_url": "http://www.confluencebrewing.com",
    "phone": "5152859005",
    "created_at": "2018-07-24 01:33:23.55632",
    "updated_at": "2018-08-11 21:37:23.225904",
    "country": "United States",
    "longitude": "",
    "latitude": "",
    "tags": []
  },
  {
    "id": "court-avenue-brewing-co",
    "name": "Court Avenue Brewing Co",
    "brewery_type": "brewpub",
    "street": "309 Court Ave Ste 100",
    "city": "Des Moines",
    "state": "Iowa",
    "postal_code": "50309-2230",
    "website_url": "http://www.courtavebrew.com",
    "phone": "5152822739",
    "created_at": "2018-07-24 01:33:23.581385",
    "updated_at": "2018-08-11 21:37:23.294961",
    "country": "United States",
    "longitude": "",
    "latitude": "",
    "tags": []
  },
  {
    "id": "flix-brewhouse",
    "name": "Flix Brewhouse",
    "brewery_type": "brewpub",
    "street": "3800 Merle Hay Rd",
    "city": "Des Moines",
    "state": "Iowa",
    "postal_code": "50310-1305",
    "website_url": "",
    "phone": "5122442739",
    "created_at": "2018-07-24 01:33:23.750857",
    "updated_at": "2018-08-24 00:37:53.597737",
    "country": "United States",
    "longitude": "-93.6997831",
    "latitude": "41.6306427",
    "tags": []
  },
  {
    "id": "madhouse-brewing-co",
    "name": "Madhouse Brewing Co",
    "brewery_type": "micro",
    "street": "501 Scott Ave",
    "city": "Des Moines",
    "state": "Iowa",
    "postal_code": "50309-5047",
    "website_url": "http://www.madhousebeer.com",
    "phone": "9165017014",
    "created_at": "2018-07-24 01:33:24.035031",
    "updated_at": "2018-08-24 00:38:03.135665",
    "country": "United States",
    "longitude": "-93.6076690652753",
    "latitude": "41.58113315",
    "tags": []
  },
  {
    "id": "exile-brewing",
    "name": "Exile Brewing",
    "brewery_type": "micro",
    "street": "1514 Walnut St",
    "city": "Des Moines",
    "state": "Iowa",
    "postal_code": "50309-3420",
    "website_url": "http://www.exilebrewing.com",
    "phone": "5158832337",
    "created_at": "2018-07-24 01:33:23.668831",
    "updated_at": "2018-08-24 00:37:50.711454",
    "country": "United States",
    "longitude": "-93.6370215944771",
    "latitude": "41.5830167",
    "tags": []
  }
]