[
  {
    "id": "7-hills-brewing-company",
    "name": "7 Hills Brewing Company",
    "brewery_type": "brewpub",
    "street": "1085 Washington St",
    "city": "Dubuque",
    "state": "Iowa",
    "postal_code": "52001-4932",
    "website_url": "http://www.7hillsbrew.com",
    "phone": "5635878306",
    "created_at": "2018-07-24 01:33:23.342382",
    "updated_at": "2018-08-24 00:33:44.096581",
    "country": "United States",
    "longitude": "-90.6635263",
    "latitude": "42.5045556",
    "tags": []
  },
  {
    "id": "catfish-charlies-/-catfish-creek-brew-pub",
    "name": "Catfish Charlies / Catfish Creek Brew Pub",
    "brewery_type": "brewpub",
    "street": "1630 E 16th St",
    "city": "Dubuque",
    "state": "Iowa",
    "postal_code": "52001-2306",
    "website_url": "http://www.catfishcharliesdubuque.com",
    "phone": "5635828600",
    "created_at": "2018-07-24 01:33:23.526898",
    "updated_at": "2018-08-24 00:33:52.70743",
    "country": "United States",
    "longitude": "-90.6537288580055",
    "latitude": "42.5122589787176",
    "tags": []
  },
  {
    "id": "dimensional-brewing-co",
    "name": "Dimensional Brewing Co.",
    "brewery_type": "planning",
    "street": "",
    "city": "Dubuque",
    "state": "Iowa",
    "postal_code": "52001",
    "website_url": "http://www.dimensionalbrewing.com",
    "phone": "",
    "created_at": "2018-07-24 01:33:23.632073",
    "updated_at": "2018-08-11 21:37:23.415618",
    "country": "United States",
    "longitude": "",
    "latitude": "",
    "tags": []
  },
  {
    "id": "jubeck-new-world-brewing",
    "name": "Jubeck New World Brewing",
    "brewery_type": "micro",
    "street": "115 W 11th St",
    "city": "Dubuque",
    "state": "Iowa",
    "postal_code": "52001-4802",
    "website_url": "http://www.jubeckbrewing.com",
    "phone": "7753755692",
    "created_at": "2018-07-24 01:33:23.923072",
    "updated_at": "2018-08-24 00:37:59.334464",
    "country": "United States",
    "longitude": "-90.6677040399112",
    "latitude": "42.5036239260055",
    "tags": []
  }
]