[
  {
    "id": "church-owl-beer",
    "name": "Church Owl Beer",
    "brewery_type": "micro",
    "street": "",
    "city": "Stratford",
    "state": "Connecticut",
    "postal_code": "06615-7320",
    "website_url": "http://www.churchowlbeer.com",
    "phone": "",
    "created_at": "2018-07-24 01:33:09.350111",
    "updated_at": "2018-08-11 21:36:45.918623",
    "country": "United States",
    "longitude": "",
    "latitude": "",
    "tags": []
  },
  {
    "id": "athletic-brewing-company",
    "name": "Athletic Brewing Company",
    "brewery_type": "planning",
    "street": "",
    "city": "Stratford",
    "state": "Connecticut",
    "postal_code": "06615-7167",
    "website_url": "http://www.AthleticBrewing.com",
    "phone": "2032730422",
    "created_at": "2018-07-24 01:33:09.056295",
    "updated_at": "2018-08-11 21:36:45.12759",
    "country": "United States",
    "longitude": "",
    "latitude": "",
    "tags": []
  },
  {
    "id": "fairfield-craft-ales",
    "name": "Fairfield Craft Ales",
    "brewery_type": "micro",
    "street": "724 Honeyspot Rd",
    "city": "Stratford",
    "state": "Connecticut",
    "postal_code": "06615-7109",
    "website_url": "http://www.fairfieldcraftales.com",
    "phone": "2032962530",
    "created_at": "2018-07-24 01:33:09.527345",
    "updated_at": "2018-08-24 00:25:36.142256",
    "country": "United States",
    "longitude": "-73.147028319681",
    "latitude": "41.1756581581267",
    "tags": []
  },
  {
    "id": "two-roads-brewing-co",
    "name": "Two Roads Brewing Co",
    "brewery_type": "regional",
    "street": "1700 Stratford Ave",
    "city": "Stratford",
    "state": "Connecticut",
    "postal_code": "06615-6419",
    "website_url": "http://www.tworoadsbrewing.com",
    "phone": "2033352010",
    "created_at": "2018-07-24 01:33:10.300045",
    "updated_at": "2018-08-24 00:25:55.000603",
    "country": "United States",
    "longitude": "-73.151247",
    "latitude": "41.184374",
    "tags": []
  }
]