[
  {
    "id": "upland-brewing-co-bloomington-brewpub",
    "name": "Upland Brewing Co - Bloomington Brewpub",
    "brewery_type": "regional",
    "street": "350 W 11th St",
    "city": "Bloomington",
    "state": "Indiana",
    "postal_code": "47404-3720",
    "website_url": "http://www.uplandbeer.com",
    "phone": "8123362337",
    "created_at": "2018-07-24 01:33:23.175347",
    "updated_at": "2018-08-24 00:33:37.761726",
    "country": "United States",
    "longitude": "-86.5374792673344",
    "latitude": "39.173423",
    "tags": []
  },
  {
    "id": "bloomington-brewing-co-production-facility",
    "name": "Bloomington Brewing Co - Production Facility",
    "brewery_type": "micro",
    "street": "2234 West Industrial Drive",
    "city": "Bloomington",
    "state": "Indiana",
    "postal_code": "47404",
    "website_url": "http://www.bbcbloomington.com",
    "phone": "8126992005",
    "created_at": "2018-07-24 01:33:21.466759",
    "updated_at": "2018-08-11 21:37:17.906925",
    "country": "United States",
    "longitude": "",
    "latitude": "",
    "tags": []
  },
  {
    "id": "civilian-brewing-corps",
    "name": "Civilian Brewing Corps",
    "brewery_type": "planning",
    "street": "",
    "city": "Bloomington",
    "state": "Indiana",
    "postal_code": "47403-9658",
    "website_url": "",
    "phone": "",
    "created_at": "2018-07-24 01:33:21.758546",
    "updated_at": "2018-08-11 21:37:18.598344",
    "country": "United States",
    "longitude": "",
    "latitude": "",
    "tags": []
  },
  {
    "id": "bloomington-brewing-co",
    "name": "Bloomington Brewing Co",
    "brewery_type": "brewpub",
    "street": "1795 E 10th St",
    "city": "Bloomington",
    "state": "Indiana",
    "postal_code": "47407-6955",
    "website_url": "",
    "phone": "8123392256",
    "created_at": "2018-07-24 01:33:21.454417",
    "updated_at": "2018-08-24 00:32:36.100798",
    "country": "United States",
    "longitude": "-86.511366725",
    "latitude": "39.1720504",
    "tags": []
  },
  {
    "id": "function-brewing-co",
    "name": "Function Brewing Co",
    "brewery_type": "brewpub",
    "street": "108 E 6th St",
    "city": "Bloomington",
    "state": "Indiana",
    "postal_code": "47408-3311",
    "website_url": "http://www.functionbrewing.com",
    "phone": "8126761000",
    "created_at": "2018-07-24 01:33:22.03612",
    "updated_at": "2018-08-24 00:32:53.267082",
    "country": "United States",
    "longitude": "-86.5333707175402",
    "latitude": "39.1674678070357",
    "tags": []
  },
  {
    "id": "upland-brewing-co",
    "name": "Upland Brewing Co",
    "brewery_type": "micro",
    "street": "4060 W Profile Pkwy",
    "city": "Bloomington",
    "state": "Indiana",
    "postal_code": "47404-2554",
    "website_url": "",
    "phone": "8123362337",
    "created_at": "2018-07-24 01:33:23.161262",
    "updated_at": "2018-08-11 21:37:22.272557",
    "country": "United States",
    "longitude": "",
    "latitude": "",
    "tags": []
  },
  {
    "id": "the-tap-brewery",
    "name": "The Tap Brewery",
    "brewery_type": "brewpub",
    "street": "204 W Kirkwood Ave",
    "city": "Bloomington",
    "state": "Indiana",
    "postal_code": "47404-5144",
    "website_url": "http://www.thetapbeerbar.com",
    "phone": "8122878579",
    "created_at": "2018-07-24 01:33:23.003458",
    "updated_at": "2018-08-24 00:33:30.317093",
    "country": "United States",
    "longitude": "-86.5350443979592",
    "latitude": "39.1665079693878",
    "tags": []
  },
  {
    "id": "switchyard-brewing-company",
    "name": "Switchyard Brewing Company",
    "brewery_type": "micro",
    "street": "419 N Walnut St",
    "city": "Bloomington",
    "state": "Indiana",
    "postal_code": "47404-3842",
    "website_url": "http://www.switchyardbrewing.com",
    "phone": "8122878295",
    "created_at": "2018-07-24 01:33:22.915031",
    "updated_at": "2018-08-24 00:33:26.220434",
    "country": "United States",
    "longitude": "-86.5343606",
    "latitude": "39.1865667",
    "tags": []
  }
]