[
  {
    "id": "danny-boy-beer-works",
    "name": "Danny Boy Beer Works",
    "brewery_type": "brewpub",
    "street": "12702 Meeting House Rd",
    "city": "Carmel",
    "state": "Indiana",
    "postal_code": "46032-7292",
    "website_url": "http://www.dannyboybeerworks.com",
    "phone": "3176698080",
    "created_at": "2018-07-24 01:33:21.831255",
    "updated_at": "2018-08-24 00:32:45.430083",
    "country": "United States",
    "longitude": "-86.1971767",
    "latitude": "39.971556",
    "tags": []
  },
  {
    "id": "brewery-in-planning-carmel-in",
    "name": "Brewery In Planning - Carmel IN",
    "brewery_type": "planning",
    "street": "",
    "city": "Carmel",
    "state": "Indiana",
    "postal_code": "46033-9732",
    "website_url": "",
    "phone": "",
    "created_at": "2018-07-24 01:33:21.503276",
    "updated_at": "2018-08-11 21:37:17.995986",
    "country": "United States",
    "longitude": "",
    "latitude": "",
    "tags": []
  },
  {
    "id": "flix-brewhouse",
    "name": "Flix Brewhouse",
    "brewery_type": "brewpub",
    "street": "2206 E 116th St",
    "city": "Carmel",
    "state": "Indiana",
    "postal_code": "46032-3215",
    "website_url": "",
    "phone": "5122442739",
    "created_at": "2018-07-24 01:33:21.970209",
    "updated_at": "2018-08-24 00:32:50.421785",
    "country": "United States",
    "longitude": "-86.0897644",
    "latitude": "39.9567195",
    "tags": []
  },
  {
    "id": "misconduct-brewing",
    "name": "Misconduct Brewing",
    "brewery_type": "planning",
    "street": "",
    "city": "Carmel",
    "state": "Indiana",
    "postal_code": "46033-9414",
    "website_url": "",
    "phone": "",
    "created_at": "2018-07-24 01:33:22.434799",
    "updated_at": "2018-08-11 21:37:20.446179",
    "country": "United States",
    "longitude": "",
    "latitude": "",
    "tags": []
  },
  {
    "id": "union-brewing",
    "name": "Union Brewing",
    "brewery_type": "micro",
    "street": "622 S Rangeline Rd Ste Q",
    "city": "Carmel",
    "state": "Indiana",
    "postal_code": "46032-2152",
    "website_url": "http://www.unionbrewingco.com",
    "phone": "3175644466",
    "created_at": "2018-07-24 01:33:23.148044",
    "updated_at": "2018-08-11 21:37:22.239186",
    "country": "United States",
    "longitude": "",
    "latitude": "",
    "tags": []
  }
]