[
  {
    "id": "carsons-brewery",
    "name": "Carson's Brewery",
    "brewery_type": "micro",
    "street": "2404 Lynch Rd",
    "city": "Evansville",
    "state": "Indiana",
    "postal_code": "47711-2953",
    "website_url": "http://www.carsonsbrewery.com",
    "phone": "8127598229",
    "created_at": "2018-07-24 01:33:21.675705",
    "updated_at": "2018-08-11 21:37:18.402156",
    "country": "United States",
    "longitude": "",
    "latitude": "",
    "tags": []
  },
  {
    "id": "main-street-brewing-inc/turonis-pizza",
    "name": "Main Street Brewing Inc/Turonis Pizza",
    "brewery_type": "brewpub",
    "street": "408 N Main St",
    "city": "Evansville",
    "state": "Indiana",
    "postal_code": "47711-5418",
    "website_url": "",
    "phone": "8124249871",
    "created_at": "2018-07-24 01:33:22.396448",
    "updated_at": "2018-08-24 00:33:05.743193",
    "country": "United States",
    "longitude": "-87.5639952653061",
    "latitude": "37.9812209387755",
    "tags": []
  },
  {
    "id": "tin-man-brewing-company",
    "name": "Tin Man Brewing Company",
    "brewery_type": "micro",
    "street": "1430 W Franklin St",
    "city": "Evansville",
    "state": "Indiana",
    "postal_code": "47710-1030",
    "website_url": "http://www.tinmanbrewing.com",
    "phone": "8126183227",
    "created_at": "2018-07-24 01:33:23.060884",
    "updated_at": "2018-08-24 00:33:32.656889",
    "country": "United States",
    "longitude": "-87.5845245671576",
    "latitude": "37.9802896996268",
    "tags": []
  },
  {
    "id": "maidens-brewery",
    "name": "Maidens Brewery",
    "brewery_type": "brewpub",
    "street": "209 North Wabash Avenue of Flags",
    "city": "Evansville",
    "state": "Indiana",
    "postal_code": "47712",
    "website_url": "http://www.maidensbrewery.com",
    "phone": "8124312836",
    "created_at": "2018-07-24 01:33:22.38334",
    "updated_at": "2018-08-11 21:37:20.060598",
    "country": "United States",
    "longitude": "",
    "latitude": "",
    "tags": []
  }
]