[
  {
    "id": "brewery-in-planning-fort-wayne-in",
    "name": "Brewery in Planning - Fort Wayne, IN",
    "brewery_type": "planning",
    "street": "",
    "city": "Fort Wayne",
    "state": "Indiana",
    "postal_code": "46808",
    "website_url": "http://www.dotandlinebrewing.com",
    "phone": "2604822720",
    "created_at": "2018-07-24 01:33:21.527986",
    "updated_at": "2018-08-11 21:37:18.057294",
    "country": "United States",
    "longitude": "",
    "latitude": "",
    "tags": []
  },
  {
    "id": "birdboy-brewing-co",
    "name": "Birdboy Brewing Co",
    "brewery_type": "micro",
    "street": "210 E Collins Rd",
    "city": "Fort Wayne",
    "state": "Indiana",
    "postal_code": "46825-5304",
    "website_url": "http://www.birdboybrewing.com",
    "phone": "2605795508",
    "created_at": "2018-07-24 01:33:21.394898",
    "updated_at": "2018-08-24 00:32:33.183225",
    "country": "United States",
    "longitude": "-85.1390014183181",
    "latitude": "41.1218779162426",
    "tags": []
  },
  {
    "id": "gnometown-brewing-co",
    "name": "GnomeTown Brewing Co",
    "brewery_type": "brewpub",
    "street": "203 E Berry St Ste 104",
    "city": "Fort Wayne",
    "state": "Indiana",
    "postal_code": "46802",
    "website_url": "http://www.gnometownbrewing.com",
    "phone": "2604220070",
    "created_at": "2018-07-24 01:33:22.062005",
    "updated_at": "2018-08-11 21:37:19.337111",
    "country": "United States",
    "longitude": "",
    "latitude": "",
    "tags": []
  },
  {
    "id": "mad-anthony-brewing-co",
    "name": "Mad Anthony Brewing Co",
    "brewery_type": "micro",
    "street": "2002 Broadway",
    "city": "Fort Wayne",
    "state": "Indiana",
    "postal_code": "46802-3710",
    "website_url": "http://www.madbrew.com",
    "phone": "2604262537",
    "created_at": "2018-07-24 01:33:22.367",
    "updated_at": "2018-08-11 21:37:19.998204",
    "country": "United States",
    "longitude": "",
    "latitude": "",
    "tags": []
  },
  {
    "id": "granite-city-food-and-brewery-#24",
    "name": "Granite City Food & Brewery (#24)",
    "brewery_type": "brewpub",
    "street": "3809 Coldwater Rd",
    "city": "Fort Wayne",
    "state": "Indiana",
    "postal_code": "46805-1101",
    "website_url": "http://www.gcfb.net",
    "phone": "2604713030",
    "created_at": "2018-07-24 01:33:22.114317",
    "updated_at": "2018-08-24 00:32:56.05705",
    "country": "United States",
    "longitude": "-85.1358185730587",
    "latitude": "41.1113216",
    "tags": []
  },
  {
    "id": "hop-river-brewing-company",
    "name": "Hop River Brewing Company",
    "brewery_type": "micro",
    "street": "1515 N Harrison St",
    "city": "Fort Wayne",
    "state": "Indiana",
    "postal_code": "46808-2729",
    "website_url": "http://www.hopriverbrewing.com",
    "phone": "",
    "created_at": "2018-07-24 01:33:22.239418",
    "updated_at": "2018-08-24 00:32:59.476415",
    "country": "United States",
    "longitude": "-85.1434574",
    "latitude": "41.0882767",
    "tags": []
  },
  {
    "id": "junk-ditch-brewing-company",
    "name": "Junk Ditch Brewing Company",
    "brewery_type": "micro",
    "street": "1825 W Main St",
    "city": "Fort Wayne",
    "state": "Indiana",
    "postal_code": "46808-3715",
    "website_url": "http://junkditchbrewingco.com",
    "phone": "2604600460",
    "created_at": "2018-07-24 01:33:22.301382",
    "updated_at": "2018-08-24 00:33:02.762527",
    "country": "United States",
    "longitude": "-85.1669014",
    "latitude": "41.0779727",
    "tags": []
  },
  {
    "id": "summit-city-brwerks",
    "name": "Summit City Brwerks",
    "brewery_type": "brewpub",
    "street": "1501 E Berry #106",
    "city": "Fort Wayne",
    "state": "Indiana",
    "postal_code": "46803",
    "website_url": "http://www.summitcitybrewerks.com",
    "phone": "2604150782",
    "created_at": "2018-07-24 01:33:22.86698",
    "updated_at": "2018-08-11 21:37:21.540441",
    "country": "United States",
    "longitude": "",
    "latitude": "",
    "tags": []
  },
  {
    "id": "trubble-brewing",
    "name": "Trubble Brewing",
    "brewery_type": "micro",
    "street": "2725 Broadway",
    "city": "Fort Wayne",
    "state": "Indiana",
    "postal_code": "46807-1111",
    "website_url": "http://www.trubblebrewing.com",
    "phone": "2602676082",
    "created_at": "2018-07-24 01:33:23.111062",
    "updated_at": "2018-08-11 21:37:22.149089",
    "country": "United States",
    "longitude": "",
    "latitude": "",
    "tags": []
  }
]