[
  {
    "id": "metazoa-brewing-co",
    "name": "Metazoa Brewing Co.",
    "brewery_type": "micro",
    "street": "140 S College Ave",
    "city": "Indianapolis",
    "state": "Indiana",
    "postal_code": "46202-4004",
    "website_url": "http://www.metazoa.beer",
    "phone": "3175082274",
    "created_at": "2018-07-24 01:33:22.42209",
    "updated_at": "2018-08-24 00:33:06.897602",
    "country": "United States",
    "longitude": "-86.1458502485116",
    "latitude": "39.7645504924982",
    "tags": []
  },
  {
    "id": "ram-restaurant-and-brewery-indianapolis",
    "name": "RAM Restaurant and Brewery - Indianapolis",
    "brewery_type": "brewpub",
    "street": "140 S Illinois St",
    "city": "Indianapolis",
    "state": "Indiana",
    "postal_code": "46204",
    "website_url": "http://www.theram.com",
    "phone": "3179559900",
    "created_at": "2018-07-24 01:33:22.692664",
    "updated_at": "2018-08-24 00:33:17.348374",
    "country": "United States",
    "longitude": "-86.1605094727252",
    "latitude": "39.76475755",
    "tags": []
  },
  {
    "id": "blind-owl-brewery",
    "name": "Blind Owl Brewery",
    "brewery_type": "brewpub",
    "street": "5014 E 62nd St",
    "city": "Indianapolis",
    "state": "Indiana",
    "postal_code": "46220-5228",
    "website_url": "http://www.blindowlbrewery.com",
    "phone": "3179241000",
    "created_at": "2018-07-24 01:33:21.442829",
    "updated_at": "2018-08-11 21:37:17.855152",
    "country": "United States",
    "longitude": "",
    "latitude": "",
    "tags": []
  },
  {
    "id": "books-and-brews",
    "name": "Books & Brews",
    "brewery_type": "brewpub",
    "street": "9402 Uptown Dr Ste 1400",
    "city": "Indianapolis",
    "state": "Indiana",
    "postal_code": "46256-1076",
    "website_url": "http://www.booksnbrews.com",
    "phone": "3172885136",
    "created_at": "2018-07-24 01:33:21.479289",
    "updated_at": "2018-08-11 21:37:17.937773",
    "country": "United States",
    "longitude": "",
    "latitude": "",
    "tags": []
  },
  {
    "id": "brewery-in-planning-indianapolis",
    "name": "Brewery In Planning - Indianapolis",
    "brewery_type": "planning",
    "street": "",
    "city": "Indianapolis",
    "state": "Indiana",
    "postal_code": "46236",
    "website_url": "",
    "phone": "3178230521",
    "created_at": "2018-07-24 01:33:21.551933",
    "updated_at": "2018-08-11 21:37:18.115842",
    "country": "United States",
    "longitude": "",
    "latitude": "",
    "tags": []
  },
  {
    "id": "broad-ripple-brewing-co",
    "name": "Broad Ripple Brewing Co",
    "brewery_type": "brewpub",
    "street": "842 E 65th St",
    "city": "Indianapolis",
    "state": "Indiana",
    "postal_code": "46220-1674",
    "website_url": "",
    "phone": "3172532739",
    "created_at": "2018-07-24 01:33:21.576523",
    "updated_at": "2018-08-11 21:37:18.170799",
    "country": "United States",
    "longitude": "",
    "latitude": "",
    "tags": []
  },
  {
    "id": "brugge-brasserie",
    "name": "Brugge Brasserie",
    "brewery_type": "brewpub",
    "street": "1011A E Westfield Blvd",
    "city": "Indianapolis",
    "state": "Indiana",
    "postal_code": "46220-",
    "website_url": "http://www.bruggebrasserie.com",
    "phone": "3172550978",
    "created_at": "2018-07-24 01:33:21.601564",
    "updated_at": "2018-08-11 21:37:18.2259",
    "country": "United States",
    "longitude": "",
    "latitude": "",
    "tags": []
  },
  {
    "id": "chilly-water-brewing-company",
    "name": "Chilly Water Brewing Company",
    "brewery_type": "brewpub",
    "street": "719 Virginia Ave Ste 105",
    "city": "Indianapolis",
    "state": "Indiana",
    "postal_code": "46203-1976",
    "website_url": "http://www.chillywaterbrewing.com",
    "phone": "3179640518",
    "created_at": "2018-07-24 01:33:21.747073",
    "updated_at": "2018-08-11 21:37:18.571863",
    "country": "United States",
    "longitude": "",
    "latitude": "",
    "tags": []
  },
  {
    "id": "big-lug-canteen",
    "name": "Big Lug Canteen",
    "brewery_type": "brewpub",
    "street": "1435 E 86th St",
    "city": "Indianapolis",
    "state": "Indiana",
    "postal_code": "46240-1911",
    "website_url": "",
    "phone": "",
    "created_at": "2018-07-24 01:33:21.382331",
    "updated_at": "2018-08-24 00:32:32.613285",
    "country": "United States",
    "longitude": "-86.079957",
    "latitude": "39.912628",
    "tags": []
  },
  {
    "id": "black-acre-brewing-co",
    "name": "Black Acre Brewing Co",
    "brewery_type": "brewpub",
    "street": "5632 E Washington St",
    "city": "Indianapolis",
    "state": "Indiana",
    "postal_code": "46219-6428",
    "website_url": "http://www.blackacrebrewing.com",
    "phone": "3177973316",
    "created_at": "2018-07-24 01:33:21.407155",
    "updated_at": "2018-08-24 00:32:34.043997",
    "country": "United States",
    "longitude": "-86.1452662",
    "latitude": "39.7668669",
    "tags": []
  },
  {
    "id": "black-circle-brewing-co",
    "name": "Black Circle Brewing Co",
    "brewery_type": "micro",
    "street": "2201 E 46th St",
    "city": "Indianapolis",
    "state": "Indiana",
    "postal_code": "46205",
    "website_url": "http://www.blackcirclebrewing.com",
    "phone": "3174260143",
    "created_at": "2018-07-24 01:33:21.418706",
    "updated_at": "2018-08-24 00:32:34.601077",
    "country": "United States",
    "longitude": "-86.123944",
    "latitude": "39.8398813",
    "tags": []
  },
  {
    "id": "cannon-ball-brewing-company",
    "name": "Cannon Ball Brewing Company",
    "brewery_type": "brewpub",
    "street": "1702 Bellefontaine St",
    "city": "Indianapolis",
    "state": "Indiana",
    "postal_code": "46202-1813",
    "website_url": "http://www.cannonballbrewingindy.com",
    "phone": "3174265978",
    "created_at": "2018-07-24 01:33:21.65114",
    "updated_at": "2018-08-24 00:32:40.880681",
    "country": "United States",
    "longitude": "-86.142456030303",
    "latitude": "39.790467979798",
    "tags": []
  },
  {
    "id": "centerpoint-brewing",
    "name": "Centerpoint Brewing",
    "brewery_type": "micro",
    "street": "1125 E Brookside Ave",
    "city": "Indianapolis",
    "state": "Indiana",
    "postal_code": "46202-3587",
    "website_url": "http://www.centerpointbrewing.com",
    "phone": "3176028386",
    "created_at": "2018-07-24 01:33:21.699264",
    "updated_at": "2018-08-24 00:32:41.848794",
    "country": "United States",
    "longitude": "-86.1374046530612",
    "latitude": "39.7812903061225",
    "tags": []
  },
  {
    "id": "central-state-brewing",
    "name": "Central State Brewing",
    "brewery_type": "micro",
    "street": "4001 E 26th St",
    "city": "Indianapolis",
    "state": "Indiana",
    "postal_code": "46218",
    "website_url": "http://centralstatebrewing.com",
    "phone": "3174079855",
    "created_at": "2018-07-24 01:33:21.711386",
    "updated_at": "2018-08-24 00:32:42.401908",
    "country": "United States",
    "longitude": "-86.099105",
    "latitude": "39.805091",
    "tags": []
  },
  {
    "id": "deviate-brewing-co",
    "name": "Deviate Brewing Co",
    "brewery_type": "micro",
    "street": "4004 W 96th St",
    "city": "Indianapolis",
    "state": "Indiana",
    "postal_code": "46268-2909",
    "website_url": "http://www.deviatebrewing.com",
    "phone": "",
    "created_at": "2018-07-24 01:33:21.867049",
    "updated_at": "2018-08-11 21:37:18.855791",
    "country": "United States",
    "longitude": "",
    "latitude": "",
    "tags": []
  },
  {
    "id": "granite-city-food-and-brewery",
    "name": "Granite City Food & Brewery",
    "brewery_type": "brewpub",
    "street": "150 W 96th St",
    "city": "Indianapolis",
    "state": "Indiana",
    "postal_code": "46260-4802",
    "website_url": "",
    "phone": "",
    "created_at": "2018-07-24 01:33:22.101679",
    "updated_at": "2018-08-11 21:37:19.433591",
    "country": "United States",
    "longitude": "",
    "latitude": "",
    "tags": []
  },
  {
    "id": "granite-city-food-and-brewery-#27",
    "name": "Granite City Food & Brewery (#27)",
    "brewery_type": "brewpub",
    "street": "150 W 96th St",
    "city": "Indianapolis",
    "state": "Indiana",
    "postal_code": "46260-4802",
    "website_url": "http://www.gcfb.net",
    "phone": "3172187185",
    "created_at": "2018-07-24 01:33:22.138596",
    "updated_at": "2018-08-11 21:37:19.518641",
    "country": "United States",
    "longitude": "",
    "latitude": "",
    "tags": []
  },
  {
    "id": "guggman-haus-brewing-co",
    "name": "Guggman Haus Brewing Co.",
    "brewery_type": "planning",
    "street": "",
    "city": "Indianapolis",
    "state": "Indiana",
    "postal_code": "46202-2158",
    "website_url": "http://www.guggmanhausbrewing.com",
    "phone": "8122302554",
    "created_at": "2018-07-24 01:33:22.162939",
    "updated_at": "2018-08-11 21:37:19.573413",
    "country": "United States",
    "longitude": "",
    "latitude": "",
    "tags": []
  },
  {
    "id": "liter-house",
    "name": "Liter House",
    "brewery_type": "planning",
    "street": "",
    "city": "Indianapolis",
    "state": "Indiana",
    "postal_code": "46220",
    "website_url": "",
    "phone": "3176940580",
    "created_at": "2018-07-24 01:33:22.352009",
    "updated_at": "2018-08-11 21:37:19.972354",
    "country": "United States",
    "longitude": "",
    "latitude": "",
    "tags": []
  },
  {
    "id": "daredevil-brewing-company",
    "name": "Daredevil Brewing Company",
    "brewery_type": "micro",
    "street": "1151 Main St",
    "city": "Indianapolis",
    "state": "Indiana",
    "postal_code": "46224-6976",
    "website_url": "http://www.daredevilbeer.com",
    "phone": "",
    "created_at": "2018-07-24 01:33:21.843332",
    "updated_at": "2018-08-24 00:32:46.065055",
    "country": "United States",
    "longitude": "-86.64727",
    "latitude": "39.844367",
    "tags": []
  },
  {
    "id": "flat-12-bierwerks",
    "name": "Flat 12 Bierwerks",
    "brewery_type": "micro",
    "street": "414 Dorman St",
    "city": "Indianapolis",
    "state": "Indiana",
    "postal_code": "46202-3648",
    "website_url": "http://www.flat12.me",
    "phone": "3174265851",
    "created_at": "2018-07-24 01:33:21.958138",
    "updated_at": "2018-08-24 00:32:49.831944",
    "country": "United States",
    "longitude": "-86.13847",
    "latitude": "39.7726148571429",
    "tags": []
  },
  {
    "id": "fountain-square-brewing-co",
    "name": "Fountain Square Brewing Co",
    "brewery_type": "micro",
    "street": "1301 Barth Ave",
    "city": "Indianapolis",
    "state": "Indiana",
    "postal_code": "46203-1872",
    "website_url": "http://www.fountainsquarebrewing.com",
    "phone": "3174931410",
    "created_at": "2018-07-24 01:33:21.995428",
    "updated_at": "2018-08-24 00:32:51.581119",
    "country": "United States",
    "longitude": "-86.1404227",
    "latitude": "39.7496885",
    "tags": []
  },
  {
    "id": "indiana-city-brewing",
    "name": "Indiana City Brewing",
    "brewery_type": "micro",
    "street": "24 Shelby Street",
    "city": "Indianapolis",
    "state": "Indiana",
    "postal_code": "46202-3941",
    "website_url": "http://indianacitybeer.com",
    "phone": "3176431103",
    "created_at": "2018-07-24 01:33:22.27712",
    "updated_at": "2018-08-24 00:33:01.388787",
    "country": "United States",
    "longitude": "-86.141258",
    "latitude": "39.7661102",
    "tags": []
  },
  {
    "id": "redemption-alewerks",
    "name": "Redemption Alewerks",
    "brewery_type": "brewpub",
    "street": "7035 E 96th St Ste K",
    "city": "Indianapolis",
    "state": "Indiana",
    "postal_code": "46250-3303",
    "website_url": "http://www.redemptionalewerks.com",
    "phone": "3173483330",
    "created_at": "2018-07-24 01:33:22.719778",
    "updated_at": "2018-08-11 21:37:21.151077",
    "country": "United States",
    "longitude": "",
    "latitude": "",
    "tags": []
  },
  {
    "id": "round-town-brewery",
    "name": "Round Town Brewery",
    "brewery_type": "micro",
    "street": "950 S White River Pky West Dr Ste 100",
    "city": "Indianapolis",
    "state": "Indiana",
    "postal_code": "46221-1373",
    "website_url": "http://www.roundtownbrewery.com",
    "phone": "3174931375",
    "created_at": "2018-07-24 01:33:22.74426",
    "updated_at": "2018-08-11 21:37:21.216524",
    "country": "United States",
    "longitude": "",
    "latitude": "",
    "tags": []
  },
  {
    "id": "rock-bottom-brewery-indianapolis",
    "name": "Rock Bottom Brewery - Indianapolis",
    "brewery_type": "brewpub",
    "street": "10 W Washington St",
    "city": "Indianapolis",
    "state": "Indiana",
    "postal_code": "46204-3402",
    "website_url": "http://www.rockbottom.com",
    "phone": "3176818180",
    "created_at": "2018-07-24 01:33:22.731919",
    "updated_at": "2018-08-24 00:33:18.509444",
    "country": "United States",
    "longitude": "-86.1584705",
    "latitude": "39.76717025",
    "tags": []
  },
  {
    "id": "st-joseph-brewery-and-public-house",
    "name": "St. Joseph Brewery & Public House",
    "brewery_type": "brewpub",
    "street": "540 N College Ave",
    "city": "Indianapolis",
    "state": "Indiana",
    "postal_code": "46202-3504",
    "website_url": "http://www.saintjoseph.beer.com",
    "phone": "3176025670",
    "created_at": "2018-07-24 01:33:22.842495",
    "updated_at": "2018-08-24 00:33:23.833136",
    "country": "United States",
    "longitude": "-86.1449174",
    "latitude": "39.8095687",
    "tags": []
  },
  {
    "id": "sun-king-brewing-co",
    "name": "Sun King Brewing Co",
    "brewery_type": "regional",
    "street": "135 N College Ave",
    "city": "Indianapolis",
    "state": "Indiana",
    "postal_code": "46202-3801",
    "website_url": "",
    "phone": "3176023702",
    "created_at": "2018-07-24 01:33:22.890863",
    "updated_at": "2018-08-24 00:33:25.585564",
    "country": "United States",
    "longitude": "-86.1449174",
    "latitude": "39.8095687",
    "tags": []
  },
  {
    "id": "thr3e-wise-men-brewing-co",
    "name": "Thr3e Wise Men Brewing Co",
    "brewery_type": "brewpub",
    "street": "1021 Broad Ripple Ave",
    "city": "Indianapolis",
    "state": "Indiana",
    "postal_code": "46220-2034",
    "website_url": "",
    "phone": "3172555151",
    "created_at": "2018-07-24 01:33:23.017259",
    "updated_at": "2018-08-11 21:37:21.909033",
    "country": "United States",
    "longitude": "",
    "latitude": "",
    "tags": []
  },
  {
    "id": "traders-brewing-company",
    "name": "Traders Brewing Company",
    "brewery_type": "micro",
    "street": "8587  ZIONSVILLE ROAD",
    "city": "INDIANAPOLIS",
    "state": "Indiana",
    "postal_code": "46268",
    "website_url": "http://www.tradersbrewingcompany.com",
    "phone": "3172807505",
    "created_at": "2018-07-24 01:33:23.085663",
    "updated_at": "2018-08-11 21:37:22.088739",
    "country": "United States",
    "longitude": "",
    "latitude": "",
    "tags": []
  },
  {
    "id": "triton-brewing-company",
    "name": "Triton Brewing Company",
    "brewery_type": "micro",
    "street": "5764 Wheeler Rd",
    "city": "Indianapolis",
    "state": "Indiana",
    "postal_code": "46216-1038",
    "website_url": "http://www.tritonbrewing.com",
    "phone": "3177352706",
    "created_at": "2018-07-24 01:33:23.098006",
    "updated_at": "2018-08-11 21:37:22.118846",
    "country": "United States",
    "longitude": "",
    "latitude": "",
    "tags": []
  },
  {
    "id": "wabash-brewing",
    "name": "Wabash Brewing",
    "brewery_type": "micro",
    "street": "5328 W 79th St",
    "city": "Indianapolis",
    "state": "Indiana",
    "postal_code": "46268-1631",
    "website_url": "http://www.wabashbrew.com",
    "phone": "3179384458",
    "created_at": "2018-07-24 01:33:23.18716",
    "updated_at": "2018-08-11 21:37:22.335461",
    "country": "United States",
    "longitude": "",
    "latitude": "",
    "tags": []
  },
  {
    "id": "twenty-below-brewing-twenty-tap",
    "name": "Twenty Below Brewing @ Twenty Tap",
    "brewery_type": "brewpub",
    "street": "5406 N College Ave",
    "city": "Indianapolis",
    "state": "Indiana",
    "postal_code": "46220-3126",
    "website_url": "http://www.twentytap.com",
    "phone": "3176028840",
    "created_at": "2018-07-24 01:33:23.123496",
    "updated_at": "2018-08-24 00:33:35.528321",
    "country": "United States",
    "longitude": "-86.1449174",
    "latitude": "39.8095687",
    "tags": []
  },
  {
    "id": "twodeep-brewing",
    "name": "TwoDEEP Brewing",
    "brewery_type": "brewpub",
    "street": "714 N Capitol Ave",
    "city": "Indianapolis",
    "state": "Indiana",
    "postal_code": "46204-1114",
    "website_url": "http://www.twodeepbrewing.com",
    "phone": "3176531884",
    "created_at": "2018-07-24 01:33:23.135914",
    "updated_at": "2018-08-24 00:33:36.219096",
    "country": "United States",
    "longitude": "-86.161428",
    "latitude": "39.777426",
    "tags": []
  },
  {
    "id": "bier-brewery-and-taproom",
    "name": "Bier Brewery and Taproom",
    "brewery_type": "micro",
    "street": "5133 E 65th St",
    "city": "Indianapolis",
    "state": "Indiana",
    "postal_code": "46220-4816",
    "website_url": "http://www.bierbrewery.com",
    "phone": "3176960200",
    "created_at": "2018-07-24 01:33:21.357576",
    "updated_at": "2018-08-11 21:37:17.650827",
    "country": "United States",
    "longitude": "",
    "latitude": "",
    "tags": []
  }
]