[
  {
    "id": "new-albanian-bank-street-brewhouse",
    "name": "New Albanian Bank Street Brewhouse",
    "brewery_type": "brewpub",
    "street": "415 Bank St",
    "city": "New Albany",
    "state": "Indiana",
    "postal_code": "47150-3407",
    "website_url": "http://www.newalbanian.com",
    "phone": "8127259585",
    "created_at": "2018-07-24 01:33:22.471346",
    "updated_at": "2018-08-24 00:33:08.442191",
    "country": "United States",
    "longitude": "-85.822208424036",
    "latitude": "38.2865673227507",
    "tags": []
  },
  {
    "id": "donum-dei-brewery",
    "name": "Donum Dei Brewery",
    "brewery_type": "brewpub",
    "street": "3211 Grant Line Rd Ste 3",
    "city": "New Albany",
    "state": "Indiana",
    "postal_code": "47150-2175",
    "website_url": "",
    "phone": "5025412950",
    "created_at": "2018-07-24 01:33:21.899214",
    "updated_at": "2018-08-11 21:37:18.932009",
    "country": "United States",
    "longitude": "",
    "latitude": "",
    "tags": []
  },
  {
    "id": "new-albanian-brewing-co",
    "name": "New Albanian Brewing Co",
    "brewery_type": "brewpub",
    "street": "3312 Plaza Dr",
    "city": "New Albany",
    "state": "Indiana",
    "postal_code": "47150-2478",
    "website_url": "http://www.newalbanian.com",
    "phone": "8129442577",
    "created_at": "2018-07-24 01:33:22.483882",
    "updated_at": "2018-08-11 21:37:20.568078",
    "country": "United States",
    "longitude": "",
    "latitude": "",
    "tags": []
  },
  {
    "id": "floyd-county-brewing-company",
    "name": "Floyd County Brewing Company",
    "brewery_type": "brewpub",
    "street": "129 W Main St",
    "city": "New Albany",
    "state": "Indiana",
    "postal_code": "47150-5958",
    "website_url": "http://www.floydcountybrewing.com",
    "phone": "4705882337",
    "created_at": "2018-07-24 01:33:21.982914",
    "updated_at": "2018-08-24 00:32:51.011269",
    "country": "United States",
    "longitude": "-85.8242975365546",
    "latitude": "38.2828988498451",
    "tags": []
  }
]