[
  {
    "id": "bohemian-brewery-and-grill",
    "name": "Bohemian Brewery and Grill",
    "brewery_type": "micro",
    "street": "94 E 7200 S",
    "city": "Midvale",
    "state": "Utah",
    "postal_code": "84047-1532",
    "website_url": "http://www.bohemianbrewery.com",
    "phone": "8015665474",
    "created_at": "2018-07-24 01:34:22.417147",
    "updated_at": "2018-08-24 16:24:41.26724",
    "country": "United States",
    "longitude": "-111.894010991033",
    "latitude": "40.6206923048805",
    "tags": []
  },
  {
    "id": "2-row-brewing",
    "name": "2 Row Brewing",
    "brewery_type": "micro",
    "street": "6856 S 300 W",
    "city": "Midvale",
    "state": "Utah",
    "postal_code": "84047-1083",
    "website_url": "http://www.2rowbrewing.com",
    "phone": "8019878663",
    "created_at": "2018-07-24 01:34:22.391639",
    "updated_at": "2018-08-24 16:24:39.715878",
    "country": "United States",
    "longitude": "-111.9007652",
    "latitude": "40.5950202",
    "tags": []
  },
  {
    "id": "brewery-in-planning-draper",
    "name": "Brewery In Planning - Draper",
    "brewery_type": "planning",
    "street": "",
    "city": "Midvale",
    "state": "Utah",
    "postal_code": "84047-2875",
    "website_url": "",
    "phone": "8015578075",
    "created_at": "2018-07-24 01:34:22.459715",
    "updated_at": "2018-08-11 21:39:57.131839",
    "country": "United States",
    "longitude": "",
    "latitude": "",
    "tags": []
  },
  {
    "id": "hoppers-grill-and-brewing-co",
    "name": "Hoppers Grill and Brewing Co",
    "brewery_type": "brewpub",
    "street": "890 E Fort Union Blvd",
    "city": "Midvale",
    "state": "Utah",
    "postal_code": "84047-1745",
    "website_url": "http://www.hoppersbrewpub.com",
    "phone": "8015660424",
    "created_at": "2018-07-24 01:34:22.578764",
    "updated_at": "2018-08-24 16:24:53.643685",
    "country": "United States",
    "longitude": "-111.866336193809",
    "latitude": "40.6221000516795",
    "tags": []
  }
]