[
  {
    "id": "roosters-brewing-co-#1",
    "name": "Roosters Brewing Co  (#1)",
    "brewery_type": "micro",
    "street": "253 Historic 25th St",
    "city": "Ogden",
    "state": "Utah",
    "postal_code": "84401-2301",
    "website_url": "",
    "phone": "8016276171",
    "created_at": "2018-07-24 01:34:22.751617",
    "updated_at": "2018-08-11 21:39:57.857183",
    "country": "United States",
    "longitude": "",
    "latitude": "",
    "tags": []
  },
  {
    "id": "utog-brewing-company",
    "name": "UTOG Brewing Company",
    "brewery_type": "planning",
    "street": "",
    "city": "Ogden",
    "state": "Utah",
    "postal_code": "84401-1407",
    "website_url": "http://www.utogbrewing.com",
    "phone": "8017252402",
    "created_at": "2018-07-24 01:34:22.920011",
    "updated_at": "2018-08-11 21:39:58.280516",
    "country": "United States",
    "longitude": "",
    "latitude": "",
    "tags": []
  },
  {
    "id": "ruby-river-steak-house-and-brewery",
    "name": "Ruby River Steak House and Brewery",
    "brewery_type": "brewpub",
    "street": "4286 Riverdale Rd",
    "city": "Ogden",
    "state": "Utah",
    "postal_code": "84405-3512",
    "website_url": "http://www.sizzlingplatter.com",
    "phone": "8016222320",
    "created_at": "2018-07-24 01:34:22.777219",
    "updated_at": "2018-08-24 16:25:08.753363",
    "country": "United States",
    "longitude": "-111.988375517321",
    "latitude": "41.1840523402125",
    "tags": []
  },
  {
    "id": "talisman-brewing-company",
    "name": "Talisman Brewing Company",
    "brewery_type": "micro",
    "street": "1258 Gibson Ave",
    "city": "Ogden",
    "state": "Utah",
    "postal_code": "84404-5541",
    "website_url": "http://www.talismanbrewingco.com",
    "phone": "3853892945",
    "created_at": "2018-07-24 01:34:22.86464",
    "updated_at": "2018-08-24 16:25:16.377653",
    "country": "United States",
    "longitude": "-111.984447510204",
    "latitude": "41.243496",
    "tags": []
  }
]