[
  {
    "id": "geaux-brewing-llc",
    "name": "Geaux Brewing LLC",
    "brewery_type": "brewpub",
    "street": "425 E Main St",
    "city": "Auburn",
    "state": "Washington",
    "postal_code": "98002-5504",
    "website_url": "http://www.geauxbrewing.com",
    "phone": "2533973939",
    "created_at": "2018-07-24 01:34:29.998908",
    "updated_at": "2018-08-24 16:35:11.939798",
    "country": "United States",
    "longitude": "-122.223720918367",
    "latitude": "47.3076745714286",
    "tags": []
  },
  {
    "id": "hideaway-brewing-co",
    "name": "Hideaway Brewing Co",
    "brewery_type": "micro",
    "street": "18731 SE 314th St",
    "city": "Auburn",
    "state": "Washington",
    "postal_code": "98092-6556",
    "website_url": "",
    "phone": "2536319393",
    "created_at": "2018-07-24 01:34:30.357682",
    "updated_at": "2018-08-24 16:35:42.490638",
    "country": "United States",
    "longitude": "-122.1764384",
    "latitude": "47.3206933",
    "tags": []
  },
  {
    "id": "rail-hopn-brewing-co",
    "name": "Rail Hop'n Brewing Co",
    "brewery_type": "micro",
    "street": "513 A St NE",
    "city": "Auburn",
    "state": "Washington",
    "postal_code": "98002-4028",
    "website_url": "http://www.railhopn.com",
    "phone": "2532176800",
    "created_at": "2018-07-24 01:34:32.187497",
    "updated_at": "2018-08-24 16:38:17.364094",
    "country": "United States",
    "longitude": "-122.229088452132",
    "latitude": "47.3120418986318",
    "tags": []
  },
  {
    "id": "scamp-brewing-co",
    "name": "Scamp Brewing Co",
    "brewery_type": "micro",
    "street": "402 16th St NE Ste 107",
    "city": "Auburn",
    "state": "Washington",
    "postal_code": "98002-1600",
    "website_url": "http://www.scampbrewing.com",
    "phone": "",
    "created_at": "2018-07-24 01:34:32.658067",
    "updated_at": "2018-08-11 21:40:25.413697",
    "country": "United States",
    "longitude": "",
    "latitude": "",
    "tags": []
  },
  {
    "id": "rock-wood-fired-pizza-and-brewery-auburn",
    "name": "Rock Wood Fired Pizza & Brewery - Auburn",
    "brewery_type": "contract",
    "street": "1408 Lake Tapps Pkwy SE # E",
    "city": "Auburn",
    "state": "Washington",
    "postal_code": "98092-8158",
    "website_url": "http://www.therockwfp.com",
    "phone": "2538337887",
    "created_at": "2018-07-24 01:34:32.50548",
    "updated_at": "2018-08-24 16:38:47.63053",
    "country": "United States",
    "longitude": "-122.2095415",
    "latitude": "47.2448314",
    "tags": []
  }
]