[
  {
    "id": "aslan-brewing-company",
    "name": "Aslan Brewing Company",
    "brewery_type": "micro",
    "street": "1330 N Forest St",
    "city": "Bellingham",
    "state": "Washington",
    "postal_code": "98225-4702",
    "website_url": "http://aslanbrewing.com",
    "phone": "3603934106",
    "created_at": "2018-07-24 01:34:27.877892",
    "updated_at": "2018-08-24 16:32:19.367727",
    "country": "United States",
    "longitude": "-122.475450877551",
    "latitude": "48.7480153061224",
    "tags": []
  },
  {
    "id": "boundary-bay-brewery-and-bistro",
    "name": "Boundary Bay Brewery & Bistro",
    "brewery_type": "brewpub",
    "street": "1107 Railroad Ave",
    "city": "Bellingham",
    "state": "Washington",
    "postal_code": "98225-5007",
    "website_url": "http://www.bbaybrewery.com",
    "phone": "3606475593",
    "created_at": "2018-07-24 01:34:28.471808",
    "updated_at": "2018-08-24 16:33:08.435224",
    "country": "United States",
    "longitude": "-122.4809958",
    "latitude": "48.7475046",
    "tags": []
  },
  {
    "id": "gruff-brewing-company",
    "name": "Gruff Brewing Company",
    "brewery_type": "micro",
    "street": "104 E Maple St # 101",
    "city": "Bellingham",
    "state": "Washington",
    "postal_code": "98225-5006",
    "website_url": "http://www.gruff-brewing.com",
    "phone": "3607340115",
    "created_at": "2018-07-24 01:34:30.194628",
    "updated_at": "2018-08-24 16:35:27.429397",
    "country": "United States",
    "longitude": "-122.4822547",
    "latitude": "48.7472243",
    "tags": []
  },
  {
    "id": "illuminati-brewing-company",
    "name": "Illuminati Brewing Company",
    "brewery_type": "brewpub",
    "street": "3950 Hammer Dr Ste 101",
    "city": "Bellingham",
    "state": "Washington",
    "postal_code": "98226-7776",
    "website_url": "http://www.illuminatibrewing.com",
    "phone": "3602207072",
    "created_at": "2018-07-24 01:34:30.516853",
    "updated_at": "2018-08-24 16:35:57.452648",
    "country": "United States",
    "longitude": "-122.456005606061",
    "latitude": "48.7838573030303",
    "tags": []
  },
  {
    "id": "kulshan-brewing-co",
    "name": "Kulshan Brewing Co",
    "brewery_type": "micro",
    "street": "2238 James St",
    "city": "Bellingham",
    "state": "Washington",
    "postal_code": "98225-4142",
    "website_url": "http://www.kulshanbrewing.com",
    "phone": "3603895348",
    "created_at": "2018-07-24 01:34:30.646887",
    "updated_at": "2018-08-24 16:36:04.9436",
    "country": "United States",
    "longitude": "-122.4645645",
    "latitude": "48.7601273",
    "tags": []
  },
  {
    "id": "kulshan-brewing-co-k2",
    "name": "Kulshan Brewing Co - K2",
    "brewery_type": "micro",
    "street": "1538 Kentucky St",
    "city": "Bellingham",
    "state": "Washington",
    "postal_code": "98229-4720",
    "website_url": "",
    "phone": "3603895348",
    "created_at": "2018-07-24 01:34:30.660948",
    "updated_at": "2018-08-24 16:36:06.443645",
    "country": "United States",
    "longitude": "-122.453928093663",
    "latitude": "48.7576734843602",
    "tags": []
  },
  {
    "id": "melvin-brewing-bellingham",
    "name": "Melvin Brewing Bellingham",
    "brewery_type": "brewpub",
    "street": "2416 Meridian St",
    "city": "Bellingham",
    "state": "Washington",
    "postal_code": "98225-2405",
    "website_url": "",
    "phone": "3603063285",
    "created_at": "2018-07-24 01:34:31.170163",
    "updated_at": "2018-08-24 16:36:50.096474",
    "country": "United States",
    "longitude": "-122.485982020408",
    "latitude": "48.7621708979592",
    "tags": []
  },
  {
    "id": "menace-brewing",
    "name": "Menace Brewing",
    "brewery_type": "micro",
    "street": "2529 Meridian St",
    "city": "Bellingham",
    "state": "Washington",
    "postal_code": "98225-2406",
    "website_url": "",
    "phone": "3605954059",
    "created_at": "2018-07-24 01:34:31.183678",
    "updated_at": "2018-08-24 16:36:51.570984",
    "country": "United States",
    "longitude": "-122.486221142857",
    "latitude": "48.7635508571429",
    "tags": []
  },
  {
    "id": "twin-sisters-brewing-company",
    "name": "Twin Sisters Brewing Company",
    "brewery_type": "planning",
    "street": "",
    "city": "Bellingham",
    "state": "Washington",
    "postal_code": "98225",
    "website_url": "",
    "phone": "3606501150",
    "created_at": "2018-07-24 01:34:33.474346",
    "updated_at": "2018-08-11 21:40:27.36598",
    "country": "United States",
    "longitude": "",
    "latitude": "",
    "tags": []
  },
  {
    "id": "stones-throw-brewery",
    "name": "Stones Throw Brewery",
    "brewery_type": "micro",
    "street": "1009 Larrabee Ave",
    "city": "Bellingham",
    "state": "Washington",
    "postal_code": "98225-7338",
    "website_url": "http://www.stonesthrowbrewco.com",
    "phone": "3603625058",
    "created_at": "2018-07-24 01:34:33.036079",
    "updated_at": "2018-08-24 16:39:43.457247",
    "country": "United States",
    "longitude": "-122.497165",
    "latitude": "48.718516",
    "tags": []
  },
  {
    "id": "structures-brewing",
    "name": "Structures Brewing",
    "brewery_type": "micro",
    "street": "1420 N State St",
    "city": "Bellingham",
    "state": "Washington",
    "postal_code": "98225-4513",
    "website_url": "http://www.structuresbrewing.com",
    "phone": "3605827475",
    "created_at": "2018-07-24 01:34:33.073978",
    "updated_at": "2018-08-24 16:39:47.893016",
    "country": "United States",
    "longitude": "-122.474450699451",
    "latitude": "48.74988055",
    "tags": []
  },
  {
    "id": "wander-brewing",
    "name": "Wander Brewing",
    "brewery_type": "micro",
    "street": "1807 Dean Ave",
    "city": "Bellingham",
    "state": "Washington",
    "postal_code": "98225-4616",
    "website_url": "http://www.wanderbrewing.com",
    "phone": "3606476152",
    "created_at": "2018-07-24 01:34:33.668524",
    "updated_at": "2018-08-24 16:40:40.060033",
    "country": "United States",
    "longitude": "-122.473755877551",
    "latitude": "48.7541094693877",
    "tags": []
  },
  {
    "id": "chuckanut-brewery-north-nut",
    "name": "Chuckanut Brewery - North Nut",
    "brewery_type": "micro",
    "street": "601 W Holly St",
    "city": "Bellingham",
    "state": "Washington",
    "postal_code": "98225-3920",
    "website_url": "http://www.chuckanutbreweryandkitchen.com",
    "phone": "3607523377",
    "created_at": "2018-07-24 01:34:28.903213",
    "updated_at": "2018-08-24 16:33:31.816696",
    "country": "United States",
    "longitude": "-122.4851164",
    "latitude": "48.7533261",
    "tags": []
  }
]