[
  {
    "id": "beardslee-public-house",
    "name": "Beardslee Public House",
    "brewery_type": "brewpub",
    "street": "19116 Beardslee Blvd Ste 201",
    "city": "Bothell",
    "state": "Washington",
    "postal_code": "98011-0202",
    "website_url": "",
    "phone": "",
    "created_at": "2018-07-24 01:34:28.108505",
    "updated_at": "2018-08-24 16:32:41.6315",
    "country": "United States",
    "longitude": "-122.1914046",
    "latitude": "47.7663209",
    "tags": []
  },
  {
    "id": "decibel-brewing-co",
    "name": "Decibel Brewing Co",
    "brewery_type": "micro",
    "street": "18204 Bothell Everett Hwy Ste C",
    "city": "Bothell",
    "state": "Washington",
    "postal_code": "98012-6869",
    "website_url": "http://www.decibelbrewing.com\t",
    "phone": "4254081946",
    "created_at": "2018-07-24 01:34:29.05596",
    "updated_at": "2018-08-11 21:40:14.17264",
    "country": "United States",
    "longitude": "",
    "latitude": "",
    "tags": []
  },
  {
    "id": "foggy-noggin-brewing",
    "name": "Foggy Noggin Brewing",
    "brewery_type": "micro",
    "street": "22329 53rd Ave SE",
    "city": "Bothell",
    "state": "Washington",
    "postal_code": "98021-8017",
    "website_url": "http://www.foggynogginbrewing.com",
    "phone": "2065539223",
    "created_at": "2018-07-24 01:34:29.818114",
    "updated_at": "2018-08-11 21:40:16.318575",
    "country": "United States",
    "longitude": "",
    "latitude": "",
    "tags": []
  },
  {
    "id": "watts-brewing-company",
    "name": "Watts Brewing Company",
    "brewery_type": "micro",
    "street": "19813 51st Ave SE",
    "city": "Bothell",
    "state": "Washington",
    "postal_code": "98012-7440",
    "website_url": "http://www.wattsbrewingcompany.com",
    "phone": "2066583646",
    "created_at": "2018-07-24 01:34:33.707862",
    "updated_at": "2018-08-11 21:40:27.902321",
    "country": "United States",
    "longitude": "",
    "latitude": "",
    "tags": []
  },
  {
    "id": "mcmenamins-anderson-school-brewery",
    "name": "McMenamins Anderson School Brewery",
    "brewery_type": "brewpub",
    "street": "18607 Bothell Way NE",
    "city": "Bothell",
    "state": "Washington",
    "postal_code": "98011-1928",
    "website_url": "http://www.mcmenamins.com/AndersonSchool",
    "phone": "4253980122",
    "created_at": "2018-07-24 01:34:31.051778",
    "updated_at": "2018-08-24 16:36:39.507605",
    "country": "United States",
    "longitude": "-122.208069768707",
    "latitude": "47.7638777210884",
    "tags": []
  }
]