[
  {
    "id": "bad-bulldogs-brewery",
    "name": "Bad Bulldogs Brewery",
    "brewery_type": "micro",
    "street": "941 N Callow Ave",
    "city": "Bremerton",
    "state": "Washington",
    "postal_code": "98312",
    "website_url": "",
    "phone": "3606278079",
    "created_at": "2018-07-24 01:34:27.961744",
    "updated_at": "2018-08-24 16:32:28.183091",
    "country": "United States",
    "longitude": "-122.653373636364",
    "latitude": "47.5696392121212",
    "tags": []
  },
  {
    "id": "der-blokken-brewery",
    "name": "Der Blokken Brewery",
    "brewery_type": "brewpub",
    "street": "1100 Perry Ave Unit C",
    "city": "Bremerton",
    "state": "Washington",
    "postal_code": "98310-4945",
    "website_url": "http://www.derblokken.com",
    "phone": "3603772344",
    "created_at": "2018-07-24 01:34:29.073001",
    "updated_at": "2018-08-11 21:40:14.209789",
    "country": "United States",
    "longitude": "",
    "latitude": "",
    "tags": []
  },
  {
    "id": "dog-days-brewing",
    "name": "Dog Days Brewing",
    "brewery_type": "brewpub",
    "street": "260 4th St",
    "city": "Bremerton",
    "state": "Washington",
    "postal_code": "98337-1813",
    "website_url": "",
    "phone": "2069293314",
    "created_at": "2018-07-24 01:34:29.201845",
    "updated_at": "2018-08-24 16:33:55.861079",
    "country": "United States",
    "longitude": "-122.6259002",
    "latitude": "47.5658843",
    "tags": []
  },
  {
    "id": "lovecraft-brewing-co",
    "name": "LoveCraft Brewing Co",
    "brewery_type": "micro",
    "street": "275 5th St Ste 101",
    "city": "Bremerton",
    "state": "Washington",
    "postal_code": "98337-1907",
    "website_url": "http://www.lovecraftbrewing.com",
    "phone": "",
    "created_at": "2018-07-24 01:34:30.895153",
    "updated_at": "2018-08-24 16:36:25.988247",
    "country": "United States",
    "longitude": "-122.6257694",
    "latitude": "47.5664595",
    "tags": []
  },
  {
    "id": "smittys-brewing",
    "name": "Smitty's Brewing",
    "brewery_type": "micro",
    "street": "",
    "city": "Bremerton",
    "state": "Washington",
    "postal_code": "98312-9132",
    "website_url": "",
    "phone": "3607108921",
    "created_at": "2018-07-24 01:34:32.875053",
    "updated_at": "2018-08-11 21:40:25.923146",
    "country": "United States",
    "longitude": "",
    "latitude": "",
    "tags": []
  },
  {
    "id": "silver-city-brewery",
    "name": "Silver City Brewery",
    "brewery_type": "regional",
    "street": "206 Katy Penman Ave",
    "city": "Bremerton",
    "state": "Washington",
    "postal_code": "98312-4301",
    "website_url": "http://www.silvercitybrewery.com",
    "phone": "3608131487",
    "created_at": "2018-07-24 01:34:32.762649",
    "updated_at": "2018-08-24 16:39:16.103972",
    "country": "United States",
    "longitude": "-122.678010092627",
    "latitude": "47.56156065",
    "tags": []
  }
]