[
  {
    "id": "american-brewing-company",
    "name": "American Brewing Company",
    "brewery_type": "brewpub",
    "street": "180 W Dayton St Ste 102",
    "city": "Edmonds",
    "state": "Washington",
    "postal_code": "98020-4127",
    "website_url": "http://www.americanbrewing.com",
    "phone": "4257741717",
    "created_at": "2018-07-24 01:34:27.836832",
    "updated_at": "2018-08-11 21:40:11.51382",
    "country": "United States",
    "longitude": "",
    "latitude": "",
    "tags": []
  },
  {
    "id": "brewery-in-planning-spokane",
    "name": "Brewery In Planning - Spokane",
    "brewery_type": "planning",
    "street": "",
    "city": "Edmonds",
    "state": "Washington",
    "postal_code": "98026",
    "website_url": "",
    "phone": "",
    "created_at": "2018-07-24 01:34:28.591461",
    "updated_at": "2018-08-11 21:40:13.065115",
    "country": "United States",
    "longitude": "",
    "latitude": "",
    "tags": []
  },
  {
    "id": "gallaghers-where-u-brew",
    "name": "Gallaghers' Where U Brew",
    "brewery_type": "micro",
    "street": "180 W Dayton St Ste 105",
    "city": "Edmonds",
    "state": "Washington",
    "postal_code": "98020-4160",
    "website_url": "http://www.whereubrew.com",
    "phone": "4257764209",
    "created_at": "2018-07-24 01:34:29.970234",
    "updated_at": "2018-08-11 21:40:16.904809",
    "country": "United States",
    "longitude": "",
    "latitude": "",
    "tags": []
  },
  {
    "id": "salish-sea-brewing-company",
    "name": "Salish Sea Brewing Company",
    "brewery_type": "brewpub",
    "street": "518 Dayton St Ste 104",
    "city": "Edmonds",
    "state": "Washington",
    "postal_code": "98020-",
    "website_url": "http://www.salishbrewing.com",
    "phone": "2062953116",
    "created_at": "2018-07-24 01:34:32.631568",
    "updated_at": "2018-08-11 21:40:25.333027",
    "country": "United States",
    "longitude": "",
    "latitude": "",
    "tags": []
  }
]