[
  {
    "id": "at-large-brewing",
    "name": "At Large Brewing",
    "brewery_type": "micro",
    "street": "2730 W Marine View Dr",
    "city": "Everett",
    "state": "Washington",
    "postal_code": "98201-3421",
    "website_url": "http://www.atlargebrewing.com",
    "phone": "4253240039",
    "created_at": "2018-07-24 01:34:27.890835",
    "updated_at": "2018-08-24 16:32:20.841244",
    "country": "United States",
    "longitude": "-122.2146867",
    "latitude": "47.9808918",
    "tags": []
  },
  {
    "id": "crucible-brewing-company",
    "name": "Crucible Brewing Company",
    "brewery_type": "micro",
    "street": "909 SE Everett Mall Way Ste D440",
    "city": "Everett",
    "state": "Washington",
    "postal_code": "98208-3755",
    "website_url": "http://Www.cruciblebrewing.com",
    "phone": "3603880870",
    "created_at": "2018-07-24 01:34:29.03761",
    "updated_at": "2018-08-11 21:40:14.130854",
    "country": "United States",
    "longitude": "",
    "latitude": "",
    "tags": []
  },
  {
    "id": "lazy-boy-brewing",
    "name": "Lazy Boy Brewing",
    "brewery_type": "micro",
    "street": "715 100th St SE Ste A1",
    "city": "Everett",
    "state": "Washington",
    "postal_code": "98208-3762",
    "website_url": "http://www.lazyboybrewing.com",
    "phone": "4254237700",
    "created_at": "2018-07-24 01:34:30.80206",
    "updated_at": "2018-08-11 21:40:19.099328",
    "country": "United States",
    "longitude": "",
    "latitude": "",
    "tags": []
  },
  {
    "id": "middleton-brewing-co",
    "name": "Middleton Brewing Co",
    "brewery_type": "brewpub",
    "street": "607 SE Everett Mall Way Ste 27A",
    "city": "Everett",
    "state": "Washington",
    "postal_code": "98208-3264",
    "website_url": "http://www.middletonbrewing.net",
    "phone": "4252809178",
    "created_at": "2018-07-24 01:34:31.212004",
    "updated_at": "2018-08-11 21:40:20.787541",
    "country": "United States",
    "longitude": "",
    "latitude": "",
    "tags": []
  },
  {
    "id": "pacific-northwest-brewing-center-llc",
    "name": "Pacific Northwest Brewing Center, LLC",
    "brewery_type": "planning",
    "street": "",
    "city": "Everett",
    "state": "Washington",
    "postal_code": "98208-3320",
    "website_url": "",
    "phone": "",
    "created_at": "2018-07-24 01:34:31.90668",
    "updated_at": "2018-08-11 21:40:23.05777",
    "country": "United States",
    "longitude": "",
    "latitude": "",
    "tags": []
  },
  {
    "id": "scuttlebutt-brewing-co",
    "name": "Scuttlebutt Brewing Co",
    "brewery_type": "micro",
    "street": "3314 Cedar St",
    "city": "Everett",
    "state": "Washington",
    "postal_code": "98201-4518",
    "website_url": "http://www.scuttlebuttbrewing.com",
    "phone": "4252579316",
    "created_at": "2018-07-24 01:34:32.7094",
    "updated_at": "2018-08-24 16:39:10.093599",
    "country": "United States",
    "longitude": "-122.1943218",
    "latitude": "47.9736304",
    "tags": []
  }
]