[
  {
    "id": "brewery-in-planning-olympia",
    "name": "Brewery in Planning - Olympia",
    "brewery_type": "planning",
    "street": "",
    "city": "Olympia",
    "state": "Washington",
    "postal_code": "98506-3026",
    "website_url": "",
    "phone": "2539730844",
    "created_at": "2018-07-24 01:34:28.525769",
    "updated_at": "2018-08-11 21:40:12.943794",
    "country": "United States",
    "longitude": "",
    "latitude": "",
    "tags": []
  },
  {
    "id": "cascadia-brewing-co",
    "name": "Cascadia Brewing Co.",
    "brewery_type": "micro",
    "street": "211 4th Ave E",
    "city": "Olympia",
    "state": "Washington",
    "postal_code": "98501-1104",
    "website_url": "http://www.cascadiahomebrew.com",
    "phone": "3609432337",
    "created_at": "2018-07-24 01:34:28.820251",
    "updated_at": "2018-08-24 16:33:23.549447",
    "country": "United States",
    "longitude": "-122.900173959184",
    "latitude": "47.0449127346939",
    "tags": []
  },
  {
    "id": "fish-brewing-co",
    "name": "Fish Brewing Co",
    "brewery_type": "micro",
    "street": "515 Jefferson St SE",
    "city": "Olympia",
    "state": "Washington",
    "postal_code": "98501-1467",
    "website_url": "http://www.fishbrewing.com",
    "phone": "3609436480",
    "created_at": "2018-07-24 01:34:29.683631",
    "updated_at": "2018-08-24 16:34:41.91951",
    "country": "United States",
    "longitude": "-122.895417857143",
    "latitude": "47.0343712857143",
    "tags": []
  },
  {
    "id": "mcmenamins-spar-cafe-brewery",
    "name": "McMenamins Spar Cafe Brewery",
    "brewery_type": "brewpub",
    "street": "114 4th Ave E",
    "city": "Olympia",
    "state": "Washington",
    "postal_code": "98501-1103",
    "website_url": "",
    "phone": "3603576444",
    "created_at": "2018-07-24 01:34:31.153262",
    "updated_at": "2018-08-24 16:36:48.60802",
    "country": "United States",
    "longitude": "-122.901376762898",
    "latitude": "47.0449997425281",
    "tags": []
  },
  {
    "id": "well-80-brewing-company",
    "name": "Well 80 Brewing Company",
    "brewery_type": "brewpub",
    "street": "514 4th Ave E",
    "city": "Olympia",
    "state": "Washington",
    "postal_code": "98501-1111",
    "website_url": "http://www.well80.com",
    "phone": "3609156653",
    "created_at": "2018-07-24 01:34:33.721746",
    "updated_at": "2018-08-24 16:40:45.919771",
    "country": "United States",
    "longitude": "-122.896428714286",
    "latitude": "47.0453448571429",
    "tags": []
  },
  {
    "id": "three-magnets-brewing",
    "name": "Three Magnets Brewing",
    "brewery_type": "brewpub",
    "street": "600 Franklin St SE Unit 105",
    "city": "Olympia",
    "state": "Washington",
    "postal_code": "98501-1360",
    "website_url": "http://www.threemagnetsbrewing.com",
    "phone": "3609722481",
    "created_at": "2018-07-24 01:34:33.28804",
    "updated_at": "2018-08-11 21:40:26.861693",
    "country": "United States",
    "longitude": "",
    "latitude": "",
    "tags": []
  }
]