[
  {
    "id": "rainy-daze-brewing",
    "name": "Rainy Daze Brewing",
    "brewery_type": "micro",
    "street": "650 NW BOVELA LN SUITE 3",
    "city": "Poulsbo",
    "state": "Washington",
    "postal_code": "98370",
    "website_url": "http://www.rainydazebrewing.com",
    "phone": "3606921858",
    "created_at": "2018-07-24 01:34:32.21305",
    "updated_at": "2018-08-11 21:40:24.239568",
    "country": "United States",
    "longitude": "",
    "latitude": "",
    "tags": []
  },
  {
    "id": "slippery-pig-brewery",
    "name": "Slippery Pig Brewery",
    "brewery_type": "brewpub",
    "street": "18801 Front St NE",
    "city": "Poulsbo",
    "state": "Washington",
    "postal_code": "98370",
    "website_url": "http://www.slipperypigbrewing.com",
    "phone": "3603941686",
    "created_at": "2018-07-24 01:34:32.846987",
    "updated_at": "2018-08-24 16:39:25.079712",
    "country": "United States",
    "longitude": "-122.645983376879",
    "latitude": "47.73347675",
    "tags": []
  },
  {
    "id": "valholl-brewing-company",
    "name": "Valholl Brewing Company",
    "brewery_type": "micro",
    "street": "18970 3rd Ave",
    "city": "Poulsbo",
    "state": "Washington",
    "postal_code": "98370",
    "website_url": "http://www.valhollbrewing.com",
    "phone": "3609300172",
    "created_at": "2018-07-24 01:34:33.543657",
    "updated_at": "2018-08-11 21:40:27.493433",
    "country": "United States",
    "longitude": "",
    "latitude": "",
    "tags": []
  },
  {
    "id": "sound-brewery",
    "name": "Sound Brewery",
    "brewery_type": "micro",
    "street": "19479 Viking Ave NW",
    "city": "Poulsbo",
    "state": "Washington",
    "postal_code": "98370-8370",
    "website_url": "http://www.soundbrewery.com",
    "phone": "3609308696",
    "created_at": "2018-07-24 01:34:32.928018",
    "updated_at": "2018-08-24 16:39:32.583314",
    "country": "United States",
    "longitude": "-122.6596831",
    "latitude": "47.7398382",
    "tags": []
  },
  {
    "id": "western-red-brewing",
    "name": "Western Red Brewing",
    "brewery_type": "brewpub",
    "street": "19168 Jensen Way NE Ste 100",
    "city": "Poulsbo",
    "state": "Washington",
    "postal_code": "98370",
    "website_url": "http://westernredbrewing.com",
    "phone": "3606261280",
    "created_at": "2018-07-24 01:34:33.765223",
    "updated_at": "2018-08-11 21:40:28.066842",
    "country": "United States",
    "longitude": "",
    "latitude": "",
    "tags": []
  }
]