[
  {
    "id": "ram-restaurant-and-brewery-puyallup-south-hill",
    "name": "RAM Restaurant and Brewery - Puyallup South Hill",
    "brewery_type": "brewpub",
    "street": "103 35th Ave SE",
    "city": "Puyallup",
    "state": "Washington",
    "postal_code": "98374-1231",
    "website_url": "http://www.theram.com",
    "phone": "2538413317",
    "created_at": "2018-07-24 01:34:32.254515",
    "updated_at": "2018-08-24 16:38:24.900299",
    "country": "United States",
    "longitude": "-122.292784973154",
    "latitude": "47.1585707114094",
    "tags": []
  },
  {
    "id": "powerhouse-restaurant-and-brewery",
    "name": "Powerhouse Restaurant and Brewery",
    "brewery_type": "brewpub",
    "street": "454 E Main",
    "city": "Puyallup",
    "state": "Washington",
    "postal_code": "98372-3258",
    "website_url": "http://www.powerhousebrewpub.com",
    "phone": "2538451370",
    "created_at": "2018-07-24 01:34:32.112407",
    "updated_at": "2018-08-11 21:40:23.768536",
    "country": "United States",
    "longitude": "",
    "latitude": "",
    "tags": []
  },
  {
    "id": "puyallup-river-brewing-co",
    "name": "Puyallup River Brewing Co",
    "brewery_type": "micro",
    "street": "",
    "city": "Puyallup",
    "state": "Washington",
    "postal_code": "98375-6923",
    "website_url": "http://www.puyallupriverbrewing.com",
    "phone": "2535908219",
    "created_at": "2018-07-24 01:34:32.136946",
    "updated_at": "2018-08-11 21:40:23.850676",
    "country": "United States",
    "longitude": "",
    "latitude": "",
    "tags": []
  },
  {
    "id": "off-camber-brewing",
    "name": "Off Camber Brewing",
    "brewery_type": "micro",
    "street": "6506 114th Avenue Ct E",
    "city": "Puyallup",
    "state": "Washington",
    "postal_code": "98372-2811",
    "website_url": "http://www.facebook.com/OffCamberBrew/",
    "phone": "2533128796",
    "created_at": "2018-07-24 01:34:31.71327",
    "updated_at": "2018-08-24 16:37:38.120125",
    "country": "United States",
    "longitude": "-122.2772454",
    "latitude": "47.1989594",
    "tags": []
  },
  {
    "id": "the-station-u-brew",
    "name": "The Station U Brew",
    "brewery_type": "micro",
    "street": "211 W Stewart",
    "city": "Puyallup",
    "state": "Washington",
    "postal_code": "98371-4393",
    "website_url": "",
    "phone": "2534663721",
    "created_at": "2018-07-24 01:34:33.261745",
    "updated_at": "2018-08-24 16:40:02.991888",
    "country": "United States",
    "longitude": "-122.291349749659",
    "latitude": "47.1925251108079",
    "tags": []
  }
]