[
  {
    "id": "brewery-in-planning-renton-wa",
    "name": "Brewery in Planning - Renton, WA",
    "brewery_type": "planning",
    "street": "",
    "city": "Renton",
    "state": "Washington",
    "postal_code": "98057-5111",
    "website_url": "",
    "phone": "2063102055",
    "created_at": "2018-07-24 01:34:28.544507",
    "updated_at": "2018-08-11 21:40:12.974305",
    "country": "United States",
    "longitude": "",
    "latitude": "",
    "tags": []
  },
  {
    "id": "herbert-b-friendly-brewing",
    "name": "Herbert B. Friendly Brewing",
    "brewery_type": "micro",
    "street": "527 Wells Ave S",
    "city": "Renton",
    "state": "Washington",
    "postal_code": "98057-2703",
    "website_url": "http://www.drinkhbf.com",
    "phone": "4252434372",
    "created_at": "2018-07-24 01:34:30.344579",
    "updated_at": "2018-08-24 16:35:41.011582",
    "country": "United States",
    "longitude": "-122.205605",
    "latitude": "47.4760991775467",
    "tags": []
  },
  {
    "id": "dog-and-pony-alehouse-and-grill",
    "name": "Dog & Pony Alehouse and Grill",
    "brewery_type": "contract",
    "street": "351 Park Ave N",
    "city": "Renton",
    "state": "Washington",
    "postal_code": "98057-5716",
    "website_url": "http://www.thedogandpony.com",
    "phone": "4252548080",
    "created_at": "2018-07-24 01:34:29.188284",
    "updated_at": "2018-08-24 16:33:54.407971",
    "country": "United States",
    "longitude": "-122.202312877551",
    "latitude": "47.4875826122449",
    "tags": []
  },
  {
    "id": "four-generals-brewing",
    "name": "Four Generals Brewing",
    "brewery_type": "micro",
    "street": "229 Wells Ave S",
    "city": "Renton",
    "state": "Washington",
    "postal_code": "98057-2131",
    "website_url": "http://www.fourgenerals.com",
    "phone": "4252824360",
    "created_at": "2018-07-24 01:34:29.888861",
    "updated_at": "2018-08-24 16:35:02.196754",
    "country": "United States",
    "longitude": "-122.205586",
    "latitude": "47.4801424",
    "tags": []
  }
]