[
  {
    "id": "rattlesnake-mountain-brewery-/-kimos-restaurant",
    "name": "Rattlesnake Mountain Brewery / Kimo's Restaurant",
    "brewery_type": "brewpub",
    "street": "1250 Columbia Center Blvd",
    "city": "Richland",
    "state": "Washington",
    "postal_code": "99352-4839",
    "website_url": "http://www.rattlesnakemountainbrewery.com",
    "phone": "5097835747",
    "created_at": "2018-07-24 01:34:32.322254",
    "updated_at": "2018-08-24 16:38:30.9501",
    "country": "United States",
    "longitude": "-119.223482230166",
    "latitude": "46.2250454328982",
    "tags": []
  },
  {
    "id": "atomic-ale-brewpub-and-eatery",
    "name": "Atomic Ale Brewpub and Eatery",
    "brewery_type": "brewpub",
    "street": "1015 Lee Blvd",
    "city": "Richland",
    "state": "Washington",
    "postal_code": "99352-4226",
    "website_url": "http://www.atomicalebrewpub.com",
    "phone": "5099465465",
    "created_at": "2018-07-24 01:34:27.905271",
    "updated_at": "2018-08-24 16:32:22.323691",
    "country": "United States",
    "longitude": "-119.278200311032",
    "latitude": "46.2747551534741",
    "tags": []
  },
  {
    "id": "bombing-range-brewing-company",
    "name": "Bombing Range Brewing Company",
    "brewery_type": "brewpub",
    "street": "2000 Logston Blvd Ste 126",
    "city": "Richland",
    "state": "Washington",
    "postal_code": "99354-5330",
    "website_url": "http://www.bombingrangebrewing.com",
    "phone": "5093923377",
    "created_at": "2018-07-24 01:34:28.431644",
    "updated_at": "2018-08-24 16:33:06.876003",
    "country": "United States",
    "longitude": "-119.2999357",
    "latitude": "46.3204119",
    "tags": []
  },
  {
    "id": "paper-street-brewing-company",
    "name": "Paper Street Brewing Company",
    "brewery_type": "brewpub",
    "street": "701 The Parkway",
    "city": "Richland",
    "state": "Washington",
    "postal_code": "99352-4251",
    "website_url": "http://www.paperstbrewing.com",
    "phone": "5097137088",
    "created_at": "2018-07-24 01:34:31.923786",
    "updated_at": "2018-08-24 16:37:53.20811",
    "country": "United States",
    "longitude": "-119.274455",
    "latitude": "46.274953",
    "tags": []
  },
  {
    "id": "shrub-steppe-smokehouse-brewery",
    "name": "Shrub Steppe Smokehouse Brewery",
    "brewery_type": "brewpub",
    "street": "2000 Logston Blvd Ste 122",
    "city": "Richland",
    "state": "Washington",
    "postal_code": "99354-5329",
    "website_url": "http://www.shrubsteppebrewing.com",
    "phone": "5093759092",
    "created_at": "2018-07-24 01:34:32.748686",
    "updated_at": "2018-08-24 16:39:14.595507",
    "country": "United States",
    "longitude": "-119.2999357",
    "latitude": "46.3204119",
    "tags": []
  },
  {
    "id": "white-bluffs-brewing",
    "name": "White Bluffs Brewing",
    "brewery_type": "micro",
    "street": "2034 Logston Blvd",
    "city": "Richland",
    "state": "Washington",
    "postal_code": "99354-5300",
    "website_url": "http://www.whitebluffsbrewing.com",
    "phone": "5095547059",
    "created_at": "2018-07-24 01:34:33.819474",
    "updated_at": "2018-08-24 16:40:55.186427",
    "country": "United States",
    "longitude": "-119.2999357",
    "latitude": "46.3204119",
    "tags": []
  }
]