[
  {
    "id": "hellbent-brewing-company",
    "name": "Hellbent Brewing Company",
    "brewery_type": "micro",
    "street": "13035 Lake City Way NE",
    "city": "Seattle",
    "state": "Washington",
    "postal_code": "98125-4428",
    "website_url": "http://www.hellbentbrewingcompany.com",
    "phone": "2063613707",
    "created_at": "2018-07-24 01:34:30.315784",
    "updated_at": "2018-08-24 16:35:37.928953",
    "country": "United States",
    "longitude": "-122.2931111",
    "latitude": "47.7238772",
    "tags": []
  },
  {
    "id": "lagunitas-seattle-taproom-and-beer-sanctuary",
    "name": "Lagunitas Seattle Taproom and Beer Sanctuary",
    "brewery_type": "brewpub",
    "street": "1550 NW 49th St",
    "city": "Seattle",
    "state": "Washington",
    "postal_code": "98107-4731",
    "website_url": "",
    "phone": "2067842230",
    "created_at": "2018-07-24 01:34:30.718866",
    "updated_at": "2018-08-24 16:36:09.395946",
    "country": "United States",
    "longitude": "-122.3784629",
    "latitude": "47.6645881",
    "tags": []
  },
  {
    "id": "northwest-peaks-brewery",
    "name": "Northwest Peaks Brewery",
    "brewery_type": "micro",
    "street": "5718 Rainier Ave S",
    "city": "Seattle",
    "state": "Washington",
    "postal_code": "98118-2704",
    "website_url": "http://www.nwpeaksbrewery.com",
    "phone": "2067252337",
    "created_at": "2018-07-24 01:34:31.625971",
    "updated_at": "2018-08-24 16:37:30.036295",
    "country": "United States",
    "longitude": "-122.277436437754",
    "latitude": "47.5509916925813",
    "tags": []
  },
  {
    "id": "schooner-exact-brewing-co",
    "name": "Schooner Exact Brewing Co",
    "brewery_type": "micro",
    "street": "3901 1st Ave S",
    "city": "Seattle",
    "state": "Washington",
    "postal_code": "98134-2236",
    "website_url": "",
    "phone": "2064329734",
    "created_at": "2018-07-24 01:34:32.683607",
    "updated_at": "2018-08-24 16:39:07.161258",
    "country": "United States",
    "longitude": "-122.3354879",
    "latitude": "47.5678008",
    "tags": []
  },
  {
    "id": "elysian-brewing-co-tangletown",
    "name": "Elysian Brewing Co -Tangletown",
    "brewery_type": "large",
    "street": "2106 N 55th St",
    "city": "Seattle",
    "state": "Washington",
    "postal_code": "98103-6202",
    "website_url": "",
    "phone": "2065475929",
    "created_at": "2018-07-24 01:34:29.493688",
    "updated_at": "2018-08-24 16:34:25.309384",
    "country": "United States",
    "longitude": "-122.333474",
    "latitude": "47.6687837",
    "tags": []
  },
  {
    "id": "magnuson-cafe-and-brewery",
    "name": "Magnuson Cafe and Brewery",
    "brewery_type": "planning",
    "street": "",
    "city": "Seattle",
    "state": "Washington",
    "postal_code": "98115",
    "website_url": "",
    "phone": "",
    "created_at": "2018-07-24 01:34:30.991677",
    "updated_at": "2018-08-11 21:40:19.790037",
    "country": "United States",
    "longitude": "",
    "latitude": "",
    "tags": []
  },
  {
    "id": "bad-jimmys-brewing-co",
    "name": "Bad Jimmy's Brewing Co",
    "brewery_type": "micro",
    "street": "4358B Leary Way NW",
    "city": "Seattle",
    "state": "Washington",
    "postal_code": "98107-4554",
    "website_url": "http://www.badjimmysbrewingco.com",
    "phone": "2067891548",
    "created_at": "2018-07-24 01:34:27.979721",
    "updated_at": "2018-08-11 21:40:11.848748",
    "country": "United States",
    "longitude": "",
    "latitude": "",
    "tags": []
  },
  {
    "id": "bainbridge-island-brewing",
    "name": "Bainbridge Island Brewing",
    "brewery_type": "micro",
    "street": "9415 Coppertop Loop NE Ste 104",
    "city": "Seattle",
    "state": "Washington",
    "postal_code": "98110-3339",
    "website_url": "http://www.bainbridgebeer.com",
    "phone": "2064514646",
    "created_at": "2018-07-24 01:34:28.029023",
    "updated_at": "2018-08-11 21:40:11.946188",
    "country": "United States",
    "longitude": "",
    "latitude": "",
    "tags": []
  },
  {
    "id": "brewery-in-planning-seattle",
    "name": "Brewery in Planning - Seattle",
    "brewery_type": "planning",
    "street": "",
    "city": "Seattle",
    "state": "Washington",
    "postal_code": "98199-2747",
    "website_url": "",
    "phone": "",
    "created_at": "2018-07-24 01:34:28.559416",
    "updated_at": "2018-08-11 21:40:13.000954",
    "country": "United States",
    "longitude": "",
    "latitude": "",
    "tags": []
  },
  {
    "id": "brewery-in-planning-seattle",
    "name": "Brewery In Planning - Seattle",
    "brewery_type": "planning",
    "street": "",
    "city": "Seattle",
    "state": "Washington",
    "postal_code": "98115-3330",
    "website_url": "",
    "phone": "2062871710",
    "created_at": "2018-07-24 01:34:28.578042",
    "updated_at": "2018-08-11 21:40:13.03446",
    "country": "United States",
    "longitude": "",
    "latitude": "",
    "tags": []
  },
  {
    "id": "belltown-brewery",
    "name": "Belltown Brewery",
    "brewery_type": "brewpub",
    "street": "200 Bell St",
    "city": "Seattle",
    "state": "Washington",
    "postal_code": "98121-1716",
    "website_url": "http://www.belltownbrewingseattle.com",
    "phone": "2064857233",
    "created_at": "2018-07-24 01:34:28.158356",
    "updated_at": "2018-08-24 16:32:46.257584",
    "country": "United States",
    "longitude": "-122.3456669",
    "latitude": "47.6142953",
    "tags": []
  },
  {
    "id": "big-time-brewery",
    "name": "Big Time Brewery",
    "brewery_type": "brewpub",
    "street": "4133 University Way NE",
    "city": "Seattle",
    "state": "Washington",
    "postal_code": "98105-6213",
    "website_url": "http://www.bigtimebrewery.com",
    "phone": "2065454509",
    "created_at": "2018-07-24 01:34:28.290025",
    "updated_at": "2018-08-24 16:32:56.057169",
    "country": "United States",
    "longitude": "-122.313575948865",
    "latitude": "47.65785225",
    "tags": []
  },
  {
    "id": "bluebird-microcreamery-and-brewery",
    "name": "Bluebird Microcreamery and Brewery",
    "brewery_type": "micro",
    "street": "7400 Greenwood Ave N",
    "city": "Seattle",
    "state": "Washington",
    "postal_code": "98103-5044",
    "website_url": "http://www.bluebirdbrewing.com",
    "phone": "2066598154",
    "created_at": "2018-07-24 01:34:28.409276",
    "updated_at": "2018-08-24 16:33:05.363614",
    "country": "United States",
    "longitude": "-122.355108",
    "latitude": "47.6826657",
    "tags": []
  },
  {
    "id": "burke-gilman-brewing",
    "name": "Burke-Gilman Brewing",
    "brewery_type": "planning",
    "street": "",
    "city": "Seattle",
    "state": "Washington",
    "postal_code": "98105-5652",
    "website_url": "http://www.burkegilmanbrewing.com/",
    "phone": "2066121439",
    "created_at": "2018-07-24 01:34:28.73967",
    "updated_at": "2018-08-11 21:40:13.385893",
    "country": "United States",
    "longitude": "",
    "latitude": "",
    "tags": []
  },
  {
    "id": "counterbalance-brewing-company",
    "name": "Counterbalance Brewing Company",
    "brewery_type": "micro",
    "street": "503 S Michigan St Ste B",
    "city": "Seattle",
    "state": "Washington",
    "postal_code": "98108-3305",
    "website_url": "http://www.counterbalancebeer.com",
    "phone": "2064533615",
    "created_at": "2018-07-24 01:34:28.984561",
    "updated_at": "2018-08-11 21:40:14.004358",
    "country": "United States",
    "longitude": "",
    "latitude": "",
    "tags": []
  },
  {
    "id": "crooked-label-brewing-company",
    "name": "Crooked Label Brewing Company",
    "brewery_type": "planning",
    "street": "",
    "city": "Seattle",
    "state": "Washington",
    "postal_code": "98125-6454",
    "website_url": "",
    "phone": "2062931956",
    "created_at": "2018-07-24 01:34:29.023526",
    "updated_at": "2018-08-11 21:40:14.079665",
    "country": "United States",
    "longitude": "",
    "latitude": "",
    "tags": []
  },
  {
    "id": "dirty-couch-brewing",
    "name": "Dirty Couch Brewing",
    "brewery_type": "micro",
    "street": "",
    "city": "Seattle",
    "state": "Washington",
    "postal_code": "98107",
    "website_url": "http://www.dirtycouchbrewing.com",
    "phone": "2063696614",
    "created_at": "2018-07-24 01:34:29.161501",
    "updated_at": "2018-08-11 21:40:14.524994",
    "country": "United States",
    "longitude": "",
    "latitude": "",
    "tags": []
  },
  {
    "id": "burdick-brewery",
    "name": "Burdick Brewery",
    "brewery_type": "proprietor",
    "street": "8520 14th Ave S",
    "city": "Seattle",
    "state": "Washington",
    "postal_code": "98108-4803",
    "website_url": "http://www.burdickbrewery.com",
    "phone": "2069099632",
    "created_at": "2018-07-24 01:34:28.719895",
    "updated_at": "2018-08-24 16:33:17.49075",
    "country": "United States",
    "longitude": "-122.3145617",
    "latitude": "47.5267286",
    "tags": []
  },
  {
    "id": "cloudburst-brewing",
    "name": "Cloudburst Brewing",
    "brewery_type": "micro",
    "street": "2116 Western Ave",
    "city": "Seattle",
    "state": "Washington",
    "postal_code": "98121-2110",
    "website_url": "http://www.cloudburstbrew.com",
    "phone": "2066026061",
    "created_at": "2018-07-24 01:34:28.9308",
    "updated_at": "2018-08-24 16:33:34.739529",
    "country": "United States",
    "longitude": "-122.3452717",
    "latitude": "47.6116138",
    "tags": []
  },
  {
    "id": "elysian-brewing-co-elysian-fields",
    "name": "Elysian Brewing Co - Elysian Fields",
    "brewery_type": "large",
    "street": "542 1st Ave S Ste B",
    "city": "Seattle",
    "state": "Washington",
    "postal_code": "98104-2882",
    "website_url": "http://www.elysianbrewing.com",
    "phone": "2063824498",
    "created_at": "2018-07-24 01:34:29.48002",
    "updated_at": "2018-08-11 21:40:15.459025",
    "country": "United States",
    "longitude": "",
    "latitude": "",
    "tags": []
  },
  {
    "id": "fair-isle-brewing",
    "name": "Fair Isle Brewing",
    "brewery_type": "planning",
    "street": "",
    "city": "Seattle",
    "state": "Washington",
    "postal_code": "98199-1121",
    "website_url": "http://www.fairislebrewing.com",
    "phone": "2066041317",
    "created_at": "2018-07-24 01:34:29.586196",
    "updated_at": "2018-08-11 21:40:15.666874",
    "country": "United States",
    "longitude": "",
    "latitude": "",
    "tags": []
  },
  {
    "id": "figurehead-brewing-company",
    "name": "Figurehead Brewing Company",
    "brewery_type": "micro",
    "street": "4001 21st Ave W Unit B",
    "city": "Seattle",
    "state": "Washington",
    "postal_code": "98199-1201",
    "website_url": "http://www.figureheadbrewingcompany.com",
    "phone": "2064927981",
    "created_at": "2018-07-24 01:34:29.653756",
    "updated_at": "2018-08-11 21:40:15.840274",
    "country": "United States",
    "longitude": "",
    "latitude": "",
    "tags": []
  },
  {
    "id": "floodland-brewing",
    "name": "Floodland Brewing",
    "brewery_type": "micro",
    "street": "3806 Woodland Park Ave North Suite 100",
    "city": "Seattle",
    "state": "Washington",
    "postal_code": "98103",
    "website_url": "http://www.floodlandbrewing.com",
    "phone": "2064862854",
    "created_at": "2018-07-24 01:34:29.75106",
    "updated_at": "2018-08-11 21:40:16.083087",
    "country": "United States",
    "longitude": "",
    "latitude": "",
    "tags": []
  },
  {
    "id": "future-primitive-brewing-company",
    "name": "Future Primitive Brewing Company",
    "brewery_type": "planning",
    "street": "",
    "city": "Seattle",
    "state": "Washington",
    "postal_code": "98106-2816",
    "website_url": "http://www.unifiedbrewing.com",
    "phone": "2068192241",
    "created_at": "2018-07-24 01:34:29.956552",
    "updated_at": "2018-08-11 21:40:16.873702",
    "country": "United States",
    "longitude": "",
    "latitude": "",
    "tags": []
  },
  {
    "id": "elliott-bay-brewery-and-pub-west-seattle",
    "name": "Elliott Bay Brewery and Pub - West Seattle",
    "brewery_type": "brewpub",
    "street": "4720 California Ave SW",
    "city": "Seattle",
    "state": "Washington",
    "postal_code": "98116-4413",
    "website_url": "http://www.elliottbaybrewing.com",
    "phone": "2069328695",
    "created_at": "2018-07-24 01:34:29.412359",
    "updated_at": "2018-08-24 16:34:16.052384",
    "country": "United States",
    "longitude": "-122.3865765",
    "latitude": "47.5604072",
    "tags": []
  },
  {
    "id": "elliott-bay-public-house-and-brewery-lake-city",
    "name": "Elliott Bay Public House & Brewery - Lake City",
    "brewery_type": "brewpub",
    "street": "12537 Lake City Way NE",
    "city": "Seattle",
    "state": "Washington",
    "postal_code": "98125-4424",
    "website_url": "http://www.elliottbaybrewing.com",
    "phone": "2063652337",
    "created_at": "2018-07-24 01:34:29.437969",
    "updated_at": "2018-08-24 16:34:19.177617",
    "country": "United States",
    "longitude": "-122.2948936",
    "latitude": "47.7203026",
    "tags": []
  },
  {
    "id": "elysian-brewing-co",
    "name": "Elysian Brewing Co",
    "brewery_type": "large",
    "street": "5510 Airport Way S",
    "city": "Seattle",
    "state": "Washington",
    "postal_code": "98108-2255",
    "website_url": "http://www.elysianbrewing.com",
    "phone": "2068601920",
    "created_at": "2018-07-24 01:34:29.45215",
    "updated_at": "2018-08-24 16:34:20.691599",
    "country": "United States",
    "longitude": "-122.3205871",
    "latitude": "47.5533243",
    "tags": []
  },
  {
    "id": "elysian-brewing-co",
    "name": "Elysian Brewing Co",
    "brewery_type": "large",
    "street": "1221 E Pike St",
    "city": "Seattle",
    "state": "Washington",
    "postal_code": "98122-3910",
    "website_url": "http://www.elysianbrewing.com",
    "phone": "2068601920",
    "created_at": "2018-07-24 01:34:29.4656",
    "updated_at": "2018-08-24 16:34:22.193437",
    "country": "United States",
    "longitude": "-122.3157647",
    "latitude": "47.6139598",
    "tags": []
  },
  {
    "id": "floating-bridge-brewing",
    "name": "Floating Bridge Brewing",
    "brewery_type": "micro",
    "street": "722 NE 45th St",
    "city": "Seattle",
    "state": "Washington",
    "postal_code": "98105-4719",
    "website_url": "http://www.floatingbridgebrewing.com",
    "phone": "2064664784",
    "created_at": "2018-07-24 01:34:29.737723",
    "updated_at": "2018-08-24 16:34:44.945173",
    "country": "United States",
    "longitude": "-122.319801733641",
    "latitude": "47.6615295",
    "tags": []
  },
  {
    "id": "flying-bike-cooperative-brewery",
    "name": "Flying Bike Cooperative Brewery",
    "brewery_type": "micro",
    "street": "8570 Greenwood Ave N",
    "city": "Seattle",
    "state": "Washington",
    "postal_code": "98103-3614",
    "website_url": "http://www.flyingbike.coop",
    "phone": "2064287709",
    "created_at": "2018-07-24 01:34:29.791267",
    "updated_at": "2018-08-24 16:34:51.311875",
    "country": "United States",
    "longitude": "-122.3550721",
    "latitude": "47.6920561",
    "tags": []
  },
  {
    "id": "flying-lion-brewing",
    "name": "Flying Lion Brewing",
    "brewery_type": "micro",
    "street": "5041 Rainier Ave S Ste 106",
    "city": "Seattle",
    "state": "Washington",
    "postal_code": "98118-1946",
    "website_url": "http://www.flyinglionbrewing.com",
    "phone": "2066599912",
    "created_at": "2018-07-24 01:34:29.804227",
    "updated_at": "2018-08-24 16:34:52.988604",
    "country": "United States",
    "longitude": "-122.2840136",
    "latitude": "47.5560348",
    "tags": []
  },
  {
    "id": "fremont-brewing-co",
    "name": "Fremont Brewing Co",
    "brewery_type": "regional",
    "street": "3409 Woodland Park Ave N",
    "city": "Seattle",
    "state": "Washington",
    "postal_code": "98103-8925",
    "website_url": "http://www.fremontbrewing.com",
    "phone": "2064202407",
    "created_at": "2018-07-24 01:34:29.928127",
    "updated_at": "2018-08-24 16:35:05.351671",
    "country": "United States",
    "longitude": "-122.3444367",
    "latitude": "47.64919175",
    "tags": []
  },
  {
    "id": "georgetown-brewing-co",
    "name": "Georgetown Brewing Co",
    "brewery_type": "regional",
    "street": "5200 Denver Ave S",
    "city": "Seattle",
    "state": "Washington",
    "postal_code": "98108-2246",
    "website_url": "http://www.georgetownbeer.com",
    "phone": "2067668055",
    "created_at": "2018-07-24 01:34:30.065255",
    "updated_at": "2018-08-24 16:35:14.951804",
    "country": "United States",
    "longitude": "-122.3256809",
    "latitude": "47.5552618",
    "tags": []
  },
  {
    "id": "ghostfish-brewing-company",
    "name": "Ghostfish Brewing Company",
    "brewery_type": "micro",
    "street": "2942 1st Ave S",
    "city": "Seattle",
    "state": "Washington",
    "postal_code": "98134-1820",
    "website_url": "http://www.ghostfishbrewing.com",
    "phone": "2532494650",
    "created_at": "2018-07-24 01:34:30.096992",
    "updated_at": "2018-08-24 16:35:18.036049",
    "country": "United States",
    "longitude": "-122.3338908",
    "latitude": "47.5763508",
    "tags": []
  },
  {
    "id": "gordon-biersch-brewery-restaurant-seattle",
    "name": "Gordon Biersch Brewery Restaurant - Seattle",
    "brewery_type": "brewpub",
    "street": "600 Pine St Ste 401",
    "city": "Seattle",
    "state": "Washington",
    "postal_code": "98101-3709",
    "website_url": "http://www.craftworksrestaurants.com",
    "phone": "2064054205",
    "created_at": "2018-07-24 01:34:30.146775",
    "updated_at": "2018-08-11 21:40:17.213987",
    "country": "United States",
    "longitude": "",
    "latitude": "",
    "tags": []
  },
  {
    "id": "jellyfish-brewing-company",
    "name": "Jellyfish Brewing Company",
    "brewery_type": "micro",
    "street": "",
    "city": "Seattle",
    "state": "Washington",
    "postal_code": "98108-2747",
    "website_url": "http://www.jellyfishbrewing.com",
    "phone": "2063974999",
    "created_at": "2018-07-24 01:34:30.581784",
    "updated_at": "2018-08-11 21:40:18.387137",
    "country": "United States",
    "longitude": "",
    "latitude": "",
    "tags": []
  },
  {
    "id": "ladd-and-lass-brewing",
    "name": "Ladd & Lass Brewing",
    "brewery_type": "planning",
    "street": "",
    "city": "Seattle",
    "state": "Washington",
    "postal_code": "98122",
    "website_url": "http://www.laddandlassbrewing.com",
    "phone": "",
    "created_at": "2018-07-24 01:34:30.698416",
    "updated_at": "2018-08-11 21:40:18.662533",
    "country": "United States",
    "longitude": "",
    "latitude": "",
    "tags": []
  },
  {
    "id": "hales-ales-brewery-and-pub",
    "name": "Hale's Ales Brewery and Pub",
    "brewery_type": "micro",
    "street": "4301 Leary Way NW",
    "city": "Seattle",
    "state": "Washington",
    "postal_code": "98107-4538",
    "website_url": "http://www.halesbrewery.com",
    "phone": "2069632118",
    "created_at": "2018-07-24 01:34:30.236617",
    "updated_at": "2018-08-24 16:35:30.409596",
    "country": "United States",
    "longitude": "-122.36559094051",
    "latitude": "47.6592451",
    "tags": []
  },
  {
    "id": "holy-mountain-brewing-co",
    "name": "Holy Mountain Brewing Co",
    "brewery_type": "micro",
    "street": "1421 Elliott Ave W",
    "city": "Seattle",
    "state": "Washington",
    "postal_code": "98119-3104",
    "website_url": "http://holymountainbrewing.com",
    "phone": "2064988435",
    "created_at": "2018-07-24 01:34:30.397238",
    "updated_at": "2018-08-24 16:35:45.468086",
    "country": "United States",
    "longitude": "-122.3745615",
    "latitude": "47.6308277",
    "tags": []
  },
  {
    "id": "lantern-brewing",
    "name": "Lantern Brewing",
    "brewery_type": "micro",
    "street": "938 N 95th St",
    "city": "Seattle",
    "state": "Washington",
    "postal_code": "98103-3206",
    "website_url": "http://www.lanternbrewing.com",
    "phone": "2067295350",
    "created_at": "2018-07-24 01:34:30.771171",
    "updated_at": "2018-08-24 16:36:15.323155",
    "country": "United States",
    "longitude": "-122.3455994",
    "latitude": "47.6980806",
    "tags": []
  },
  {
    "id": "maritime-pacific-brewing-co",
    "name": "Maritime Pacific Brewing Co",
    "brewery_type": "micro",
    "street": "1111 NW Ballard Way",
    "city": "Seattle",
    "state": "Washington",
    "postal_code": "98107-4639",
    "website_url": "http://www.maritimebrewery.com",
    "phone": "2067826181",
    "created_at": "2018-07-24 01:34:31.019321",
    "updated_at": "2018-08-11 21:40:19.917074",
    "country": "United States",
    "longitude": "",
    "latitude": "",
    "tags": []
  },
  {
    "id": "lucky-envelope-brewing",
    "name": "Lucky Envelope Brewing",
    "brewery_type": "micro",
    "street": "907 NW 50th St",
    "city": "Seattle",
    "state": "Washington",
    "postal_code": "98107-3635",
    "website_url": "http://www.luckyenvelopebrewing.com",
    "phone": "2062890425",
    "created_at": "2018-07-24 01:34:30.921681",
    "updated_at": "2018-08-24 16:36:28.967898",
    "country": "United States",
    "longitude": "-122.3691135",
    "latitude": "47.6648583",
    "tags": []
  },
  {
    "id": "machine-house-brewery",
    "name": "Machine House Brewery",
    "brewery_type": "micro",
    "street": "5840 Airport Way S Ste 121",
    "city": "Seattle",
    "state": "Washington",
    "postal_code": "98108-2751",
    "website_url": "http://MachineHousebrewery.com",
    "phone": "2064026025",
    "created_at": "2018-07-24 01:34:30.966117",
    "updated_at": "2018-08-24 16:36:33.511986",
    "country": "United States",
    "longitude": "-122.3171301",
    "latitude": "47.5502618",
    "tags": []
  },
  {
    "id": "mcmenamins-queen-anne-brewery",
    "name": "McMenamins Queen Anne Brewery",
    "brewery_type": "micro",
    "street": "200 Roy St Ste 105",
    "city": "Seattle",
    "state": "Washington",
    "postal_code": "98109-4110",
    "website_url": "http://www.mcmenamins.com",
    "phone": "2062854722",
    "created_at": "2018-07-24 01:34:31.135014",
    "updated_at": "2018-08-24 16:36:47.024741",
    "country": "United States",
    "longitude": "-122.3520571",
    "latitude": "47.6255427",
    "tags": []
  },
  {
    "id": "mollusk-brewing",
    "name": "Mollusk Brewing",
    "brewery_type": "brewpub",
    "street": "803 Dexter Ave N",
    "city": "Seattle",
    "state": "Washington",
    "postal_code": "98109-4320",
    "website_url": "http://www.molluskseattle.com",
    "phone": "2064031228",
    "created_at": "2018-07-24 01:34:31.31769",
    "updated_at": "2018-08-24 16:37:03.529606",
    "country": "United States",
    "longitude": "-122.3425442",
    "latitude": "47.6269357",
    "tags": []
  },
  {
    "id": "naked-city-brewing-co",
    "name": "Naked City Brewing Co",
    "brewery_type": "brewpub",
    "street": "8564 Greenwood Ave N",
    "city": "Seattle",
    "state": "Washington",
    "postal_code": "98103-3614",
    "website_url": "http://www.nakedcitybrewing.com",
    "phone": "2068386299",
    "created_at": "2018-07-24 01:34:31.391212",
    "updated_at": "2018-08-24 16:37:11.160219",
    "country": "United States",
    "longitude": "-122.3550832",
    "latitude": "47.6918221",
    "tags": []
  },
  {
    "id": "old-stove-brewing-company",
    "name": "Old Stove Brewing Company",
    "brewery_type": "brewpub",
    "street": "1916 Pike Pl Ste 12 # 420",
    "city": "Seattle",
    "state": "Washington",
    "postal_code": "98101-1056",
    "website_url": "http://www.oldstove.com",
    "phone": "2066602682",
    "created_at": "2018-07-24 01:34:31.774213",
    "updated_at": "2018-08-11 21:40:22.804151",
    "country": "United States",
    "longitude": "",
    "latitude": "",
    "tags": []
  },
  {
    "id": "optimism-brewing-company",
    "name": "Optimism Brewing Company",
    "brewery_type": "micro",
    "street": "1158 Broadway",
    "city": "Seattle",
    "state": "Washington",
    "postal_code": "98122-3822",
    "website_url": "http://www.optimismbrewing.com",
    "phone": "2062289227",
    "created_at": "2018-07-24 01:34:31.801941",
    "updated_at": "2018-08-11 21:40:22.865475",
    "country": "United States",
    "longitude": "",
    "latitude": "",
    "tags": []
  },
  {
    "id": "obec-brewing",
    "name": "Obec Brewing",
    "brewery_type": "micro",
    "street": "1144 NW 52nd St",
    "city": "Seattle",
    "state": "Washington",
    "postal_code": "98107-5129",
    "website_url": "http://www.obecbrewing.com",
    "phone": "2066590082",
    "created_at": "2018-07-24 01:34:31.667826",
    "updated_at": "2018-08-24 16:37:33.54754",
    "country": "United States",
    "longitude": "-122.3725178",
    "latitude": "47.6666586",
    "tags": []
  },
  {
    "id": "outer-planet-craft-brewing",
    "name": "Outer Planet Craft Brewing",
    "brewery_type": "micro",
    "street": "1812 12th Ave",
    "city": "Seattle",
    "state": "Washington",
    "postal_code": "98122-8420",
    "website_url": "http://www.outerplanetbrewing.com",
    "phone": "2067637000",
    "created_at": "2018-07-24 01:34:31.846575",
    "updated_at": "2018-08-24 16:37:48.78085",
    "country": "United States",
    "longitude": "-122.3167381",
    "latitude": "47.6180009",
    "tags": []
  },
  {
    "id": "outlander-brewery-and-pub",
    "name": "Outlander Brewery & Pub",
    "brewery_type": "brewpub",
    "street": "225 N 36th St",
    "city": "Seattle",
    "state": "Washington",
    "postal_code": "98103-8610",
    "website_url": "http://www.outlanderbrewing.com",
    "phone": "2064864088",
    "created_at": "2018-07-24 01:34:31.862557",
    "updated_at": "2018-08-24 16:37:50.298469",
    "country": "United States",
    "longitude": "-122.3555596",
    "latitude": "47.6523014",
    "tags": []
  },
  {
    "id": "peddler-brewing",
    "name": "Peddler Brewing",
    "brewery_type": "micro",
    "street": "1514 NW Leary Way",
    "city": "Seattle",
    "state": "Washington",
    "postal_code": "98107-4739",
    "website_url": "http://www.peddlerbrewing.com",
    "phone": "3603620002",
    "created_at": "2018-07-24 01:34:31.982437",
    "updated_at": "2018-08-24 16:37:59.230653",
    "country": "United States",
    "longitude": "-122.37703",
    "latitude": "47.6638679",
    "tags": []
  },
  {
    "id": "perihelion-brewery",
    "name": "Perihelion Brewery",
    "brewery_type": "brewpub",
    "street": "2800 16th Ave S",
    "city": "Seattle",
    "state": "Washington",
    "postal_code": "98144-5732",
    "website_url": "",
    "phone": "2062003935",
    "created_at": "2018-07-24 01:34:31.996982",
    "updated_at": "2018-08-24 16:38:00.735724",
    "country": "United States",
    "longitude": "-122.3118193",
    "latitude": "47.5784432",
    "tags": []
  },
  {
    "id": "pike-brewing-co",
    "name": "Pike Brewing Co",
    "brewery_type": "micro",
    "street": "1415 1st Ave",
    "city": "Seattle",
    "state": "Washington",
    "postal_code": "98101-2017",
    "website_url": "http://www.pikebrewing.com",
    "phone": "2066223373",
    "created_at": "2018-07-24 01:34:32.061812",
    "updated_at": "2018-08-24 16:38:03.807521",
    "country": "United States",
    "longitude": "-122.3397179",
    "latitude": "47.6082151",
    "tags": []
  },
  {
    "id": "populuxe-brewing",
    "name": "Populuxe Brewing",
    "brewery_type": "micro",
    "street": "826 NW 49th St",
    "city": "Seattle",
    "state": "Washington",
    "postal_code": "98107-3614",
    "website_url": "http://www.populuxebrewing.com",
    "phone": "2067063400",
    "created_at": "2018-07-24 01:34:32.074805",
    "updated_at": "2018-08-24 16:38:05.29729",
    "country": "United States",
    "longitude": "-122.3680288",
    "latitude": "47.6645382",
    "tags": []
  },
  {
    "id": "ram-restaurant-and-brewery-northgate",
    "name": "RAM Restaurant and Brewery- Northgate",
    "brewery_type": "brewpub",
    "street": "401 NE Northgate Way Spc 1102",
    "city": "Seattle",
    "state": "Washington",
    "postal_code": "98125-8538",
    "website_url": "http://www.theram.com",
    "phone": "2063648000",
    "created_at": "2018-07-24 01:34:32.306359",
    "updated_at": "2018-08-11 21:40:24.467583",
    "country": "United States",
    "longitude": "",
    "latitude": "",
    "tags": []
  },
  {
    "id": "ram-restaurant-and-brewery-seattle",
    "name": "RAM Restaurant and Brewery - Seattle",
    "brewery_type": "brewpub",
    "street": "2650 NE University Village St",
    "city": "Seattle",
    "state": "Washington",
    "postal_code": "98105-5023",
    "website_url": "http://www.theram.com",
    "phone": "2065253565",
    "created_at": "2018-07-24 01:34:32.271978",
    "updated_at": "2018-08-24 16:38:26.38359",
    "country": "United States",
    "longitude": "-122.2980609",
    "latitude": "47.6641459",
    "tags": []
  },
  {
    "id": "ravenna-brewing-company",
    "name": "Ravenna Brewing Company",
    "brewery_type": "micro",
    "street": "5408 26th Ave NE",
    "city": "Seattle",
    "state": "Washington",
    "postal_code": "98105-3137",
    "website_url": "http://www.ravennabrewing.com",
    "phone": "2067438450",
    "created_at": "2018-07-24 01:34:32.33906",
    "updated_at": "2018-08-24 16:38:32.485991",
    "country": "United States",
    "longitude": "-122.299162006348",
    "latitude": "47.6682272",
    "tags": []
  },
  {
    "id": "redhook-brewery",
    "name": "Redhook Brewery",
    "brewery_type": "regional",
    "street": "714 E Pike St",
    "city": "Seattle",
    "state": "Washington",
    "postal_code": "98122-4697",
    "website_url": "http://www.redhook.com",
    "phone": "4254833232",
    "created_at": "2018-07-24 01:34:32.354326",
    "updated_at": "2018-08-24 16:38:34.000359",
    "country": "United States",
    "longitude": "-122.3227119",
    "latitude": "47.6144468",
    "tags": []
  },
  {
    "id": "reubens-brews",
    "name": "Reuben's Brews",
    "brewery_type": "micro",
    "street": "1133 NW 51st St",
    "city": "Seattle",
    "state": "Washington",
    "postal_code": "98107-5126",
    "website_url": "http://www.reubensbrews.com",
    "phone": "2067842859",
    "created_at": "2018-07-24 01:34:32.41606",
    "updated_at": "2018-08-24 16:38:38.492838",
    "country": "United States",
    "longitude": "-122.3721641",
    "latitude": "47.6655088",
    "tags": []
  },
  {
    "id": "reubens-brews-taproom",
    "name": "Reuben's Brews Taproom",
    "brewery_type": "micro",
    "street": "5010 14th Ave NW",
    "city": "Seattle",
    "state": "Washington",
    "postal_code": "98107-5113",
    "website_url": "http://www.reubensbrews.com",
    "phone": "2067842859",
    "created_at": "2018-07-24 01:34:32.429157",
    "updated_at": "2018-08-24 16:38:39.980628",
    "country": "United States",
    "longitude": "-122.3732468",
    "latitude": "47.6654087",
    "tags": []
  },
  {
    "id": "rooftop-brewing-co",
    "name": "Rooftop Brewing Co",
    "brewery_type": "micro",
    "street": "1220 W Nickerson St",
    "city": "Seattle",
    "state": "Washington",
    "postal_code": "98119-1325",
    "website_url": "http://www.rooftopbrewco.com",
    "phone": "2064578598",
    "created_at": "2018-07-24 01:34:32.590366",
    "updated_at": "2018-08-24 16:38:56.569012",
    "country": "United States",
    "longitude": "-122.3732188",
    "latitude": "47.6557532",
    "tags": []
  },
  {
    "id": "seapine-brewing-company",
    "name": "Seapine Brewing Company",
    "brewery_type": "micro",
    "street": "2959 Utah Ave S",
    "city": "Seattle",
    "state": "Washington",
    "postal_code": "98134-1815",
    "website_url": "http://www.seapinebrewing.com",
    "phone": "5309028110",
    "created_at": "2018-07-24 01:34:32.72204",
    "updated_at": "2018-08-24 16:39:11.590153",
    "country": "United States",
    "longitude": "-122.335500297762",
    "latitude": "47.5760786",
    "tags": []
  },
  {
    "id": "standard-brewing",
    "name": "Standard Brewing",
    "brewery_type": "brewpub",
    "street": "2504 S Jackson St Ste C",
    "city": "Seattle",
    "state": "Washington",
    "postal_code": "98144-2382",
    "website_url": "http://www.standardbrew.com",
    "phone": "2065351584",
    "created_at": "2018-07-24 01:34:32.995394",
    "updated_at": "2018-08-11 21:40:26.224797",
    "country": "United States",
    "longitude": "",
    "latitude": "",
    "tags": []
  },
  {
    "id": "the-good-society",
    "name": "The Good Society",
    "brewery_type": "planning",
    "street": "",
    "city": "Seattle",
    "state": "Washington",
    "postal_code": "98136-2652",
    "website_url": "",
    "phone": "",
    "created_at": "2018-07-24 01:34:33.207429",
    "updated_at": "2018-08-11 21:40:26.683148",
    "country": "United States",
    "longitude": "",
    "latitude": "",
    "tags": []
  },
  {
    "id": "tin-dog-brewing",
    "name": "Tin Dog Brewing",
    "brewery_type": "micro",
    "street": "309 S Cloverdale St Ste A2",
    "city": "Seattle",
    "state": "Washington",
    "postal_code": "98108-4500",
    "website_url": "http://www.tindogbrewing.com",
    "phone": "2064384257",
    "created_at": "2018-07-24 01:34:33.314864",
    "updated_at": "2018-08-11 21:40:26.985008",
    "country": "United States",
    "longitude": "",
    "latitude": "",
    "tags": []
  },
  {
    "id": "stoup-brewing",
    "name": "Stoup Brewing",
    "brewery_type": "micro",
    "street": "1108 NW 52nd St",
    "city": "Seattle",
    "state": "Washington",
    "postal_code": "98107-5129",
    "website_url": "http://www.stoupbrewing.com",
    "phone": "2064575524",
    "created_at": "2018-07-24 01:34:33.061449",
    "updated_at": "2018-08-24 16:39:46.431337",
    "country": "United States",
    "longitude": "-122.3711883",
    "latitude": "47.6666399",
    "tags": []
  },
  {
    "id": "triple-r-brewing",
    "name": "Triple R Brewing",
    "brewery_type": "micro",
    "street": "916 NE 64th Street",
    "city": "Seattle",
    "state": "Washington",
    "postal_code": "98115",
    "website_url": "http://triplerbrewery.com",
    "phone": "2065793370",
    "created_at": "2018-07-24 01:34:33.385394",
    "updated_at": "2018-08-24 16:40:16.587696",
    "country": "United States",
    "longitude": "-122.3178868",
    "latitude": "47.6752147",
    "tags": []
  },
  {
    "id": "urban-family-brewing",
    "name": "Urban Family Brewing",
    "brewery_type": "micro",
    "street": "4441 26th Ave W",
    "city": "Seattle",
    "state": "Washington",
    "postal_code": "98199-1218",
    "website_url": "http://www.urbanfamilybrewing.com",
    "phone": "2069468533",
    "created_at": "2018-07-24 01:34:33.515735",
    "updated_at": "2018-08-24 16:40:24.635466",
    "country": "United States",
    "longitude": "-122.3902975",
    "latitude": "47.6605861",
    "tags": []
  },
  {
    "id": "west-seattle-brewing-co",
    "name": "West Seattle Brewing Co",
    "brewery_type": "micro",
    "street": "4415 Fauntleroy Way SW",
    "city": "Seattle",
    "state": "Washington",
    "postal_code": "98126-2631",
    "website_url": "http://www.westseattlebrewing.com",
    "phone": "2064050972",
    "created_at": "2018-07-24 01:34:33.749196",
    "updated_at": "2018-08-24 16:40:47.419014",
    "country": "United States",
    "longitude": "-122.3776296",
    "latitude": "47.5643605",
    "tags": []
  },
  {
    "id": "lowercase-brewing-production-facility",
    "name": "Lowercase Brewing - Production Facility",
    "brewery_type": "brewpub",
    "street": "8103 8th Ave S",
    "city": "Seattle",
    "state": "Washington",
    "postal_code": "98108-4377",
    "website_url": "http://www.lowercasebrewing.com",
    "phone": "2062584987",
    "created_at": "2018-07-24 01:34:30.908685",
    "updated_at": "2018-08-24 16:36:27.489304",
    "country": "United States",
    "longitude": "-122.323155761054",
    "latitude": "47.53034",
    "tags": []
  },
  {
    "id": "the-best-of-hands-barrelhouse",
    "name": "The Best Of Hands Barrelhouse",
    "brewery_type": "planning",
    "street": "",
    "city": "Seattle",
    "state": "Washington",
    "postal_code": "98126-3228",
    "website_url": "http://www.bestofhandsbarrelhouse.com",
    "phone": "2063352739",
    "created_at": "2018-07-24 01:34:33.181877",
    "updated_at": "2018-08-11 21:40:26.657432",
    "country": "United States",
    "longitude": "",
    "latitude": "",
    "tags": []
  },
  {
    "id": "pyramid-breweries-/-north-american-breweries",
    "name": "Pyramid Breweries / North American Breweries",
    "brewery_type": "brewpub",
    "street": "1201 1st Ave S",
    "city": "Seattle",
    "state": "Washington",
    "postal_code": "98134-1238",
    "website_url": "http://www.pyramidbrew.com",
    "phone": "2066823377",
    "created_at": "2018-07-24 01:34:32.149406",
    "updated_at": "2018-08-24 16:38:12.872754",
    "country": "United States",
    "longitude": "-122.33477",
    "latitude": "47.5920086",
    "tags": []
  }
]