[
  {
    "id": "lost-canoe-brewing-co",
    "name": "Lost Canoe Brewing Co",
    "brewery_type": "micro",
    "street": "1208 10th St",
    "city": "Snohomish",
    "state": "Washington",
    "postal_code": "98290-2099",
    "website_url": "http://www.facebook.com/lostcanoebrew/",
    "phone": "3605683984",
    "created_at": "2018-07-24 01:34:30.86923",
    "updated_at": "2018-08-24 16:36:24.408582",
    "country": "United States",
    "longitude": "-122.096621963598",
    "latitude": "47.9241141959796",
    "tags": []
  },
  {
    "id": "scrappy-punk-brewing",
    "name": "Scrappy Punk Brewing",
    "brewery_type": "micro",
    "street": "9029A 112th Dr SE",
    "city": "Snohomish",
    "state": "Washington",
    "postal_code": "98290-",
    "website_url": "http://www.facebook.com/scrappypunkbrew",
    "phone": "5038101655",
    "created_at": "2018-07-24 01:34:32.696051",
    "updated_at": "2018-08-24 16:39:08.635845",
    "country": "United States",
    "longitude": "-122.080104887189",
    "latitude": "47.9136556714666",
    "tags": []
  },
  {
    "id": "snotown-brewery",
    "name": "SnoTown Brewery",
    "brewery_type": "micro",
    "street": "511 2nd St",
    "city": "Snohomish",
    "state": "Washington",
    "postal_code": "98290-3009",
    "website_url": "http://www.facebook.com/SnoTownBrewery/",
    "phone": "4252318113",
    "created_at": "2018-07-24 01:34:32.914345",
    "updated_at": "2018-08-24 16:39:31.054857",
    "country": "United States",
    "longitude": "-122.088761",
    "latitude": "47.912652",
    "tags": []
  },
  {
    "id": "sound-to-summit",
    "name": "Sound To Summit",
    "brewery_type": "brewpub",
    "street": "1830 Bickford Ave Ste 111",
    "city": "Snohomish",
    "state": "Washington",
    "postal_code": "98290-1751",
    "website_url": "http://www.sound2summit.com",
    "phone": "3602948127",
    "created_at": "2018-07-24 01:34:32.942316",
    "updated_at": "2018-08-24 16:39:34.104046",
    "country": "United States",
    "longitude": "-122.102392660754",
    "latitude": "47.9330785850761",
    "tags": []
  },
  {
    "id": "haywire-brewing-company",
    "name": "Haywire Brewing Company",
    "brewery_type": "micro",
    "street": "12125 Treosti Rd",
    "city": "Snohomish",
    "state": "Washington",
    "postal_code": "98290-6918",
    "website_url": "http://www.haywirebrewery.com",
    "phone": "3605682739",
    "created_at": "2018-07-24 01:34:30.277433",
    "updated_at": "2018-08-24 16:35:34.948808",
    "country": "United States",
    "longitude": "-122.0812498",
    "latitude": "47.8860915",
    "tags": []
  },
  {
    "id": "spada-farmhouse-brewery",
    "name": "Spada Farmhouse Brewery",
    "brewery_type": "micro",
    "street": "",
    "city": "Snohomish",
    "state": "Washington",
    "postal_code": "98290-6125",
    "website_url": "http://www.spadafarmhousebrewery.com",
    "phone": "4253306938",
    "created_at": "2018-07-24 01:34:32.956044",
    "updated_at": "2018-08-11 21:40:26.134561",
    "country": "United States",
    "longitude": "",
    "latitude": "",
    "tags": []
  },
  {
    "id": "three-bull-brewing-co",
    "name": "Three Bull Brewing Co",
    "brewery_type": "micro",
    "street": "809 19th St",
    "city": "Snohomish",
    "state": "Washington",
    "postal_code": "98290-1444",
    "website_url": "http://www.threebullbrewing.com",
    "phone": "2065505244",
    "created_at": "2018-07-24 01:34:33.275146",
    "updated_at": "2018-08-24 16:40:04.539734",
    "country": "United States",
    "longitude": "-122.091708591728",
    "latitude": "47.934747456747",
    "tags": []
  }
]