[
  {
    "id": "perry-street-brewing-co",
    "name": "Perry Street Brewing Co.",
    "brewery_type": "micro",
    "street": "1025 S Perry St # 2",
    "city": "Spokane",
    "state": "Washington",
    "postal_code": "99202-3464",
    "website_url": "http://www.perrystreetbrewing.com",
    "phone": "5092792820",
    "created_at": "2018-07-24 01:34:32.047406",
    "updated_at": "2018-08-24 16:38:02.362869",
    "country": "United States",
    "longitude": "-117.389802164913",
    "latitude": "47.6460507290258",
    "tags": []
  },
  {
    "id": "english-setter-brewing-company",
    "name": "English Setter Brewing Company",
    "brewery_type": "brewpub",
    "street": "15310 E Marietta Ave Ste 4",
    "city": "Spokane",
    "state": "Washington",
    "postal_code": "99216-1876",
    "website_url": "http://www.englishsetterbrewing.com",
    "phone": "5094133663",
    "created_at": "2018-07-24 01:34:29.526818",
    "updated_at": "2018-08-11 21:40:15.554046",
    "country": "United States",
    "longitude": "",
    "latitude": "",
    "tags": []
  },
  {
    "id": "brewery-in-planning-spokane",
    "name": "Brewery In Planning - Spokane",
    "brewery_type": "planning",
    "street": "",
    "city": "Spokane",
    "state": "Washington",
    "postal_code": "99208",
    "website_url": "",
    "phone": "",
    "created_at": "2018-07-24 01:34:28.605069",
    "updated_at": "2018-08-11 21:40:13.101654",
    "country": "United States",
    "longitude": "",
    "latitude": "",
    "tags": []
  },
  {
    "id": "bellwether-brewing-co",
    "name": "Bellwether Brewing Co",
    "brewery_type": "micro",
    "street": "2019 N Monroe St",
    "city": "Spokane",
    "state": "Washington",
    "postal_code": "99205-4542",
    "website_url": "http://www.bellwetherbrewing.net",
    "phone": "5092808345",
    "created_at": "2018-07-24 01:34:28.175049",
    "updated_at": "2018-08-24 16:32:47.934657",
    "country": "United States",
    "longitude": "-117.426549729628",
    "latitude": "47.6764557446378",
    "tags": []
  },
  {
    "id": "benniditos-brewpub",
    "name": "Bennidito's Brewpub",
    "brewery_type": "brewpub",
    "street": "1909 E Sprague Ave",
    "city": "Spokane",
    "state": "Washington",
    "postal_code": "99202-3120",
    "website_url": "http://www.benniditosbrewpub.com",
    "phone": "5092905018",
    "created_at": "2018-07-24 01:34:28.192769",
    "updated_at": "2018-08-24 16:32:49.571554",
    "country": "United States",
    "longitude": "-117.2178526",
    "latitude": "47.6571208",
    "tags": []
  },
  {
    "id": "four-eyed-guys-brewing",
    "name": "Four Eyed Guys Brewing",
    "brewery_type": "micro",
    "street": "Audobon",
    "city": "Spokane",
    "state": "Washington",
    "postal_code": "99205",
    "website_url": "http://foureyedguysbrewing.com",
    "phone": "5097959648",
    "created_at": "2018-07-24 01:34:29.875184",
    "updated_at": "2018-08-11 21:40:16.602456",
    "country": "United States",
    "longitude": "",
    "latitude": "",
    "tags": []
  },
  {
    "id": "hopped-up-brewing-company",
    "name": "Hopped Up Brewing Company",
    "brewery_type": "micro",
    "street": "10421 E Sprague Ave",
    "city": "Spokane",
    "state": "Washington",
    "postal_code": "99206-3629",
    "website_url": "http://www.hoppedupbrew.com",
    "phone": "5094132488",
    "created_at": "2018-07-24 01:34:30.43582",
    "updated_at": "2018-08-24 16:35:48.567944",
    "country": "United States",
    "longitude": "-117.2178526",
    "latitude": "47.6571208",
    "tags": []
  },
  {
    "id": "iron-goat-brewing",
    "name": "Iron Goat Brewing",
    "brewery_type": "brewpub",
    "street": "1302 W 2nd Ave",
    "city": "Spokane",
    "state": "Washington",
    "postal_code": "99201-4616",
    "website_url": "http://www.irongoatbrewing.com",
    "phone": "5094740722",
    "created_at": "2018-07-24 01:34:30.530245",
    "updated_at": "2018-08-24 16:35:59.057474",
    "country": "United States",
    "longitude": "-117.43128255014",
    "latitude": "47.6545287766289",
    "tags": []
  },
  {
    "id": "little-spokane-brewing-company",
    "name": "Little Spokane Brewing Company",
    "brewery_type": "micro",
    "street": "154 S Madison St Ste 101",
    "city": "Spokane",
    "state": "Washington",
    "postal_code": "99201-4542",
    "website_url": "http://www.littlespokanebrewingco.com",
    "phone": "",
    "created_at": "2018-07-24 01:34:30.815509",
    "updated_at": "2018-08-11 21:40:19.145308",
    "country": "United States",
    "longitude": "",
    "latitude": "",
    "tags": []
  },
  {
    "id": "mountain-lakes-brewing-company",
    "name": "Mountain Lakes Brewing Company",
    "brewery_type": "micro",
    "street": "164 S Washington St Ste 700",
    "city": "Spokane",
    "state": "Washington",
    "postal_code": "99201-4349",
    "website_url": "http://www.MountainLakesBrewCo.com",
    "phone": "5033481733",
    "created_at": "2018-07-24 01:34:31.330604",
    "updated_at": "2018-08-11 21:40:21.246747",
    "country": "United States",
    "longitude": "",
    "latitude": "",
    "tags": []
  },
  {
    "id": "no-li-brewhouse",
    "name": "No-Li Brewhouse",
    "brewery_type": "micro",
    "street": "1003 E Trent Ave Ste 170",
    "city": "Spokane",
    "state": "Washington",
    "postal_code": "99202-2185",
    "website_url": "http://www.nolibrewhouse.com",
    "phone": "5093154061",
    "created_at": "2018-07-24 01:34:31.472722",
    "updated_at": "2018-08-11 21:40:21.853209",
    "country": "United States",
    "longitude": "",
    "latitude": "",
    "tags": []
  },
  {
    "id": "millwood-brewing-company",
    "name": "Millwood Brewing Company",
    "brewery_type": "micro",
    "street": "9013 E Frederick Ave",
    "city": "Spokane",
    "state": "Washington",
    "postal_code": "99212-2108",
    "website_url": "http://www.millwoodbrewery.com",
    "phone": "5093689538",
    "created_at": "2018-07-24 01:34:31.291382",
    "updated_at": "2018-08-24 16:37:00.535919",
    "country": "United States",
    "longitude": "-117.283754999094",
    "latitude": "47.6854110818881",
    "tags": []
  },
  {
    "id": "river-city-brewing",
    "name": "River City Brewing",
    "brewery_type": "micro",
    "street": "121 S Cedar St",
    "city": "Spokane",
    "state": "Washington",
    "postal_code": "99201-6500",
    "website_url": "http://www.rivercitybrew.com",
    "phone": "9043982299",
    "created_at": "2018-07-24 01:34:32.444786",
    "updated_at": "2018-08-24 16:38:41.588643",
    "country": "United States",
    "longitude": "-117.432350833333",
    "latitude": "47.6560530833333",
    "tags": []
  },
  {
    "id": "steam-plant-grill",
    "name": "Steam Plant Grill",
    "brewery_type": "brewpub",
    "street": "159 S Lincoln St Ste 1",
    "city": "Spokane",
    "state": "Washington",
    "postal_code": "99201-4409",
    "website_url": "http://www.steamplantspokane.com",
    "phone": "5097773900",
    "created_at": "2018-07-24 01:34:33.021807",
    "updated_at": "2018-08-11 21:40:26.292353",
    "country": "United States",
    "longitude": "",
    "latitude": "",
    "tags": []
  },
  {
    "id": "twelve-string-brewing-co",
    "name": "Twelve String Brewing Co",
    "brewery_type": "micro",
    "street": "11616 E Montgomery Dr Ste 26",
    "city": "Spokane",
    "state": "Washington",
    "postal_code": "99206-6608",
    "website_url": "http://www.twelvestringbrewingco.com",
    "phone": "5092413697",
    "created_at": "2018-07-24 01:34:33.458821",
    "updated_at": "2018-08-11 21:40:27.336535",
    "country": "United States",
    "longitude": "",
    "latitude": "",
    "tags": []
  },
  {
    "id": "square-wheel-brewing-co",
    "name": "Square Wheel Brewing Co",
    "brewery_type": "micro",
    "street": "4705 N Fruit Hill Rd",
    "city": "Spokane",
    "state": "Washington",
    "postal_code": "99217-9619",
    "website_url": "http://www.squarewheelbrewing.com",
    "phone": "5099942600",
    "created_at": "2018-07-24 01:34:32.968337",
    "updated_at": "2018-08-24 16:39:35.607721",
    "country": "United States",
    "longitude": "-117.253810663422",
    "latitude": "47.6980049576216",
    "tags": []
  },
  {
    "id": "the-grain-shed",
    "name": "The Grain Shed",
    "brewery_type": "brewpub",
    "street": "1026 E Newark Ave",
    "city": "Spokane",
    "state": "Washington",
    "postal_code": "99202",
    "website_url": "http://www.thegrainshed.coop",
    "phone": "5092413853",
    "created_at": "2018-07-24 01:34:33.221221",
    "updated_at": "2018-08-24 16:39:58.35324",
    "country": "United States",
    "longitude": "-117.394823591837",
    "latitude": "47.6492778163265",
    "tags": []
  },
  {
    "id": "tts-old-iron-brewery",
    "name": "TTs Old Iron Brewery",
    "brewery_type": "micro",
    "street": "154 S Madison St",
    "city": "Spokane",
    "state": "Washington",
    "postal_code": "99201-4542",
    "website_url": "http://www.ttsoldironbrewery.com",
    "phone": "",
    "created_at": "2018-07-24 01:34:33.443645",
    "updated_at": "2018-08-24 16:40:21.09758",
    "country": "United States",
    "longitude": "-117.428165144901",
    "latitude": "47.655247998136",
    "tags": []
  },
  {
    "id": "waddells-brewing-co",
    "name": "Waddell's Brewing Co.",
    "brewery_type": "brewpub",
    "street": "6501 N Cedar Rd Ste 1",
    "city": "Spokane",
    "state": "Washington",
    "postal_code": "99208-4571",
    "website_url": "http://www.waddellsbrewery.com",
    "phone": "5093217818",
    "created_at": "2018-07-24 01:34:33.642551",
    "updated_at": "2018-08-11 21:40:27.714196",
    "country": "United States",
    "longitude": "",
    "latitude": "",
    "tags": []
  },
  {
    "id": "whistle-punk-brewing-company",
    "name": "Whistle Punk Brewing Company",
    "brewery_type": "micro",
    "street": "122 S Monroe St",
    "city": "Spokane",
    "state": "Washington",
    "postal_code": "99201-4007",
    "website_url": "http://www.whistlepunkbrewing.com",
    "phone": "5093154465",
    "created_at": "2018-07-24 01:34:33.806316",
    "updated_at": "2018-08-24 16:40:53.649834",
    "country": "United States",
    "longitude": "-117.4267386",
    "latitude": "47.6564232",
    "tags": []
  },
  {
    "id": "young-buck-brewing",
    "name": "Young Buck Brewing",
    "brewery_type": "micro",
    "street": "154 S Madison St",
    "city": "Spokane",
    "state": "Washington",
    "postal_code": "99201-4542",
    "website_url": "http://www.youngbuckbrewing.com",
    "phone": "5092703306",
    "created_at": "2018-07-24 01:34:33.926422",
    "updated_at": "2018-08-24 16:41:05.889403",
    "country": "United States",
    "longitude": "-117.428165144901",
    "latitude": "47.655247998136",
    "tags": []
  },
  {
    "id": "black-label-brewing-company",
    "name": "Black Label Brewing Company",
    "brewery_type": "micro",
    "street": "19 W Main Ave",
    "city": "Spokane",
    "state": "Washington",
    "postal_code": "99201-5124",
    "website_url": "http://www.blacklabelbrewing.com",
    "phone": "5098227436",
    "created_at": "2018-07-24 01:34:28.335532",
    "updated_at": "2018-08-24 16:32:59.123483",
    "country": "United States",
    "longitude": "-117.411458727273",
    "latitude": "47.6590031818182",
    "tags": []
  },
  {
    "id": "v-twin-brewing-company",
    "name": "V Twin Brewing Company",
    "brewery_type": "micro",
    "street": "2302 N Argonne Rd Ste H",
    "city": "Spokane",
    "state": "Washington",
    "postal_code": "99212-2366",
    "website_url": "http://www.facebook.com/vtwinbrewingco",
    "phone": "5098680182",
    "created_at": "2018-07-24 01:34:33.530844",
    "updated_at": "2018-08-11 21:40:27.462408",
    "country": "United States",
    "longitude": "",
    "latitude": "",
    "tags": []
  }
]