[
  {
    "id": "dystopian-state-brewing",
    "name": "Dystopian State Brewing",
    "brewery_type": "micro",
    "street": "611 S Baker St",
    "city": "Tacoma",
    "state": "Washington",
    "postal_code": "98402-2318",
    "website_url": "http://www.dystopianstate.com",
    "phone": "2533023466",
    "created_at": "2018-07-24 01:34:29.341429",
    "updated_at": "2018-08-24 16:34:11.036513",
    "country": "United States",
    "longitude": "-122.443306593961",
    "latitude": "47.2583606145584",
    "tags": []
  },
  {
    "id": "7-seas-brewing-co",
    "name": "7 Seas Brewing Co",
    "brewery_type": "micro",
    "street": "2101 Jefferson Ave",
    "city": "Tacoma",
    "state": "Washington",
    "postal_code": "98402-1519",
    "website_url": "http://www.7seasbrewing.com",
    "phone": "2535727771",
    "created_at": "2018-07-24 01:34:27.766843",
    "updated_at": "2018-08-24 16:32:07.102297",
    "country": "United States",
    "longitude": "-122.4390379",
    "latitude": "47.242614",
    "tags": []
  },
  {
    "id": "black-fleet-brewing",
    "name": "Black Fleet Brewing",
    "brewery_type": "planning",
    "street": "",
    "city": "Tacoma",
    "state": "Washington",
    "postal_code": "98402-1402",
    "website_url": "http://www.blackfleetbrewing.com",
    "phone": "",
    "created_at": "2018-07-24 01:34:28.320028",
    "updated_at": "2018-08-11 21:40:12.574171",
    "country": "United States",
    "longitude": "",
    "latitude": "",
    "tags": []
  },
  {
    "id": "dunagan-brewing-co",
    "name": "Dunagan Brewing Co",
    "brewery_type": "micro",
    "street": "1126 Commerce St",
    "city": "Tacoma",
    "state": "Washington",
    "postal_code": "98402-4307",
    "website_url": "http://www.dunaganbrewing.com",
    "phone": "",
    "created_at": "2018-07-24 01:34:29.300916",
    "updated_at": "2018-08-24 16:34:06.336307",
    "country": "United States",
    "longitude": "-122.439424636364",
    "latitude": "47.2529245353535",
    "tags": []
  },
  {
    "id": "gig-harbor-brewing",
    "name": "Gig Harbor Brewing",
    "brewery_type": "micro",
    "street": "3120 South Tacoma Way",
    "city": "Tacoma",
    "state": "Washington",
    "postal_code": "98409-4717",
    "website_url": "http://www.gigharborbrewing.com",
    "phone": "",
    "created_at": "2018-07-24 01:34:30.111894",
    "updated_at": "2018-08-24 16:35:19.847782",
    "country": "United States",
    "longitude": "-122.477272122449",
    "latitude": "47.2280589591837",
    "tags": []
  },
  {
    "id": "north-47-brewing-co",
    "name": "North 47 Brewing Co",
    "brewery_type": "micro",
    "street": "1000 Town Ctr NE Ste 160",
    "city": "Tacoma",
    "state": "Washington",
    "postal_code": "98422-1197",
    "website_url": "http://www.north47brewery.com",
    "phone": "2535179865",
    "created_at": "2018-07-24 01:34:31.485691",
    "updated_at": "2018-08-11 21:40:21.913333",
    "country": "United States",
    "longitude": "",
    "latitude": "",
    "tags": []
  },
  {
    "id": "mirage-beer-co",
    "name": "Mirage Beer Co.",
    "brewery_type": "proprietor",
    "street": "4109 N 37th St",
    "city": "Tacoma",
    "state": "Washington",
    "postal_code": "98407-5610",
    "website_url": "http://miragebeer.com",
    "phone": "2532256654",
    "created_at": "2018-07-24 01:34:31.304713",
    "updated_at": "2018-08-24 16:37:02.059858",
    "country": "United States",
    "longitude": "-122.491468333333",
    "latitude": "47.2815166666667",
    "tags": []
  },
  {
    "id": "narrows-brewing-company",
    "name": "Narrows Brewing Company",
    "brewery_type": "micro",
    "street": "9007 S 19th St",
    "city": "Tacoma",
    "state": "Washington",
    "postal_code": "98466-1819",
    "website_url": "http://www.narrowsbrewing.com",
    "phone": "2533271400",
    "created_at": "2018-07-24 01:34:31.417105",
    "updated_at": "2018-08-24 16:37:12.82387",
    "country": "United States",
    "longitude": "-122.5022378",
    "latitude": "47.2428871",
    "tags": []
  },
  {
    "id": "northish-beer-company",
    "name": "Northish Beer Company",
    "brewery_type": "micro",
    "street": "",
    "city": "Tacoma",
    "state": "Washington",
    "postal_code": "98444",
    "website_url": "http://www.northishbeer.com",
    "phone": "2537786106",
    "created_at": "2018-07-24 01:34:31.57247",
    "updated_at": "2018-08-11 21:40:22.187663",
    "country": "United States",
    "longitude": "",
    "latitude": "",
    "tags": []
  },
  {
    "id": "odd-otter-brewing-company",
    "name": "Odd Otter Brewing Company",
    "brewery_type": "micro",
    "street": "716 Pacific Ave",
    "city": "Tacoma",
    "state": "Washington",
    "postal_code": "98402-5208",
    "website_url": "http://www.oddotterbrewing.com",
    "phone": "2532794871",
    "created_at": "2018-07-24 01:34:31.682907",
    "updated_at": "2018-08-24 16:37:35.127607",
    "country": "United States",
    "longitude": "-122.437927",
    "latitude": "47.250289",
    "tags": []
  },
  {
    "id": "ram-restaurant-and-brewery-production",
    "name": "RAM Restaurant and Brewery - Production",
    "brewery_type": "micro",
    "street": "5001 S Washington St",
    "city": "Tacoma",
    "state": "Washington",
    "postal_code": "98409-2828",
    "website_url": "http://www.theram.com",
    "phone": "2534747465",
    "created_at": "2018-07-24 01:34:32.23822",
    "updated_at": "2018-08-24 16:38:23.41794",
    "country": "United States",
    "longitude": "-122.48489",
    "latitude": "47.211482",
    "tags": []
  },
  {
    "id": "ram-restaurant-and-brewery-tacoma",
    "name": "RAM Restaurant and Brewery - Tacoma",
    "brewery_type": "brewpub",
    "street": "3001 Ruston Way",
    "city": "Tacoma",
    "state": "Washington",
    "postal_code": "98402-5306",
    "website_url": "http://www.theram.com",
    "phone": "2537567886",
    "created_at": "2018-07-24 01:34:32.290583",
    "updated_at": "2018-08-24 16:38:27.868191",
    "country": "United States",
    "longitude": "-122.474793030554",
    "latitude": "47.2797382",
    "tags": []
  },
  {
    "id": "rock-wood-fired-pizza-and-brewery-tacoma",
    "name": "Rock Wood Fired Pizza and Brewery - Tacoma",
    "brewery_type": "contract",
    "street": "1920 Jefferson Ave",
    "city": "Tacoma",
    "state": "Washington",
    "postal_code": "98402-1608",
    "website_url": "http://www.therockwfp.com",
    "phone": "2532721221",
    "created_at": "2018-07-24 01:34:32.549407",
    "updated_at": "2018-08-24 16:38:52.091671",
    "country": "United States",
    "longitude": "-122.439285342045",
    "latitude": "47.24409495",
    "tags": []
  },
  {
    "id": "sluggo-brewing",
    "name": "Sluggo Brewing",
    "brewery_type": "micro",
    "street": "2712 6th Ave",
    "city": "Tacoma",
    "state": "Washington",
    "postal_code": "98406-7213",
    "website_url": "http://www.halfpintpizzapub.com",
    "phone": "2533271894",
    "created_at": "2018-07-24 01:34:32.86189",
    "updated_at": "2018-08-24 16:39:26.571993",
    "country": "United States",
    "longitude": "-122.472174",
    "latitude": "47.2553127",
    "tags": []
  },
  {
    "id": "tacoma-brewing-co",
    "name": "Tacoma Brewing Co.",
    "brewery_type": "micro",
    "street": "1116 Court E",
    "city": "Tacoma",
    "state": "Washington",
    "postal_code": "98402",
    "website_url": "http://www.tacomabrewing.com",
    "phone": "2532423370",
    "created_at": "2018-07-24 01:34:33.114742",
    "updated_at": "2018-08-24 16:39:52.36972",
    "country": "United States",
    "longitude": "-122.443739818182",
    "latitude": "47.2525614141414",
    "tags": []
  },
  {
    "id": "wingman-brewers",
    "name": "Wingman Brewers",
    "brewery_type": "micro",
    "street": "509 1/2 Puyallup Ave",
    "city": "Tacoma",
    "state": "Washington",
    "postal_code": "98421-1318",
    "website_url": "http://www.wingmanbrewers.com",
    "phone": "2532565240",
    "created_at": "2018-07-24 01:34:33.874733",
    "updated_at": "2018-08-24 16:41:01.359558",
    "country": "United States",
    "longitude": "-122.42911328",
    "latitude": "47.24075878",
    "tags": []
  },
  {
    "id": "engine-house-no-9",
    "name": "Engine House No 9",
    "brewery_type": "brewpub",
    "street": "611 N Pine St",
    "city": "Tacoma",
    "state": "Washington",
    "postal_code": "98406-6729",
    "website_url": "http://www.ehouse9.com",
    "phone": "2532723435",
    "created_at": "2018-07-24 01:34:29.506463",
    "updated_at": "2018-08-24 16:34:26.974857",
    "country": "United States",
    "longitude": "-122.47352625",
    "latitude": "47.25642875",
    "tags": []
  },
  {
    "id": "harmon-brewing-company",
    "name": "Harmon Brewing Company",
    "brewery_type": "micro",
    "street": "204 St Helens Ave",
    "city": "Tacoma",
    "state": "Washington",
    "postal_code": "98402-2522",
    "website_url": "http://www.harmonbrewingco.com",
    "phone": "253212725",
    "created_at": "2018-07-24 01:34:30.26469",
    "updated_at": "2018-08-24 16:35:33.465229",
    "country": "United States",
    "longitude": "-122.445780424242",
    "latitude": "47.2620935555556",
    "tags": []
  },
  {
    "id": "pacific-brewing-and-malting",
    "name": "Pacific Brewing and Malting",
    "brewery_type": "micro",
    "street": "610 Pacific Ave",
    "city": "Tacoma",
    "state": "Washington",
    "postal_code": "98402-4606",
    "website_url": "http://www.pacificbrewingandmalting.com",
    "phone": "2533832337",
    "created_at": "2018-07-24 01:34:31.882091",
    "updated_at": "2018-08-24 16:37:51.769155",
    "country": "United States",
    "longitude": "-122.437927",
    "latitude": "47.250289",
    "tags": []
  }
]