[
  {
    "id": "brothers-cascadia-brewing",
    "name": "Brothers Cascadia Brewing",
    "brewery_type": "micro",
    "street": "9811 NE 15th Ave",
    "city": "Vancouver",
    "state": "Washington",
    "postal_code": "98665-9102",
    "website_url": "http://www.brotherscascadiabrewing.com",
    "phone": "3607188927",
    "created_at": "2018-07-24 01:34:28.676961",
    "updated_at": "2018-08-24 16:33:14.450068",
    "country": "United States",
    "longitude": "-122.6553318",
    "latitude": "45.6499058",
    "tags": []
  },
  {
    "id": "loowit-brewing",
    "name": "Loowit Brewing",
    "brewery_type": "micro",
    "street": "507 Columbia St",
    "city": "Vancouver",
    "state": "Washington",
    "postal_code": "98660-3194",
    "website_url": "http://www.loowitbrewing.com",
    "phone": "3605662323",
    "created_at": "2018-07-24 01:34:30.829672",
    "updated_at": "2018-08-24 16:36:21.311885",
    "country": "United States",
    "longitude": "-122.6734331",
    "latitude": "45.6251071",
    "tags": []
  },
  {
    "id": "the-heavy-metal-brewing-co",
    "name": "The Heavy Metal Brewing Co.",
    "brewery_type": "brewpub",
    "street": "809 Macarthur Blvd",
    "city": "Vancouver",
    "state": "Washington",
    "postal_code": "98661-7013",
    "website_url": "http://www.theheavymetalbrewingco.com",
    "phone": "3602581691",
    "created_at": "2018-07-24 01:34:33.233675",
    "updated_at": "2018-08-24 16:39:59.918859",
    "country": "United States",
    "longitude": "-122.6171177",
    "latitude": "45.6275368",
    "tags": []
  },
  {
    "id": "beerded-brothers-brewing",
    "name": "Beerded Brothers Brewing",
    "brewery_type": "micro",
    "street": "106 W 6th St",
    "city": "Vancouver",
    "state": "Washington",
    "postal_code": "98660",
    "website_url": "http://www.beerdedbrothers.net",
    "phone": "3606065806",
    "created_at": "2018-07-24 01:34:28.127072",
    "updated_at": "2018-08-24 16:32:43.162284",
    "country": "United States",
    "longitude": "-122.671891061604",
    "latitude": "45.6257680186597",
    "tags": []
  },
  {
    "id": "fortside-brewing-company",
    "name": "Fortside Brewing Company",
    "brewery_type": "micro",
    "street": "2200 NE Andresen Rd Ste B",
    "city": "Vancouver",
    "state": "Washington",
    "postal_code": "98661-7350",
    "website_url": "http://www.fortsidebrewing.com",
    "phone": "3605244692",
    "created_at": "2018-07-24 01:34:29.847647",
    "updated_at": "2018-08-11 21:40:16.508466",
    "country": "United States",
    "longitude": "",
    "latitude": "",
    "tags": []
  },
  {
    "id": "ghost-runners-brewery",
    "name": "Ghost Runners Brewery",
    "brewery_type": "micro",
    "street": "4216 NE Minnehaha St # 108",
    "city": "Vancouver",
    "state": "Washington",
    "postal_code": "98661-1244",
    "website_url": "",
    "phone": "",
    "created_at": "2018-07-24 01:34:30.082126",
    "updated_at": "2018-08-24 16:35:16.513565",
    "country": "United States",
    "longitude": "-122.639599",
    "latitude": "45.6678127",
    "tags": []
  },
  {
    "id": "hopworks-urban-brewery-vancouver",
    "name": "Hopworks Urban Brewery - Vancouver",
    "brewery_type": "micro",
    "street": "17707 SE Mill Plain Blvd",
    "city": "Vancouver",
    "state": "Washington",
    "postal_code": "98683-7578",
    "website_url": "",
    "phone": "5032324677",
    "created_at": "2018-07-24 01:34:30.448957",
    "updated_at": "2018-08-24 16:35:50.147868",
    "country": "United States",
    "longitude": "-122.5483264",
    "latitude": "45.6202601",
    "tags": []
  },
  {
    "id": "mcmenamins-east-vancouver-brewery",
    "name": "McMenamins East Vancouver Brewery",
    "brewery_type": "micro",
    "street": "1900B NE 162nd Ave Ste B107",
    "city": "Vancouver",
    "state": "Washington",
    "postal_code": "98684-3013",
    "website_url": "http://www.mcmenamins.com",
    "phone": "3606959033",
    "created_at": "2018-07-24 01:34:31.06822",
    "updated_at": "2018-08-11 21:40:20.258127",
    "country": "United States",
    "longitude": "",
    "latitude": "",
    "tags": []
  },
  {
    "id": "mcmenamins-on-the-columbia-brewery",
    "name": "McMenamins On the Columbia Brewery",
    "brewery_type": "brewpub",
    "street": "1801 SE Columbia River Dr",
    "city": "Vancouver",
    "state": "Washington",
    "postal_code": "98661-8030",
    "website_url": "http://www.mcmenamins.com",
    "phone": "3606691521",
    "created_at": "2018-07-24 01:34:31.117386",
    "updated_at": "2018-08-24 16:36:45.509425",
    "country": "United States",
    "longitude": "-122.65296645",
    "latitude": "45.61508455",
    "tags": []
  },
  {
    "id": "northwest-passage-craft-brewery",
    "name": "Northwest Passage Craft Brewery",
    "brewery_type": "micro",
    "street": "",
    "city": "Vancouver",
    "state": "Washington",
    "postal_code": "98661",
    "website_url": "",
    "phone": "3605212417",
    "created_at": "2018-07-24 01:34:31.612271",
    "updated_at": "2018-08-11 21:40:22.322947",
    "country": "United States",
    "longitude": "",
    "latitude": "",
    "tags": []
  },
  {
    "id": "old-ivy-brewery-and-taproom",
    "name": "Old Ivy Brewery and Taproom",
    "brewery_type": "brewpub",
    "street": "108 W Evergreen Blvd Ste A",
    "city": "Vancouver",
    "state": "Washington",
    "postal_code": "98660-3124",
    "website_url": "http://www.oldivybrewery.com",
    "phone": "3609931827",
    "created_at": "2018-07-24 01:34:31.746223",
    "updated_at": "2018-08-11 21:40:22.717423",
    "country": "United States",
    "longitude": "",
    "latitude": "",
    "tags": []
  },
  {
    "id": "railside-brewing",
    "name": "Railside Brewing",
    "brewery_type": "micro",
    "street": "309 NE 76th St",
    "city": "Vancouver",
    "state": "Washington",
    "postal_code": "98665-8210",
    "website_url": "http://www.railsidebrewing.com",
    "phone": "3609078582",
    "created_at": "2018-07-24 01:34:32.200672",
    "updated_at": "2018-08-11 21:40:24.194496",
    "country": "United States",
    "longitude": "",
    "latitude": "",
    "tags": []
  },
  {
    "id": "trap-door-brewing",
    "name": "Trap Door Brewing",
    "brewery_type": "micro",
    "street": "2315 Main St",
    "city": "Vancouver",
    "state": "Washington",
    "postal_code": "98660-2641",
    "website_url": "http://www.trapdoorbrewing.com",
    "phone": "5037582569",
    "created_at": "2018-07-24 01:34:33.355414",
    "updated_at": "2018-08-24 16:40:13.595821",
    "country": "United States",
    "longitude": "-122.671309865441",
    "latitude": "45.6390464432333",
    "tags": []
  },
  {
    "id": "trusty-brewing-co",
    "name": "Trusty Brewing Co.",
    "brewery_type": "brewpub",
    "street": "114 E Evergreen Blvd",
    "city": "Vancouver",
    "state": "Washington",
    "postal_code": "98660-3219",
    "website_url": "http://www.trustybrewing.com",
    "phone": "3602580413",
    "created_at": "2018-07-24 01:34:33.429566",
    "updated_at": "2018-08-24 16:40:19.536572",
    "country": "United States",
    "longitude": "-122.6707614",
    "latitude": "45.6289331",
    "tags": []
  },
  {
    "id": "victor-23-craft-brewery",
    "name": "Victor 23 Craft Brewery",
    "brewery_type": "brewpub",
    "street": "2905 St Johns Blvd",
    "city": "Vancouver",
    "state": "Washington",
    "postal_code": "98661-3718",
    "website_url": "http://www.Victor23.com",
    "phone": "3609845413",
    "created_at": "2018-07-24 01:34:33.629187",
    "updated_at": "2018-08-24 16:40:35.436343",
    "country": "United States",
    "longitude": "-122.6464236",
    "latitude": "45.6426306",
    "tags": []
  },
  {
    "id": "brother-ass-brewing",
    "name": "Brother Ass Brewing",
    "brewery_type": "micro",
    "street": "11700 NE 54th Ct",
    "city": "Vancouver",
    "state": "Washington",
    "postal_code": "98686-4589",
    "website_url": "http://www.brotherassbrewing.com",
    "phone": "3606073275",
    "created_at": "2018-07-24 01:34:28.662515",
    "updated_at": "2018-08-11 21:40:13.21919",
    "country": "United States",
    "longitude": "",
    "latitude": "",
    "tags": []
  },
  {
    "id": "heathen-brewing-co",
    "name": "Heathen Brewing Co.",
    "brewery_type": "brewpub",
    "street": "5612 NE 119th St",
    "city": "Vancouver",
    "state": "Washington",
    "postal_code": "98686-3475",
    "website_url": "http://www.heathenbrewing.com",
    "phone": "3606017454",
    "created_at": "2018-07-24 01:34:30.302328",
    "updated_at": "2018-08-11 21:40:17.538843",
    "country": "United States",
    "longitude": "",
    "latitude": "",
    "tags": []
  }
]