[
  {
    "id": "mill-creek-brewpub",
    "name": "Mill Creek Brewpub",
    "brewery_type": "brewpub",
    "street": "11 S Palouse St",
    "city": "Walla Walla",
    "state": "Washington",
    "postal_code": "99362-1925",
    "website_url": "http://www.millcreek-brewpub.com",
    "phone": "5095222440",
    "created_at": "2018-07-24 01:34:31.275825",
    "updated_at": "2018-08-24 16:36:58.980568",
    "country": "United States",
    "longitude": "-118.334927236137",
    "latitude": "46.0692793903828",
    "tags": []
  },
  {
    "id": "water-buffalo-brewery",
    "name": "Water Buffalo Brewery",
    "brewery_type": "micro",
    "street": "136 Russet Rd",
    "city": "Walla Walla",
    "state": "Washington",
    "postal_code": "99362-8253",
    "website_url": "http://www.waterbuffalobrewery.com",
    "phone": "5092407139",
    "created_at": "2018-07-24 01:34:33.694562",
    "updated_at": "2018-08-24 16:40:43.000998",
    "country": "United States",
    "longitude": "-118.406074773204",
    "latitude": "46.0522032720417",
    "tags": []
  },
  {
    "id": "burwood-brewing-company",
    "name": "Burwood Brewing Company",
    "brewery_type": "micro",
    "street": "1120 E St",
    "city": "Walla Walla",
    "state": "Washington",
    "postal_code": "99362-9505",
    "website_url": "http://www.burwoodbrewing.com",
    "phone": "5098766220",
    "created_at": "2018-07-24 01:34:28.753484",
    "updated_at": "2018-08-24 16:33:18.944516",
    "country": "United States",
    "longitude": "-118.2653286",
    "latitude": "46.0940928",
    "tags": []
  },
  {
    "id": "nosdunk-brewing-company",
    "name": "Nosdunk Brewing Company",
    "brewery_type": "micro",
    "street": "",
    "city": "Walla Walla",
    "state": "Washington",
    "postal_code": "99362-9311",
    "website_url": "http://www.nosdunkbrewing.com",
    "phone": "5095408784",
    "created_at": "2018-07-24 01:34:31.653352",
    "updated_at": "2018-08-11 21:40:22.471307",
    "country": "United States",
    "longitude": "",
    "latitude": "",
    "tags": []
  },
  {
    "id": "quirk-brewing",
    "name": "Quirk Brewing",
    "brewery_type": "micro",
    "street": "425 B St",
    "city": "Walla Walla",
    "state": "Washington",
    "postal_code": "99362-2265",
    "website_url": "",
    "phone": "",
    "created_at": "2018-07-24 01:34:32.174914",
    "updated_at": "2018-08-24 16:38:15.851821",
    "country": "United States",
    "longitude": "-118.2755318",
    "latitude": "46.0913886",
    "tags": []
  }
]