[
  {
    "id": "badger-mountain-brewing",
    "name": "Badger Mountain Brewing",
    "brewery_type": "micro",
    "street": "1 Orondo Ave",
    "city": "Wenatchee",
    "state": "Washington",
    "postal_code": "98801-2206",
    "website_url": "http://www.badgermountainbrewing.com",
    "phone": "5098882234",
    "created_at": "2018-07-24 01:34:28.012569",
    "updated_at": "2018-08-24 16:32:32.644547",
    "country": "United States",
    "longitude": "-120.309353",
    "latitude": "47.423747",
    "tags": []
  },
  {
    "id": "columbia-valley-brewing",
    "name": "Columbia Valley Brewing",
    "brewery_type": "micro",
    "street": "538 Riverside Dr",
    "city": "Wenatchee",
    "state": "Washington",
    "postal_code": "98801-6133",
    "website_url": "http://www.columbiavalleybrewing.com",
    "phone": "5098889993",
    "created_at": "2018-07-24 01:34:28.958243",
    "updated_at": "2018-08-24 16:33:37.719567",
    "country": "United States",
    "longitude": "-120.314027239559",
    "latitude": "47.4335301529336",
    "tags": []
  },
  {
    "id": "saddle-rock-pub-and-brewery",
    "name": "Saddle Rock Pub & Brewery",
    "brewery_type": "brewpub",
    "street": "25 N Wenatchee Ave Ste 107",
    "city": "Wenatchee",
    "state": "Washington",
    "postal_code": "98801-2201",
    "website_url": "http://www.saddlerockbrewery.com",
    "phone": "5098884790",
    "created_at": "2018-07-24 01:34:32.617659",
    "updated_at": "2018-08-11 21:40:25.285284",
    "country": "United States",
    "longitude": "",
    "latitude": "",
    "tags": []
  },
  {
    "id": "wenatchee-valley-brewing-co",
    "name": "Wenatchee Valley Brewing Co.",
    "brewery_type": "micro",
    "street": "108 Island Vw",
    "city": "Wenatchee",
    "state": "Washington",
    "postal_code": "98801-2039",
    "website_url": "http://wenatcheevalleybrewing.com/",
    "phone": "5098888088",
    "created_at": "2018-07-24 01:34:33.735813",
    "updated_at": "2018-08-11 21:40:27.982403",
    "country": "United States",
    "longitude": "",
    "latitude": "",
    "tags": []
  }
]