[
  {
    "id": "good-brewing-company",
    "name": "Good Brewing Company",
    "brewery_type": "micro",
    "street": "16104 125th Pl NE",
    "city": "Woodinville",
    "state": "Washington",
    "postal_code": "98072-7983",
    "website_url": "http://www.globalbeercompany.com",
    "phone": "4252473245",
    "created_at": "2018-07-24 01:34:30.128681",
    "updated_at": "2018-08-24 16:35:21.412631",
    "country": "United States",
    "longitude": "-122.171787667615",
    "latitude": "47.7446995850893",
    "tags": []
  },
  {
    "id": "20-corners-brewing-llc",
    "name": "20 Corners Brewing LLC",
    "brewery_type": "brewpub",
    "street": "14148 NE 190th St Ste A",
    "city": "Woodinville",
    "state": "Washington",
    "postal_code": "98072-8437",
    "website_url": "http://www.20cornersbrewing.com",
    "phone": "4253755223",
    "created_at": "2018-07-24 01:34:27.676676",
    "updated_at": "2018-08-11 21:40:11.220062",
    "country": "United States",
    "longitude": "",
    "latitude": "",
    "tags": []
  },
  {
    "id": "brouwerij-les-deplorables",
    "name": "Brouwerij Les Deplorables",
    "brewery_type": "micro",
    "street": "19812 163rd Ave NE",
    "city": "Woodinville",
    "state": "Washington",
    "postal_code": "98072-7027",
    "website_url": "",
    "phone": "2067902496",
    "created_at": "2018-07-24 01:34:28.69178",
    "updated_at": "2018-08-24 16:33:15.985173",
    "country": "United States",
    "longitude": "-122.122548457",
    "latitude": "47.7711936010918",
    "tags": []
  },
  {
    "id": "dirty-bucket-brewery",
    "name": "Dirty Bucket Brewery",
    "brewery_type": "micro",
    "street": "19151 144th Ave NE",
    "city": "Woodinville",
    "state": "Washington",
    "postal_code": "98072-4374",
    "website_url": "http://www.dirtybucketbrewery.com",
    "phone": "2068191570",
    "created_at": "2018-07-24 01:34:29.145891",
    "updated_at": "2018-08-24 16:33:51.343685",
    "country": "United States",
    "longitude": "-122.1484843",
    "latitude": "47.7661918",
    "tags": []
  },
  {
    "id": "laurelwood-public-house-and-brewery-ne",
    "name": "Laurelwood Public House and Brewery - NE",
    "brewery_type": "proprietor",
    "street": "14300 NE 145th St",
    "city": "Woodinville",
    "state": "Washington",
    "postal_code": "98072-6950",
    "website_url": "",
    "phone": "4254833232",
    "created_at": "2018-07-24 01:34:30.78464",
    "updated_at": "2018-08-24 16:36:16.855738",
    "country": "United States",
    "longitude": "-122.1460064",
    "latitude": "47.7328255",
    "tags": []
  },
  {
    "id": "lost-bear-brews",
    "name": "Lost Bear Brews",
    "brewery_type": "planning",
    "street": "",
    "city": "Woodinville",
    "state": "Washington",
    "postal_code": "98072",
    "website_url": "http://www.lostbearbrews.com",
    "phone": "2069724505",
    "created_at": "2018-07-24 01:34:30.856677",
    "updated_at": "2018-08-11 21:40:19.309556",
    "country": "United States",
    "longitude": "",
    "latitude": "",
    "tags": []
  },
  {
    "id": "metier-brewing-company",
    "name": "Metier Brewing Company",
    "brewery_type": "micro",
    "street": "14125 NE 189th St",
    "city": "Woodinville",
    "state": "Washington",
    "postal_code": "98072-6831",
    "website_url": "http://www.metierbrewing.com",
    "phone": "4254158466",
    "created_at": "2018-07-24 01:34:31.198408",
    "updated_at": "2018-08-24 16:36:53.038153",
    "country": "United States",
    "longitude": "-122.151561066024",
    "latitude": "47.764220981136",
    "tags": []
  },
  {
    "id": "northwest-brewery-works",
    "name": "Northwest Brewery Works",
    "brewery_type": "planning",
    "street": "",
    "city": "Woodinville",
    "state": "Washington",
    "postal_code": "98072-8402",
    "website_url": "http://www.northwestbreweryworks.com",
    "phone": "4257576722",
    "created_at": "2018-07-24 01:34:31.585378",
    "updated_at": "2018-08-11 21:40:22.249832",
    "country": "United States",
    "longitude": "",
    "latitude": "",
    "tags": []
  },
  {
    "id": "sumerian-brewing-company",
    "name": "Sumerian Brewing Company",
    "brewery_type": "micro",
    "street": "15510 Woodinville Redmond Rd NE Ste E110",
    "city": "Woodinville",
    "state": "Washington",
    "postal_code": "98072-6979",
    "website_url": "http://www.sumerianbrewingco.com",
    "phone": "4254865330",
    "created_at": "2018-07-24 01:34:33.088394",
    "updated_at": "2018-08-11 21:40:26.442848",
    "country": "United States",
    "longitude": "",
    "latitude": "",
    "tags": []
  },
  {
    "id": "triplehorn-brewing-co",
    "name": "Triplehorn Brewing Co",
    "brewery_type": "micro",
    "street": "19510 144th Ave NE Ste E6",
    "city": "Woodinville",
    "state": "Washington",
    "postal_code": "98072-8429",
    "website_url": "http://www.triplehornbrewing.com",
    "phone": "4252427979",
    "created_at": "2018-07-24 01:34:33.399456",
    "updated_at": "2018-08-11 21:40:27.21577",
    "country": "United States",
    "longitude": "",
    "latitude": "",
    "tags": []
  },
  {
    "id": "underground-brewing",
    "name": "Underground Brewing",
    "brewery_type": "micro",
    "street": "",
    "city": "Woodinville",
    "state": "Washington",
    "postal_code": "98072",
    "website_url": "http://www.underground-brewing.com",
    "phone": "",
    "created_at": "2018-07-24 01:34:33.502336",
    "updated_at": "2018-08-11 21:40:27.397389",
    "country": "United States",
    "longitude": "",
    "latitude": "",
    "tags": []
  },
  {
    "id": "vessel-ales-and-taphouse",
    "name": "Vessel Ales & Taphouse",
    "brewery_type": "micro",
    "street": "19405 144th Ave NE Bldg D",
    "city": "Woodinville",
    "state": "Washington",
    "postal_code": "98072-6485",
    "website_url": "http://www.vesselwines.com",
    "phone": "2066295024",
    "created_at": "2018-07-24 01:34:33.616939",
    "updated_at": "2018-08-11 21:40:27.641625",
    "country": "United States",
    "longitude": "",
    "latitude": "",
    "tags": []
  }
]