[
  {
    "id": "bale-breaker-brewing-company",
    "name": "Bale Breaker Brewing Company",
    "brewery_type": "regional",
    "street": "1801 Birchfield Rd",
    "city": "Yakima",
    "state": "Washington",
    "postal_code": "98901-9577",
    "website_url": "http://www.balebreaker.com",
    "phone": "5094244000",
    "created_at": "2018-07-24 01:34:28.043304",
    "updated_at": "2018-08-24 16:32:35.704962",
    "country": "United States",
    "longitude": "-120.435573023058",
    "latitude": "46.5768554077014",
    "tags": []
  },
  {
    "id": "valley-brewing-co",
    "name": "Valley Brewing Co",
    "brewery_type": "micro",
    "street": "3215 River Rd",
    "city": "Yakima",
    "state": "Washington",
    "postal_code": "98902-1142",
    "website_url": "http://www.valleybrewingco.com",
    "phone": "5099495944",
    "created_at": "2018-07-24 01:34:33.559248",
    "updated_at": "2018-08-24 16:40:29.188776",
    "country": "United States",
    "longitude": "-120.553068",
    "latitude": "46.618456",
    "tags": []
  },
  {
    "id": "yakima-valley-hops",
    "name": "Yakima Valley Hops",
    "brewery_type": "micro",
    "street": "702 N 1st Ave Ste D",
    "city": "Yakima",
    "state": "Washington",
    "postal_code": "98902-2121",
    "website_url": "",
    "phone": "2086494677",
    "created_at": "2018-07-24 01:34:33.91411",
    "updated_at": "2018-08-11 21:40:28.514346",
    "country": "United States",
    "longitude": "",
    "latitude": "",
    "tags": []
  },
  {
    "id": "berchmans-brewing-company",
    "name": "Berchman's Brewing Company",
    "brewery_type": "micro",
    "street": "25 N Front St Ste 2",
    "city": "Yakima",
    "state": "Washington",
    "postal_code": "98901-2648",
    "website_url": "http://berchmansbrewingcompany.com/",
    "phone": "5099521058",
    "created_at": "2018-07-24 01:34:28.22649",
    "updated_at": "2018-08-11 21:40:12.334189",
    "country": "United States",
    "longitude": "",
    "latitude": "",
    "tags": []
  },
  {
    "id": "haas-innovations-brewing-llc",
    "name": "Haas Innovations Brewing LLC",
    "brewery_type": "micro",
    "street": "1600 River Rd",
    "city": "Yakima",
    "state": "Washington",
    "postal_code": "98902-1249",
    "website_url": "",
    "phone": "",
    "created_at": "2018-07-24 01:34:30.223138",
    "updated_at": "2018-08-24 16:35:28.921867",
    "country": "United States",
    "longitude": "-120.530565",
    "latitude": "46.617844",
    "tags": []
  },
  {
    "id": "hop-nation-brewing-company",
    "name": "Hop Nation Brewing Company",
    "brewery_type": "micro",
    "street": "31 N 1st Ave",
    "city": "Yakima",
    "state": "Washington",
    "postal_code": "98902-2663",
    "website_url": "http://www.hopnation.us",
    "phone": "5099856449",
    "created_at": "2018-07-24 01:34:30.422785",
    "updated_at": "2018-08-24 16:35:46.962828",
    "country": "United States",
    "longitude": "-120.509732105128",
    "latitude": "46.6018934016323",
    "tags": []
  },
  {
    "id": "redifer-brewing-co",
    "name": "Redifer Brewing Co",
    "brewery_type": "micro",
    "street": "123 E Yakima Ave",
    "city": "Yakima",
    "state": "Washington",
    "postal_code": "98901-2696",
    "website_url": "http://www.rediferbrewing.com",
    "phone": "5094243400",
    "created_at": "2018-07-24 01:34:32.370501",
    "updated_at": "2018-08-24 16:38:35.520356",
    "country": "United States",
    "longitude": "-120.50572286356",
    "latitude": "46.6024019807137",
    "tags": []
  },
  {
    "id": "wandering-hop-brewery",
    "name": "Wandering Hop Brewery",
    "brewery_type": "micro",
    "street": "508 N 20th Ave",
    "city": "Yakima",
    "state": "Washington",
    "postal_code": "98902-1839",
    "website_url": "http://www.wanderinghop.com",
    "phone": "5099018011",
    "created_at": "2018-07-24 01:34:33.681406",
    "updated_at": "2018-08-24 16:40:41.544933",
    "country": "United States",
    "longitude": "-120.535661741211",
    "latitude": "46.6062721435261",
    "tags": []
  },
  {
    "id": "yakima-craft-brewing-co",
    "name": "Yakima Craft Brewing Co",
    "brewery_type": "micro",
    "street": "2920 River Rd Ste 6",
    "city": "Yakima",
    "state": "Washington",
    "postal_code": "98902-7332",
    "website_url": "http://www.yakimacraftbrewing.com",
    "phone": "5096547357",
    "created_at": "2018-07-24 01:34:33.901048",
    "updated_at": "2018-08-11 21:40:28.481439",
    "country": "United States",
    "longitude": "",
    "latitude": "",
    "tags": []
  },
  {
    "id": "single-hill-brewing-company",
    "name": "Single Hill Brewing Company",
    "brewery_type": "micro",
    "street": "102 N Naches Ave",
    "city": "Yakima",
    "state": "Washington",
    "postal_code": "98901-2757",
    "website_url": "http://www.singlehillbrewing.com",
    "phone": "5033511197",
    "created_at": "2018-07-24 01:34:32.778295",
    "updated_at": "2018-08-24 16:39:17.633046",
    "country": "United States",
    "longitude": "-120.500668831642",
    "latitude": "46.6050642975829",
    "tags": []
  }
]