[
  {
    "id": "beer-lab-hi",
    "name": "Beer Lab HI",
    "brewery_type": "micro",
    "street": "1010 University Ave Ste B1",
    "city": "Honolulu",
    "state": "Hawaii",
    "postal_code": "96826-1537",
    "website_url": "http://www.beerlabhi.com",
    "phone": "8088880913",
    "created_at": "2018-07-24 01:33:16.739352",
    "updated_at": "2018-08-24 00:29:40.482139",
    "country": "United States",
    "longitude": "-157.821878401556",
    "latitude": "21.2921440645306",
    "tags": []
  },
  {
    "id": "home-of-the-brave-brewing-company",
    "name": "Home of the Brave Brewing Company",
    "brewery_type": "brewpub",
    "street": "909 Waimanu St",
    "city": "Honolulu",
    "state": "Hawaii",
    "postal_code": "96814-3309",
    "website_url": "http://www.hotbbc.com",
    "phone": "8083968112",
    "created_at": "2018-07-24 01:33:16.84281",
    "updated_at": "2018-08-24 00:29:42.938923",
    "country": "United States",
    "longitude": "-157.853596637989",
    "latitude": "21.2987568898793",
    "tags": []
  },
  {
    "id": "gordon-biersch-brewery-restaurant-honolulu",
    "name": "Gordon Biersch Brewery Restaurant - Honolulu",
    "brewery_type": "brewpub",
    "street": "1 Aloha Tower Dr Ste 1123",
    "city": "Honolulu",
    "state": "Hawaii",
    "postal_code": "96813-4815",
    "website_url": "http://www.gordonbiersch.com/restaurant",
    "phone": "8085994877",
    "created_at": "2018-07-24 01:33:16.817681",
    "updated_at": "2018-08-11 21:37:04.514858",
    "country": "United States",
    "longitude": "",
    "latitude": "",
    "tags": []
  },
  {
    "id": "honolulu-beerworks",
    "name": "Honolulu BeerWorks",
    "brewery_type": "brewpub",
    "street": "328 Cooke St",
    "city": "Honolulu",
    "state": "Hawaii",
    "postal_code": "96813-5531",
    "website_url": "http://www.honolulubeerworks.com",
    "phone": "8085892337",
    "created_at": "2018-07-24 01:33:16.855501",
    "updated_at": "2018-08-24 00:29:43.508456",
    "country": "United States",
    "longitude": "-157.860634014391",
    "latitude": "21.296906034391",
    "tags": []
  },
  {
    "id": "stewbum",
    "name": "Stewbum",
    "brewery_type": "brewpub",
    "street": "96 N King St",
    "city": "Honolulu",
    "state": "Hawaii",
    "postal_code": "96817-5109",
    "website_url": "http://www.stewbumandstonewall.com",
    "phone": "8086646684",
    "created_at": "2018-07-24 01:33:16.982777",
    "updated_at": "2018-08-24 00:29:49.433349",
    "country": "United States",
    "longitude": "-157.8634762",
    "latitude": "21.3117151333333",
    "tags": []
  },
  {
    "id": "waikiki-brewing-company",
    "name": "Waikiki Brewing Company",
    "brewery_type": "brewpub",
    "street": "1945 Kalakaua Ave",
    "city": "Honolulu",
    "state": "Hawaii",
    "postal_code": "96815-1851",
    "website_url": "http://www.waikikibrewing.com",
    "phone": "",
    "created_at": "2018-07-24 01:33:17.006812",
    "updated_at": "2018-08-24 00:29:50.49679",
    "country": "United States",
    "longitude": "-157.8334964",
    "latitude": "21.2858755",
    "tags": []
  },
  {
    "id": "waikiki-brewing-company-kakaako",
    "name": "Waikiki Brewing Company, Kaka'ako",
    "brewery_type": "micro",
    "street": "831 Queen St",
    "city": "Honolulu",
    "state": "Hawaii",
    "postal_code": "96813-5203",
    "website_url": "",
    "phone": "",
    "created_at": "2018-07-24 01:33:17.018806",
    "updated_at": "2018-08-24 00:29:51.101823",
    "country": "United States",
    "longitude": "-157.8559270982",
    "latitude": "21.299644317727",
    "tags": []
  },
  {
    "id": "aloha-beer-co",
    "name": "Aloha Beer Co",
    "brewery_type": "brewpub",
    "street": "700 Queen St",
    "city": "Honolulu",
    "state": "Hawaii",
    "postal_code": "96813-5110",
    "website_url": "http://www.alohabeer.com",
    "phone": "8085455959",
    "created_at": "2018-07-24 01:33:16.726778",
    "updated_at": "2018-08-24 00:29:39.918896",
    "country": "United States",
    "longitude": "-157.857248",
    "latitude": "21.301249",
    "tags": []
  }
]