[
  {
    "id": "big-river-grille-and-brewing-works-chattanooga",
    "name": "Big River Grille & Brewing Works - Chattanooga",
    "brewery_type": "brewpub",
    "street": "222 Broad St",
    "city": "Chattanooga",
    "state": "Tennessee",
    "postal_code": "37402-1009",
    "website_url": "http://www.craftworksrestaurants.com",
    "phone": "4232672739",
    "created_at": "2018-07-24 01:34:15.727671",
    "updated_at": "2018-08-24 16:16:16.074383",
    "country": "United States",
    "longitude": "-85.310708746297",
    "latitude": "35.0538755447393",
    "tags": []
  },
  {
    "id": "heaven-and-ale-brewing-co",
    "name": "Heaven & Ale Brewing Co",
    "brewery_type": "brewpub",
    "street": "300 Cherokee Blvd Ste 101",
    "city": "Chattanooga",
    "state": "Tennessee",
    "postal_code": "37405-3811",
    "website_url": "http://www.heavenandalebrewing.com",
    "phone": "4044416434",
    "created_at": "2018-07-24 01:34:16.416659",
    "updated_at": "2018-08-24 16:16:57.160261",
    "country": "United States",
    "longitude": "-85.311847",
    "latitude": "35.064349",
    "tags": []
  },
  {
    "id": "mchales-brewhouse",
    "name": "McHale's Brewhouse",
    "brewery_type": "brewpub",
    "street": "724 Ashland Ter",
    "city": "Chattanooga",
    "state": "Tennessee",
    "postal_code": "37415-3536",
    "website_url": "http://www.mchalesbrewhouse.com",
    "phone": "4238772124",
    "created_at": "2018-07-24 01:34:16.690853",
    "updated_at": "2018-08-24 16:17:28.852367",
    "country": "United States",
    "longitude": "-85.2757397642444",
    "latitude": "35.1164058264354",
    "tags": []
  },
  {
    "id": "five-wits-brewing-co",
    "name": "Five Wits Brewing Co.",
    "brewery_type": "planning",
    "street": "",
    "city": "Chattanooga",
    "state": "Tennessee",
    "postal_code": "37408",
    "website_url": "",
    "phone": "4237742991",
    "created_at": "2018-07-24 01:34:16.27118",
    "updated_at": "2018-08-11 21:39:42.126038",
    "country": "United States",
    "longitude": "",
    "latitude": "",
    "tags": []
  },
  {
    "id": "chattanooga-brewing-co",
    "name": "Chattanooga Brewing Co",
    "brewery_type": "micro",
    "street": "1804 Chestnut St",
    "city": "Chattanooga",
    "state": "Tennessee",
    "postal_code": "37408-1027",
    "website_url": "http://www.chattabrew.com",
    "phone": "4237029958",
    "created_at": "2018-07-24 01:34:15.926349",
    "updated_at": "2018-08-24 16:16:30.735896",
    "country": "United States",
    "longitude": "-85.314430246936",
    "latitude": "35.0363334908815",
    "tags": []
  },
  {
    "id": "hutton-and-smith-brewing-company",
    "name": "Hutton & Smith Brewing Company",
    "brewery_type": "micro",
    "street": "431 E Martin Luther King Blvd # 120",
    "city": "Chattanooga",
    "state": "Tennessee",
    "postal_code": "37403",
    "website_url": "http://www.huttonandsmithbrewing.com",
    "phone": "4237603600",
    "created_at": "2018-07-24 01:34:16.511934",
    "updated_at": "2018-08-11 21:39:42.654845",
    "country": "United States",
    "longitude": "",
    "latitude": "",
    "tags": []
  },
  {
    "id": "moccasin-bend-brewing-co",
    "name": "Moccasin Bend Brewing Co",
    "brewery_type": "micro",
    "street": "3210 Broad St # B",
    "city": "Chattanooga",
    "state": "Tennessee",
    "postal_code": "37408-3059",
    "website_url": "http://www.bendbrewingbeer.com",
    "phone": "4238216392",
    "created_at": "2018-07-24 01:34:16.780422",
    "updated_at": "2018-08-11 21:39:43.33267",
    "country": "United States",
    "longitude": "",
    "latitude": "",
    "tags": []
  },
  {
    "id": "oddstory-brewing-co",
    "name": "Oddstory Brewing Co",
    "brewery_type": "micro",
    "street": "336 E Mlk",
    "city": "Chattanooga",
    "state": "Tennessee",
    "postal_code": "37403-4121",
    "website_url": "http://www.oddstorybrewing.co",
    "phone": "2563097208",
    "created_at": "2018-07-24 01:34:16.818827",
    "updated_at": "2018-08-11 21:39:43.427881",
    "country": "United States",
    "longitude": "",
    "latitude": "",
    "tags": []
  },
  {
    "id": "mad-knight-brewing-company",
    "name": "Mad Knight Brewing Company",
    "brewery_type": "micro",
    "street": "4015 Tennessee Ave",
    "city": "Chattanooga",
    "state": "Tennessee",
    "postal_code": "37409-1322",
    "website_url": "http://www.madknightbrewing.com",
    "phone": "4238256504",
    "created_at": "2018-07-24 01:34:16.643749",
    "updated_at": "2018-08-24 16:17:22.808068",
    "country": "United States",
    "longitude": "-85.3278569212857",
    "latitude": "35.008643261185",
    "tags": []
  },
  {
    "id": "wanderlinger-brewing-co",
    "name": "WanderLinger Brewing Co",
    "brewery_type": "planning",
    "street": "",
    "city": "Chattanooga",
    "state": "Tennessee",
    "postal_code": "37403-4331",
    "website_url": "http://www.wanderlinger.com",
    "phone": "6156535407",
    "created_at": "2018-07-24 01:34:17.231416",
    "updated_at": "2018-08-11 21:39:44.422879",
    "country": "United States",
    "longitude": "",
    "latitude": "",
    "tags": []
  },
  {
    "id": "terminal-brewhouse-the",
    "name": "Terminal Brewhouse, The",
    "brewery_type": "brewpub",
    "street": "1464 Market St",
    "city": "Chattanooga",
    "state": "Tennessee",
    "postal_code": "37402-4448",
    "website_url": "http://www.terminalbrewhouse.com",
    "phone": "4237528090",
    "created_at": "2018-07-24 01:34:17.134138",
    "updated_at": "2018-08-24 16:18:06.79973",
    "country": "United States",
    "longitude": "-85.3072307666667",
    "latitude": "35.0364449333333",
    "tags": []
  }
]