[
  {
    "id": "gladiator-brewing-co",
    "name": "Gladiator Brewing Co.",
    "brewery_type": "planning",
    "street": "",
    "city": "Clarksville",
    "state": "Tennessee",
    "postal_code": "37040",
    "website_url": "",
    "phone": "9137497035",
    "created_at": "2018-07-24 01:34:16.328397",
    "updated_at": "2018-08-11 21:39:42.223007",
    "country": "United States",
    "longitude": "",
    "latitude": "",
    "tags": []
  },
  {
    "id": "blackhorse-pub-and-brewery",
    "name": "Blackhorse Pub and Brewery",
    "brewery_type": "brewpub",
    "street": "132 Franklin St",
    "city": "Clarksville",
    "state": "Tennessee",
    "postal_code": "37040-3438",
    "website_url": "http://www.blackhorsebrews.com",
    "phone": "9315523726",
    "created_at": "2018-07-24 01:34:15.769211",
    "updated_at": "2018-08-24 16:16:19.08675",
    "country": "United States",
    "longitude": "-87.3588994",
    "latitude": "36.52735085",
    "tags": []
  },
  {
    "id": "tennessee-valley-brewing-company",
    "name": "Tennessee Valley Brewing Company",
    "brewery_type": "micro",
    "street": "2088 Lowes Dr Ste H",
    "city": "Clarksville",
    "state": "Tennessee",
    "postal_code": "37040-1635",
    "website_url": "http://www.tnvalleybrewing.com",
    "phone": "9312411040",
    "created_at": "2018-07-24 01:34:17.120447",
    "updated_at": "2018-08-11 21:39:44.130378",
    "country": "United States",
    "longitude": "",
    "latitude": "",
    "tags": []
  },
  {
    "id": "the-star-spangled-brewing-co",
    "name": "The Star Spangled Brewing Co.",
    "brewery_type": "micro",
    "street": "1030 Progress Dr Ste E",
    "city": "Clarksville",
    "state": "Tennessee",
    "postal_code": "37040-5329",
    "website_url": "",
    "phone": "6153981237",
    "created_at": "2018-07-24 01:34:17.161946",
    "updated_at": "2018-08-11 21:39:44.249323",
    "country": "United States",
    "longitude": "",
    "latitude": "",
    "tags": []
  },
  {
    "id": "strawberry-alley-ale-works",
    "name": "Strawberry Alley Ale Works",
    "brewery_type": "brewpub",
    "street": "103 Strawberry Aly",
    "city": "Clarksville",
    "state": "Tennessee",
    "postal_code": "37040-4267",
    "website_url": "http://www.saaleworks.com",
    "phone": "9319194777",
    "created_at": "2018-07-24 01:34:17.064289",
    "updated_at": "2018-08-24 16:17:59.34637",
    "country": "United States",
    "longitude": "-87.3602663528486",
    "latitude": "36.5280248",
    "tags": []
  }
]