[
  {
    "id": "red-silo-brewing-co",
    "name": "Red Silo Brewing Co",
    "brewery_type": "micro",
    "street": "118 W 1st St",
    "city": "Cookeville",
    "state": "Tennessee",
    "postal_code": "38501-2490",
    "website_url": "http://www.redsilo.beer",
    "phone": "9316512333",
    "created_at": "2018-07-24 01:34:16.897876",
    "updated_at": "2018-08-24 16:17:45.796888",
    "country": "United States",
    "longitude": "-85.5086010623437",
    "latitude": "36.1653550099297",
    "tags": []
  },
  {
    "id": "hix-farm-brewery",
    "name": "Hix Farm Brewery",
    "brewery_type": "micro",
    "street": "54 S Cedar Ave",
    "city": "Cookeville",
    "state": "Tennessee",
    "postal_code": "38501-3216",
    "website_url": "http://www.hixfarmbrewery.com",
    "phone": "9313161623",
    "created_at": "2018-07-24 01:34:16.455331",
    "updated_at": "2018-08-24 16:17:01.791714",
    "country": "United States",
    "longitude": "-85.507921",
    "latitude": "36.161868",
    "tags": []
  },
  {
    "id": "jig-head-brewing-company",
    "name": "Jig Head Brewing Company",
    "brewery_type": "micro",
    "street": "310 Newman Dr",
    "city": "Cookeville",
    "state": "Tennessee",
    "postal_code": "38501-4127",
    "website_url": "http://www.jigheadbrewing.com",
    "phone": "9315104406",
    "created_at": "2018-07-24 01:34:16.537435",
    "updated_at": "2018-08-24 16:17:09.901659",
    "country": "United States",
    "longitude": "-85.5237389037356",
    "latitude": "36.1455617853516",
    "tags": []
  },
  {
    "id": "rohrer-brewing-company-llc",
    "name": "Rohrer Brewing Company, LLC",
    "brewery_type": "planning",
    "street": "",
    "city": "Cookeville",
    "state": "Tennessee",
    "postal_code": "38506-5601",
    "website_url": "http://rohrerbrewing.com",
    "phone": "6155859700",
    "created_at": "2018-07-24 01:34:16.923604",
    "updated_at": "2018-08-11 21:39:43.709854",
    "country": "United States",
    "longitude": "",
    "latitude": "",
    "tags": []
  }
]