[
  {
    "id": "garrs-beer-co",
    "name": "Garr's Beer Co.",
    "brewery_type": "proprietor",
    "street": "",
    "city": "Franklin",
    "state": "Tennessee",
    "postal_code": "37067",
    "website_url": "http://www.garrs.beer",
    "phone": "6155090009",
    "created_at": "2018-07-24 01:34:16.296317",
    "updated_at": "2018-08-11 21:39:42.154246",
    "country": "United States",
    "longitude": "",
    "latitude": "",
    "tags": []
  },
  {
    "id": "cool-springs-brewery",
    "name": "Cool Springs Brewery",
    "brewery_type": "brewpub",
    "street": "600A Frazier Dr Ste 135",
    "city": "Franklin",
    "state": "Tennessee",
    "postal_code": "37067-4677",
    "website_url": "http://www.coolspringsbrewery.com",
    "phone": "6155039626",
    "created_at": "2018-07-24 01:34:15.995565",
    "updated_at": "2018-08-24 16:16:35.175754",
    "country": "United States",
    "longitude": "-86.820912",
    "latitude": "35.944623",
    "tags": []
  },
  {
    "id": "granite-city-food-and-brewery",
    "name": "Granite City Food & Brewery",
    "brewery_type": "brewpub",
    "street": "1864 W McEwen Dr",
    "city": "Franklin",
    "state": "Tennessee",
    "postal_code": "37067-1782",
    "website_url": "",
    "phone": "",
    "created_at": "2018-07-24 01:34:16.347572",
    "updated_at": "2018-08-24 16:16:54.163842",
    "country": "United States",
    "longitude": "-86.8271308",
    "latitude": "35.9361408",
    "tags": []
  },
  {
    "id": "mantra-artisan-ales",
    "name": "Mantra Artisan Ales",
    "brewery_type": "micro",
    "street": "216 Noah Dr Ste 140",
    "city": "Franklin",
    "state": "Tennessee",
    "postal_code": "37064-4024",
    "website_url": "http://www.mantrabrewing.com",
    "phone": "6156288776",
    "created_at": "2018-07-24 01:34:16.65986",
    "updated_at": "2018-08-24 16:17:25.84603",
    "country": "United States",
    "longitude": "-86.866949",
    "latitude": "35.893554",
    "tags": []
  }
]