[
  {
    "id": "schulz-brau-brewing-company",
    "name": "Schulz Brau Brewing Company",
    "brewery_type": "micro",
    "street": "126 Bernard Ave",
    "city": "Knoxville",
    "state": "Tennessee",
    "postal_code": "37917-7116",
    "website_url": "http://www.schulzbraubrewing.com",
    "phone": "8002459764",
    "created_at": "2018-07-24 01:34:16.936284",
    "updated_at": "2018-08-24 16:17:47.263819",
    "country": "United States",
    "longitude": "-83.9273236025641",
    "latitude": "35.9767572564103",
    "tags": []
  },
  {
    "id": "brewery-in-planning-knoxville",
    "name": "Brewery In Planning - Knoxville",
    "brewery_type": "planning",
    "street": "",
    "city": "Knoxville",
    "state": "Tennessee",
    "postal_code": "37923-2025",
    "website_url": "http://roosterssportsbar.com",
    "phone": "8653009738",
    "created_at": "2018-07-24 01:34:15.837169",
    "updated_at": "2018-08-11 21:39:41.074937",
    "country": "United States",
    "longitude": "",
    "latitude": "",
    "tags": []
  },
  {
    "id": "brewery-in-planning-knoxville",
    "name": "Brewery in Planning - Knoxville",
    "brewery_type": "planning",
    "street": "",
    "city": "Knoxville",
    "state": "Tennessee",
    "postal_code": "37919-5140",
    "website_url": "",
    "phone": "6062696366",
    "created_at": "2018-07-24 01:34:15.849742",
    "updated_at": "2018-08-11 21:39:41.106111",
    "country": "United States",
    "longitude": "",
    "latitude": "",
    "tags": []
  },
  {
    "id": "cold-fusion-brewing-llc",
    "name": "Cold Fusion Brewing LLC",
    "brewery_type": "micro",
    "street": "4711 Morton Place Way",
    "city": "Knoxville",
    "state": "Tennessee",
    "postal_code": "37912-4162",
    "website_url": "http://www.facebook.com/ColdFusionBrewery/?ref=bookmarks",
    "phone": "8652035948",
    "created_at": "2018-07-24 01:34:15.960097",
    "updated_at": "2018-08-11 21:39:41.338886",
    "country": "United States",
    "longitude": "",
    "latitude": "",
    "tags": []
  },
  {
    "id": "crafty-bastard-brewery",
    "name": "Crafty Bastard Brewery",
    "brewery_type": "micro",
    "street": "6 Emory Pl",
    "city": "Knoxville",
    "state": "Tennessee",
    "postal_code": "37917-7317",
    "website_url": "http://www.craftybastardbrewery.com",
    "phone": "8657552358",
    "created_at": "2018-07-24 01:34:16.029167",
    "updated_at": "2018-08-11 21:39:41.459697",
    "country": "United States",
    "longitude": "",
    "latitude": "",
    "tags": []
  },
  {
    "id": "abridged-beer-company",
    "name": "Abridged Beer Company",
    "brewery_type": "brewpub",
    "street": "100 Lockett Rd",
    "city": "Knoxville",
    "state": "Tennessee",
    "postal_code": "37919-4807",
    "website_url": "http://www.abridgedbeer.com",
    "phone": "8658989438",
    "created_at": "2018-07-24 01:34:15.601622",
    "updated_at": "2018-08-24 16:16:07.028376",
    "country": "United States",
    "longitude": "-84.016459",
    "latitude": "35.932287",
    "tags": []
  },
  {
    "id": "alliance-brewing-company",
    "name": "Alliance Brewing Company",
    "brewery_type": "micro",
    "street": "1130 Sevier Ave",
    "city": "Knoxville",
    "state": "Tennessee",
    "postal_code": "37920",
    "website_url": "http://www.alliancebrewing.com",
    "phone": "8652475355",
    "created_at": "2018-07-24 01:34:15.629952",
    "updated_at": "2018-08-24 16:16:08.466221",
    "country": "United States",
    "longitude": "-83.9035469",
    "latitude": "35.9593516",
    "tags": []
  },
  {
    "id": "balter-beerworks",
    "name": "Balter Beerworks",
    "brewery_type": "brewpub",
    "street": "100 S Broadway St",
    "city": "Knoxville",
    "state": "Tennessee",
    "postal_code": "37902-1901",
    "website_url": "http://www.balterbeerworks.com",
    "phone": "8659995015",
    "created_at": "2018-07-24 01:34:15.672313",
    "updated_at": "2018-08-24 16:16:11.496821",
    "country": "United States",
    "longitude": "-83.92432",
    "latitude": "35.96654",
    "tags": []
  },
  {
    "id": "blackhorse-pub-and-brewery-knoxville",
    "name": "Blackhorse Pub and Brewery -  Knoxville",
    "brewery_type": "brewpub",
    "street": "4429 Kingston Pike",
    "city": "Knoxville",
    "state": "Tennessee",
    "postal_code": "37919-5252",
    "website_url": "http://www.theblackhorsepub.net",
    "phone": "8652498511",
    "created_at": "2018-07-24 01:34:15.782781",
    "updated_at": "2018-08-24 16:16:21.475271",
    "country": "United States",
    "longitude": "-84.0443634",
    "latitude": "35.9259722",
    "tags": []
  },
  {
    "id": "elkmont-exchange-brewery-and-eating-house",
    "name": "Elkmont Exchange Brewery and Eating House",
    "brewery_type": "brewpub",
    "street": "745 N Broadway St",
    "city": "Knoxville",
    "state": "Tennessee",
    "postal_code": "37917-7202",
    "website_url": "http://elkmontexchange.com",
    "phone": "8653600602",
    "created_at": "2018-07-24 01:34:16.161621",
    "updated_at": "2018-08-11 21:39:41.902358",
    "country": "United States",
    "longitude": "",
    "latitude": "",
    "tags": []
  },
  {
    "id": "elst-brewing-company",
    "name": "Elst Brewing Company",
    "brewery_type": "planning",
    "street": "",
    "city": "Knoxville",
    "state": "Tennessee",
    "postal_code": "37921-5188",
    "website_url": "http://www.elst.beer",
    "phone": "8658099618",
    "created_at": "2018-07-24 01:34:16.18232",
    "updated_at": "2018-08-11 21:39:41.947972",
    "country": "United States",
    "longitude": "",
    "latitude": "",
    "tags": []
  },
  {
    "id": "loose-ends-brewing-company",
    "name": "Loose Ends Brewing Company",
    "brewery_type": "planning",
    "street": "",
    "city": "Knoxville",
    "state": "Tennessee",
    "postal_code": "37938-2162",
    "website_url": "",
    "phone": "9372860803",
    "created_at": "2018-07-24 01:34:16.630188",
    "updated_at": "2018-08-11 21:39:42.994135",
    "country": "United States",
    "longitude": "",
    "latitude": "",
    "tags": []
  },
  {
    "id": "downtown-grill-and-brewery-/-woodruff-brewing",
    "name": "Downtown Grill & Brewery / Woodruff Brewing",
    "brewery_type": "brewpub",
    "street": "424 S Gay St",
    "city": "Knoxville",
    "state": "Tennessee",
    "postal_code": "37902-1103",
    "website_url": "http://www.downtownbrewery.com",
    "phone": "8656338111",
    "created_at": "2018-07-24 01:34:16.108414",
    "updated_at": "2018-08-24 16:16:43.550199",
    "country": "United States",
    "longitude": "-83.9186686014889",
    "latitude": "35.9660630063957",
    "tags": []
  },
  {
    "id": "fanatic-brewing-company",
    "name": "Fanatic Brewing Company",
    "brewery_type": "micro",
    "street": "2735 N Central St",
    "city": "Knoxville",
    "state": "Tennessee",
    "postal_code": "37917",
    "website_url": "http://www.fanaticbrewing.com",
    "phone": "8655482337",
    "created_at": "2018-07-24 01:34:16.201883",
    "updated_at": "2018-08-24 16:16:49.56863",
    "country": "United States",
    "longitude": "-83.9422445237608",
    "latitude": "35.9917510649748",
    "tags": []
  },
  {
    "id": "hexagon-brewing-co",
    "name": "Hexagon Brewing Co",
    "brewery_type": "micro",
    "street": "1002 Dutch Valley Dr Ste 101",
    "city": "Knoxville",
    "state": "Tennessee",
    "postal_code": "37918-6956",
    "website_url": "http://www.hexagonbrewing.com",
    "phone": "8658885138",
    "created_at": "2018-07-24 01:34:16.429201",
    "updated_at": "2018-08-24 16:16:58.723999",
    "country": "United States",
    "longitude": "-83.9471706482184",
    "latitude": "36.0086051235487",
    "tags": []
  },
  {
    "id": "last-days-of-autumn-brewing",
    "name": "Last Days of Autumn Brewing",
    "brewery_type": "brewpub",
    "street": "808 E Magnolia Ave",
    "city": "Knoxville",
    "state": "Tennessee",
    "postal_code": "37917-7637",
    "website_url": "http://www.lastdaysofautumn.com",
    "phone": "8652024298",
    "created_at": "2018-07-24 01:34:16.588506",
    "updated_at": "2018-08-24 16:17:15.792502",
    "country": "United States",
    "longitude": "-83.914805",
    "latitude": "35.97603",
    "tags": []
  },
  {
    "id": "underbite-brewing",
    "name": "Underbite Brewing",
    "brewery_type": "planning",
    "street": "",
    "city": "Knoxville",
    "state": "Tennessee",
    "postal_code": "37909-1079",
    "website_url": "",
    "phone": "",
    "created_at": "2018-07-24 01:34:17.205053",
    "updated_at": "2018-08-11 21:39:44.343444",
    "country": "United States",
    "longitude": "",
    "latitude": "",
    "tags": []
  },
  {
    "id": "pretentious-beer-co",
    "name": "Pretentious Beer Co",
    "brewery_type": "micro",
    "street": "131 S Central St",
    "city": "Knoxville",
    "state": "Tennessee",
    "postal_code": "37902",
    "website_url": "http://www.pretentiousbeerco.com",
    "phone": "8658517693",
    "created_at": "2018-07-24 01:34:16.872443",
    "updated_at": "2018-08-24 16:17:42.767727",
    "country": "United States",
    "longitude": "-83.9181404359167",
    "latitude": "35.9693984377798",
    "tags": []
  },
  {
    "id": "printshop-beer-co",
    "name": "Printshop Beer Co",
    "brewery_type": "micro",
    "street": "1532 Island Home Ave",
    "city": "Knoxville",
    "state": "Tennessee",
    "postal_code": "37920",
    "website_url": "",
    "phone": "8654749591",
    "created_at": "2018-07-24 01:34:16.885298",
    "updated_at": "2018-08-24 16:17:44.302094",
    "country": "United States",
    "longitude": "-83.8972435",
    "latitude": "35.9607605",
    "tags": []
  },
  {
    "id": "smoky-mountain-brewery-#1",
    "name": "Smoky Mountain Brewery (#1)",
    "brewery_type": "brewpub",
    "street": "6515 Kingston Pike",
    "city": "Knoxville",
    "state": "Tennessee",
    "postal_code": "37919-4826",
    "website_url": "http://www.smoky-mtn-brewery.com",
    "phone": "8656733377",
    "created_at": "2018-07-24 01:34:16.985724",
    "updated_at": "2018-08-24 16:17:51.899719",
    "country": "United States",
    "longitude": "-84.0096631185854",
    "latitude": "35.9318903307208",
    "tags": []
  },
  {
    "id": "smoky-mountain-brewery-#4-turkey-creek",
    "name": "Smoky Mountain Brewery (#4) - Turkey Creek",
    "brewery_type": "brewpub",
    "street": "11308 Parkside Dr",
    "city": "Knoxville",
    "state": "Tennessee",
    "postal_code": "37934-1971",
    "website_url": "http://www.smoky-mtn-brewery.com",
    "phone": "8652885500",
    "created_at": "2018-07-24 01:34:17.029253",
    "updated_at": "2018-08-24 16:17:56.387368",
    "country": "United States",
    "longitude": "-84.1584642365995",
    "latitude": "35.9000638184674",
    "tags": []
  }
]