[
  {
    "id": "high-cotton-brewing",
    "name": "High Cotton Brewing",
    "brewery_type": "micro",
    "street": "598 Monroe Ave",
    "city": "Memphis",
    "state": "Tennessee",
    "postal_code": "38103-3214",
    "website_url": "http://www.highcottonbrewing.com",
    "phone": "9015434444",
    "created_at": "2018-07-24 01:34:16.442401",
    "updated_at": "2018-08-24 16:17:00.275726",
    "country": "United States",
    "longitude": "-90.0404790748779",
    "latitude": "35.1408806482536",
    "tags": []
  },
  {
    "id": "beale-st-brewing-co",
    "name": "Beale St Brewing Co",
    "brewery_type": "planning",
    "street": "",
    "city": "Memphis",
    "state": "Tennessee",
    "postal_code": "38104-6826",
    "website_url": "http://www.bealestbrewing.com",
    "phone": "9014917197",
    "created_at": "2018-07-24 01:34:15.684937",
    "updated_at": "2018-08-11 21:39:40.643623",
    "country": "United States",
    "longitude": "",
    "latitude": "",
    "tags": []
  },
  {
    "id": "delta-sunshine-brewing-company",
    "name": "Delta Sunshine Brewing Company",
    "brewery_type": "planning",
    "street": "",
    "city": "Memphis",
    "state": "Tennessee",
    "postal_code": "38120-8859",
    "website_url": "",
    "phone": "9016748330",
    "created_at": "2018-07-24 01:34:16.078258",
    "updated_at": "2018-08-11 21:39:41.706384",
    "country": "United States",
    "longitude": "",
    "latitude": "",
    "tags": []
  },
  {
    "id": "blues-city-brewing-co",
    "name": "Blues City Brewing Co",
    "brewery_type": "regional",
    "street": "5151 E Raines Rd",
    "city": "Memphis",
    "state": "Tennessee",
    "postal_code": "38118-7026",
    "website_url": "http://www.citybrewing.com",
    "phone": "6087854200",
    "created_at": "2018-07-24 01:34:15.811239",
    "updated_at": "2018-08-24 16:16:24.747793",
    "country": "United States",
    "longitude": "-89.8874019",
    "latitude": "35.0350188",
    "tags": []
  },
  {
    "id": "boscos-squared",
    "name": "Boscos Squared",
    "brewery_type": "brewpub",
    "street": "2120 Madison Ave",
    "city": "Memphis",
    "state": "Tennessee",
    "postal_code": "38104-6502",
    "website_url": "http://www.boscosbeer.com",
    "phone": "9014322222",
    "created_at": "2018-07-24 01:34:15.824686",
    "updated_at": "2018-08-24 16:16:26.338948",
    "country": "United States",
    "longitude": "-90.0401714",
    "latitude": "35.1417658",
    "tags": []
  },
  {
    "id": "memphis-filling-station",
    "name": "Memphis Filling Station",
    "brewery_type": "planning",
    "street": "",
    "city": "Memphis",
    "state": "Tennessee",
    "postal_code": "38112-4938",
    "website_url": "http://www.memphisfillingstation.com",
    "phone": "9014978109",
    "created_at": "2018-07-24 01:34:16.735574",
    "updated_at": "2018-08-11 21:39:43.239724",
    "country": "United States",
    "longitude": "",
    "latitude": "",
    "tags": []
  },
  {
    "id": "memphis-made-brewing-company",
    "name": "Memphis Made Brewing Company",
    "brewery_type": "micro",
    "street": "768 S Cooper St",
    "city": "Memphis",
    "state": "Tennessee",
    "postal_code": "38104-5406",
    "website_url": "http://www.memphismadebrewing.com",
    "phone": "9012075343",
    "created_at": "2018-07-24 01:34:16.751831",
    "updated_at": "2018-08-24 16:17:32.22748",
    "country": "United States",
    "longitude": "-89.990701",
    "latitude": "35.124723",
    "tags": []
  },
  {
    "id": "wiseacre-brewing-co",
    "name": "Wiseacre Brewing Co",
    "brewery_type": "regional",
    "street": "2783 Broad Ave",
    "city": "Memphis",
    "state": "Tennessee",
    "postal_code": "38112-2834",
    "website_url": "http://www.wiseacrebrew.com",
    "phone": "9018887000",
    "created_at": "2018-07-24 01:34:17.24542",
    "updated_at": "2018-08-24 16:18:14.719011",
    "country": "United States",
    "longitude": "-89.9684970115659",
    "latitude": "35.1475572534875",
    "tags": []
  },
  {
    "id": "crosstown-brewing-company",
    "name": "Crosstown Brewing Company",
    "brewery_type": "micro",
    "street": "1264 Concourse Ave",
    "city": "Memphis",
    "state": "Tennessee",
    "postal_code": "38104-7022",
    "website_url": "http://www.crosstownbeer.com",
    "phone": "9015297611",
    "created_at": "2018-07-24 01:34:16.046194",
    "updated_at": "2018-08-24 16:16:38.114929",
    "country": "United States",
    "longitude": "-90.0129924",
    "latitude": "35.1515547",
    "tags": []
  },
  {
    "id": "ghost-river-brewing",
    "name": "Ghost River Brewing",
    "brewery_type": "micro",
    "street": "827 S Main St",
    "city": "Memphis",
    "state": "Tennessee",
    "postal_code": "38106-2063",
    "website_url": "http://www.ghostriverbrewing.com",
    "phone": "9016614976",
    "created_at": "2018-07-24 01:34:16.311791",
    "updated_at": "2018-08-24 16:16:52.683742",
    "country": "United States",
    "longitude": "-90.059285",
    "latitude": "35.125851",
    "tags": []
  }
]