[
  {
    "id": "the-black-abbey-brewing-company",
    "name": "The Black Abbey Brewing Company",
    "brewery_type": "micro",
    "street": "2952 Sidco Dr Ste 211",
    "city": "Nashville",
    "state": "Tennessee",
    "postal_code": "37204-3710",
    "website_url": "http://www.blackabbeybrewing.com",
    "phone": "6157550070",
    "created_at": "2018-07-24 01:34:17.147608",
    "updated_at": "2018-08-24 16:18:08.315607",
    "country": "United States",
    "longitude": "-86.7559029967888",
    "latitude": "36.1048168612864",
    "tags": []
  },
  {
    "id": "southern-grist-brewing-company",
    "name": "Southern Grist Brewing Company",
    "brewery_type": "micro",
    "street": "1201 Porter Rd",
    "city": "Nashville",
    "state": "Tennessee",
    "postal_code": "37206-1733",
    "website_url": "http://www.southerngristbrewing.com",
    "phone": "6157271201",
    "created_at": "2018-07-24 01:34:17.047066",
    "updated_at": "2018-08-24 16:17:57.886017",
    "country": "United States",
    "longitude": "-86.729011",
    "latitude": "36.188838",
    "tags": []
  },
  {
    "id": "brewery-in-planning-nashville",
    "name": "Brewery In Planning - Nashville",
    "brewery_type": "planning",
    "street": "",
    "city": "Nashville",
    "state": "Tennessee",
    "postal_code": "37206-2412",
    "website_url": "",
    "phone": "",
    "created_at": "2018-07-24 01:34:15.867751",
    "updated_at": "2018-08-11 21:39:41.144288",
    "country": "United States",
    "longitude": "",
    "latitude": "",
    "tags": []
  },
  {
    "id": "bearded-iris-brewing",
    "name": "Bearded Iris Brewing",
    "brewery_type": "micro",
    "street": "101 Van Buren St",
    "city": "Nashville",
    "state": "Tennessee",
    "postal_code": "37208-1719",
    "website_url": "http://www.beardedirisbrewing.com",
    "phone": "6159287988",
    "created_at": "2018-07-24 01:34:15.699275",
    "updated_at": "2018-08-24 16:16:13.017648",
    "country": "United States",
    "longitude": "-86.786174",
    "latitude": "36.181424",
    "tags": []
  },
  {
    "id": "blackstone-brewing-co",
    "name": "Blackstone Brewing Co",
    "brewery_type": "micro",
    "street": "2312 Clifton Ave",
    "city": "Nashville",
    "state": "Tennessee",
    "postal_code": "37209-4115",
    "website_url": "http://blackstonebrewery.com",
    "phone": "6153209002",
    "created_at": "2018-07-24 01:34:15.797107",
    "updated_at": "2018-08-24 16:16:23.141705",
    "country": "United States",
    "longitude": "-86.8097436319194",
    "latitude": "36.1579678295884",
    "tags": []
  },
  {
    "id": "corsair-artisan-llc",
    "name": "Corsair Artisan LLC",
    "brewery_type": "micro",
    "street": "1200 Clinton St Ste 110",
    "city": "Nashville",
    "state": "Tennessee",
    "postal_code": "37203-2894",
    "website_url": "http://www.corsairartisan.com",
    "phone": "6152000320",
    "created_at": "2018-07-24 01:34:16.012948",
    "updated_at": "2018-08-24 16:16:36.663399",
    "country": "United States",
    "longitude": "-86.794546",
    "latitude": "36.165123",
    "tags": []
  },
  {
    "id": "czanns-brewing",
    "name": "Czann's Brewing",
    "brewery_type": "micro",
    "street": "505 Lea Ave",
    "city": "Nashville",
    "state": "Tennessee",
    "postal_code": "37203-4499",
    "website_url": "http://czanns.com",
    "phone": "6154033517",
    "created_at": "2018-07-24 01:34:16.062947",
    "updated_at": "2018-08-24 16:16:39.549063",
    "country": "United States",
    "longitude": "-86.7742274305325",
    "latitude": "36.1533486",
    "tags": []
  },
  {
    "id": "harding-house-brewing-company",
    "name": "Harding House Brewing Company",
    "brewery_type": "planning",
    "street": "",
    "city": "Nashville",
    "state": "Tennessee",
    "postal_code": "37209",
    "website_url": "http://www.hardinghousebrew.com",
    "phone": "3034089405",
    "created_at": "2018-07-24 01:34:16.39635",
    "updated_at": "2018-08-11 21:39:42.360845",
    "country": "United States",
    "longitude": "",
    "latitude": "",
    "tags": []
  },
  {
    "id": "honky-tonk-brewing-co",
    "name": "Honky Tonk Brewing Co",
    "brewery_type": "micro",
    "street": "240 Cumberland Bnd",
    "city": "Nashville",
    "state": "Tennessee",
    "postal_code": "37228-1804",
    "website_url": "http://www.honkytonkbeer.com",
    "phone": "6157429770",
    "created_at": "2018-07-24 01:34:16.483208",
    "updated_at": "2018-08-11 21:39:42.590261",
    "country": "United States",
    "longitude": "",
    "latitude": "",
    "tags": []
  },
  {
    "id": "east-nashville-beer-works",
    "name": "East Nashville Beer Works",
    "brewery_type": "brewpub",
    "street": "320 E Trinity Ln",
    "city": "Nashville",
    "state": "Tennessee",
    "postal_code": "37207-4524",
    "website_url": "http://www.eastnashbeerworks.com",
    "phone": "6158913108",
    "created_at": "2018-07-24 01:34:16.12325",
    "updated_at": "2018-08-24 16:16:45.082724",
    "country": "United States",
    "longitude": "-86.7632038301232",
    "latitude": "36.20526205",
    "tags": []
  },
  {
    "id": "fat-bottom-brewing",
    "name": "Fat Bottom Brewing",
    "brewery_type": "micro",
    "street": "800 44th Ave N",
    "city": "Nashville",
    "state": "Tennessee",
    "postal_code": "37209-2336",
    "website_url": "http://www.fatbottombrewing.com",
    "phone": "6152935783",
    "created_at": "2018-07-24 01:34:16.217334",
    "updated_at": "2018-08-24 16:16:51.091088",
    "country": "United States",
    "longitude": "-86.8403168839933",
    "latitude": "36.1604492579475",
    "tags": []
  },
  {
    "id": "jackalope-brewing-company-llc",
    "name": "Jackalope Brewing Company, LLC",
    "brewery_type": "micro",
    "street": "701 8th Ave S",
    "city": "Nashville",
    "state": "Tennessee",
    "postal_code": "37203-4104",
    "website_url": "http://www.jackalopebrew.com",
    "phone": "6158870807",
    "created_at": "2018-07-24 01:34:16.524713",
    "updated_at": "2018-08-24 16:17:08.440523",
    "country": "United States",
    "longitude": "-86.7794989",
    "latitude": "36.1503817",
    "tags": []
  },
  {
    "id": "jubilee-craft-beer-co",
    "name": "Jubilee Craft Beer Co",
    "brewery_type": "contract",
    "street": "3430 Hampton Ave",
    "city": "Nashville",
    "state": "Tennessee",
    "postal_code": "37215-1408",
    "website_url": "http://www.jubileebeer.com",
    "phone": "6156869397",
    "created_at": "2018-07-24 01:34:16.575852",
    "updated_at": "2018-08-24 16:17:14.323446",
    "country": "United States",
    "longitude": "-86.8250985315178",
    "latitude": "36.1174639536167",
    "tags": []
  },
  {
    "id": "little-harpeth-brewing-co",
    "name": "Little Harpeth Brewing Co",
    "brewery_type": "micro",
    "street": "30 Oldham St",
    "city": "Nashville",
    "state": "Tennessee",
    "postal_code": "37213-1107",
    "website_url": "http://www.littleharpethbrewing.com",
    "phone": "3073711476",
    "created_at": "2018-07-24 01:34:16.616903",
    "updated_at": "2018-08-24 16:17:18.692979",
    "country": "United States",
    "longitude": "-86.7769747142857",
    "latitude": "36.174546",
    "tags": []
  },
  {
    "id": "new-heights-brewing-co",
    "name": "New Heights Brewing Co",
    "brewery_type": "micro",
    "street": "928 5th Ave S",
    "city": "Nashville",
    "state": "Tennessee",
    "postal_code": "37203-4612",
    "website_url": "http://www.newheightsbrewing.com",
    "phone": "6154906901",
    "created_at": "2018-07-24 01:34:16.805724",
    "updated_at": "2018-08-24 16:17:38.078579",
    "country": "United States",
    "longitude": "-86.7706476",
    "latitude": "36.1491212",
    "tags": []
  },
  {
    "id": "rock-bottom-brewery-nashville",
    "name": "Rock Bottom Brewery - Nashville",
    "brewery_type": "brewpub",
    "street": "111 Broadway",
    "city": "Nashville",
    "state": "Tennessee",
    "postal_code": "37201-2117",
    "website_url": "http://www.bigrivergrille.com",
    "phone": "6152514677",
    "created_at": "2018-07-24 01:34:16.911027",
    "updated_at": "2018-08-11 21:39:43.68115",
    "country": "United States",
    "longitude": "",
    "latitude": "",
    "tags": []
  },
  {
    "id": "trace-brewing",
    "name": "Trace Brewing",
    "brewery_type": "planning",
    "street": "",
    "city": "Nashville",
    "state": "Tennessee",
    "postal_code": "37221-3967",
    "website_url": "",
    "phone": "",
    "created_at": "2018-07-24 01:34:17.174703",
    "updated_at": "2018-08-11 21:39:44.279706",
    "country": "United States",
    "longitude": "",
    "latitude": "",
    "tags": []
  },
  {
    "id": "smith-and-lentz-brewing",
    "name": "Smith & Lentz Brewing",
    "brewery_type": "micro",
    "street": "903 Main St",
    "city": "Nashville",
    "state": "Tennessee",
    "postal_code": "37206-3609",
    "website_url": "http://www.smithandlentz.com",
    "phone": "",
    "created_at": "2018-07-24 01:34:16.972728",
    "updated_at": "2018-08-24 16:17:50.309777",
    "country": "United States",
    "longitude": "-86.7565172222222",
    "latitude": "36.1763251111111",
    "tags": []
  },
  {
    "id": "tailgate-brewery",
    "name": "Tailgate Brewery",
    "brewery_type": "brewpub",
    "street": "7300 Charlotte Pike",
    "city": "Nashville",
    "state": "Tennessee",
    "postal_code": "37209-5012",
    "website_url": "http://www.tailgatebeer.com",
    "phone": "6154571424",
    "created_at": "2018-07-24 01:34:17.076991",
    "updated_at": "2018-08-24 16:18:00.864703",
    "country": "United States",
    "longitude": "-86.918654",
    "latitude": "36.119936",
    "tags": []
  },
  {
    "id": "tailgate-brewery-music-row",
    "name": "TailGate Brewery Music Row",
    "brewery_type": "brewpub",
    "street": "1538 Demonbreun St",
    "city": "Nashville",
    "state": "Tennessee",
    "postal_code": "37203-3112",
    "website_url": "http://www.tailgatebeer.com",
    "phone": "",
    "created_at": "2018-07-24 01:34:17.090152",
    "updated_at": "2018-08-24 16:18:02.317553",
    "country": "United States",
    "longitude": "-86.7896397171207",
    "latitude": "36.1531025649507",
    "tags": []
  },
  {
    "id": "tennessee-brew-works",
    "name": "Tennessee Brew Works",
    "brewery_type": "micro",
    "street": "809 Ewing Ave",
    "city": "Nashville",
    "state": "Tennessee",
    "postal_code": "37203-4631",
    "website_url": "http://www.tnbrew.com",
    "phone": "6154360050",
    "created_at": "2018-07-24 01:34:17.10306",
    "updated_at": "2018-08-24 16:18:03.803409",
    "country": "United States",
    "longitude": "-86.7762132",
    "latitude": "36.1503752",
    "tags": []
  },
  {
    "id": "turtle-anarchy-brewing-co",
    "name": "Turtle Anarchy Brewing Co",
    "brewery_type": "micro",
    "street": "5901 California Ave Ste 105",
    "city": "Nashville",
    "state": "Tennessee",
    "postal_code": "37209-1370",
    "website_url": "http://www.turtleanarchy.com",
    "phone": "",
    "created_at": "2018-07-24 01:34:17.191257",
    "updated_at": "2018-08-24 16:18:11.421934",
    "country": "United States",
    "longitude": "-86.8586173726621",
    "latitude": "36.1645838804147",
    "tags": []
  },
  {
    "id": "yazoo-brewing-co",
    "name": "Yazoo Brewing Co",
    "brewery_type": "regional",
    "street": "910 Division St",
    "city": "Nashville",
    "state": "Tennessee",
    "postal_code": "37203-4111",
    "website_url": "http://www.yazoobrew.com",
    "phone": "6158914649",
    "created_at": "2018-07-24 01:34:17.258634",
    "updated_at": "2018-08-24 16:18:16.208153",
    "country": "United States",
    "longitude": "-86.7835559482768",
    "latitude": "36.1509019494543",
    "tags": []
  }
]