[
  {
    "id": "king-street-brewing-co",
    "name": "King Street Brewing Co",
    "brewery_type": "micro",
    "street": "9050 King Street",
    "city": "Anchorage",
    "state": "Alaska",
    "postal_code": "99515",
    "website_url": "http://www.kingstreetbrewing.com",
    "phone": "9073365464",
    "created_at": "2018-07-24 01:32:48.301213",
    "updated_at": "2018-08-23 23:20:57.179365",
    "country": "United States",
    "longitude": "-149.879076042937",
    "latitude": "61.1384893547315",
    "tags": []
  },
  {
    "id": "cynosure-brewing",
    "name": "Cynosure Brewing",
    "brewery_type": "micro",
    "street": "144 E Potter Dr Unit E",
    "city": "Anchorage",
    "state": "Alaska",
    "postal_code": "99518-1363",
    "website_url": "",
    "phone": "9075632966",
    "created_at": "2018-07-24 01:32:48.054935",
    "updated_at": "2018-08-11 21:35:45.165973",
    "country": "United States",
    "longitude": "",
    "latitude": "",
    "tags": []
  },
  {
    "id": "glacier-brewhouse",
    "name": "Glacier Brewhouse",
    "brewery_type": "brewpub",
    "street": "737 W 5th Ave Ste 110",
    "city": "Anchorage",
    "state": "Alaska",
    "postal_code": "99501-2129",
    "website_url": "http://www.glacierbrewhouse.com",
    "phone": "9072742739",
    "created_at": "2018-07-24 01:32:48.152378",
    "updated_at": "2018-08-11 21:35:45.348124",
    "country": "United States",
    "longitude": "",
    "latitude": "",
    "tags": []
  },
  {
    "id": "49th-state-brewing-co-anchorage",
    "name": "49th State Brewing Co - Anchorage",
    "brewery_type": "brewpub",
    "street": "717 W 3rd Ave",
    "city": "Anchorage",
    "state": "Alaska",
    "postal_code": "99501-2104",
    "website_url": "http://www.49statebrewing.com/",
    "phone": "9076832739",
    "created_at": "2018-07-24 01:32:47.871195",
    "updated_at": "2018-08-23 23:20:34.89855",
    "country": "United States",
    "longitude": "-149.895819630259",
    "latitude": "61.2197366",
    "tags": []
  },
  {
    "id": "anchorage-brewing-co",
    "name": "Anchorage Brewing Co",
    "brewery_type": "micro",
    "street": "148 W 91st Ave",
    "city": "Anchorage",
    "state": "Alaska",
    "postal_code": "99515-1901",
    "website_url": "http://www.anchoragebrewingcompany.com",
    "phone": "9073605104",
    "created_at": "2018-07-24 01:32:47.898122",
    "updated_at": "2018-08-23 23:20:36.630307",
    "country": "United States",
    "longitude": "-149.8893581",
    "latitude": "61.1385311",
    "tags": []
  },
  {
    "id": "broken-tooth-brewing-co",
    "name": "Broken Tooth Brewing Co",
    "brewery_type": "brewpub",
    "street": "2021 Spar Ave",
    "city": "Anchorage",
    "state": "Alaska",
    "postal_code": "99501-1815",
    "website_url": "",
    "phone": "9072784999",
    "created_at": "2018-07-24 01:32:47.992339",
    "updated_at": "2018-08-23 23:20:42.576392",
    "country": "United States",
    "longitude": "-149.843763795249",
    "latitude": "61.2225517048454",
    "tags": []
  },
  {
    "id": "faults-brewing",
    "name": "Faults Brewing",
    "brewery_type": "planning",
    "street": "",
    "city": "Anchorage",
    "state": "Alaska",
    "postal_code": "99509-0312",
    "website_url": "",
    "phone": "9073019922",
    "created_at": "2018-07-24 01:32:48.105979",
    "updated_at": "2018-08-23 23:20:45.951501",
    "country": "United States",
    "longitude": "-149.8948523",
    "latitude": "61.2163129",
    "tags": []
  },
  {
    "id": "humpys-great-alaskan-alehouse",
    "name": "Humpy's Great Alaskan Alehouse",
    "brewery_type": "contract",
    "street": "610 W 6th Ave",
    "city": "Anchorage",
    "state": "Alaska",
    "postal_code": "99501-2225",
    "website_url": "http://www.humpysalaska.com",
    "phone": "9072762337",
    "created_at": "2018-07-24 01:32:48.234705",
    "updated_at": "2018-08-23 23:20:53.300787",
    "country": "United States",
    "longitude": "-149.893892836775",
    "latitude": "61.2165020023101",
    "tags": []
  },
  {
    "id": "midnight-sun-brewing-co",
    "name": "Midnight Sun Brewing Co",
    "brewery_type": "micro",
    "street": "8111 Dimond Hook Dr",
    "city": "Anchorage",
    "state": "Alaska",
    "postal_code": "99507-3144",
    "website_url": "http://www.midnightsunbrewing.com",
    "phone": "9073441179",
    "created_at": "2018-07-24 01:32:48.35421",
    "updated_at": "2018-08-23 23:21:00.537479",
    "country": "United States",
    "longitude": "-149.8445465",
    "latitude": "61.1471249",
    "tags": []
  },
  {
    "id": "resolution-brewing-company",
    "name": "Resolution Brewing Company",
    "brewery_type": "brewpub",
    "street": "3024 Mountain View Dr Ste 105",
    "city": "Anchorage",
    "state": "Alaska",
    "postal_code": "99501-3141",
    "website_url": "http://www.resolutionbeer.com",
    "phone": "9073304523",
    "created_at": "2018-07-24 01:32:48.407889",
    "updated_at": "2018-08-23 23:21:03.575856",
    "country": "United States",
    "longitude": "-149.823091047009",
    "latitude": "61.2199788932932",
    "tags": []
  },
  {
    "id": "resolution-brewing-compnay-llc",
    "name": "Resolution Brewing Compnay, LLC",
    "brewery_type": "micro",
    "street": "3024 Mountain View Drive",
    "city": "Anchorage",
    "state": "Alaska",
    "postal_code": "99501",
    "website_url": "http://www.resolutionbeer.com",
    "phone": "9077485297",
    "created_at": "2018-07-24 01:32:48.424321",
    "updated_at": "2018-08-23 23:21:04.418639",
    "country": "United States",
    "longitude": "-149.823091047009",
    "latitude": "61.2199788932932",
    "tags": []
  },
  {
    "id": "turnagain-brewing",
    "name": "Turnagain Brewing",
    "brewery_type": "planning",
    "street": "",
    "city": "Anchorage",
    "state": "Alaska",
    "postal_code": "99507-1226",
    "website_url": "",
    "phone": "9073011657",
    "created_at": "2018-07-24 01:32:48.511039",
    "updated_at": "2018-08-23 23:21:09.084778",
    "country": "United States",
    "longitude": "-149.8948523",
    "latitude": "61.2163129",
    "tags": []
  }
]