[
  {
    "id": "apple-blossom-brewing-co",
    "name": "Apple Blossom Brewing Co",
    "brewery_type": "brewpub",
    "street": "1550 E Zion Rd",
    "city": "Fayetteville",
    "state": "Arkansas",
    "postal_code": "72703-5017",
    "website_url": "http://www.appleblossombrewing.com",
    "phone": "4792874344",
    "created_at": "2018-07-24 01:32:50.317764",
    "updated_at": "2018-08-23 23:23:00.160354",
    "country": "United States",
    "longitude": "-94.1372796",
    "latitude": "36.1297079",
    "tags": []
  },
  {
    "id": "columbus-house-brewery",
    "name": "Columbus House Brewery",
    "brewery_type": "micro",
    "street": "701 W North St",
    "city": "Fayetteville",
    "state": "Arkansas",
    "postal_code": "72701-1865",
    "website_url": "",
    "phone": "4799353752",
    "created_at": "2018-07-24 01:32:50.422848",
    "updated_at": "2018-08-23 23:23:09.381943",
    "country": "United States",
    "longitude": "-94.1688685443672",
    "latitude": "36.0771652",
    "tags": []
  },
  {
    "id": "crisis-brewing-llc",
    "name": "Crisis Brewing LLC",
    "brewery_type": "micro",
    "street": "210 S Archibald Yell Blvd",
    "city": "Fayetteville",
    "state": "Arkansas",
    "postal_code": "72701-4459",
    "website_url": "http://www.crisisbrew.com",
    "phone": "4795822337",
    "created_at": "2018-07-24 01:32:50.4782",
    "updated_at": "2018-08-23 23:23:12.975362",
    "country": "United States",
    "longitude": "-94.1608753945713",
    "latitude": "36.0595970427386",
    "tags": []
  },
  {
    "id": "fayetteville-brewing-company",
    "name": "Fayetteville Brewing Company",
    "brewery_type": "planning",
    "street": "",
    "city": "Fayetteville",
    "state": "Arkansas",
    "postal_code": "72704-7402",
    "website_url": "http://www.fayettebrew.com",
    "phone": "4792631905",
    "created_at": "2018-07-24 01:32:50.515652",
    "updated_at": "2018-08-23 23:23:15.350378",
    "country": "United States",
    "longitude": "-94.1574328",
    "latitude": "36.0625843",
    "tags": []
  },
  {
    "id": "fossil-cove-brewing-co",
    "name": "Fossil Cove Brewing Co",
    "brewery_type": "brewpub",
    "street": "1946 N Birch Ave",
    "city": "Fayetteville",
    "state": "Arkansas",
    "postal_code": "72703-2408",
    "website_url": "http://www.fossilcovebrewing.com",
    "phone": "4796444601",
    "created_at": "2018-07-24 01:32:50.553945",
    "updated_at": "2018-08-23 23:23:18.111247",
    "country": "United States",
    "longitude": "-94.1647828743272",
    "latitude": "36.0879053",
    "tags": []
  },
  {
    "id": "hog-haus-brewing-co",
    "name": "Hog Haus Brewing Co",
    "brewery_type": "brewpub",
    "street": "430 W Dickson St",
    "city": "Fayetteville",
    "state": "Arkansas",
    "postal_code": "72701-5107",
    "website_url": "http://www.hoghaus.com",
    "phone": "4792833516",
    "created_at": "2018-07-24 01:32:50.614245",
    "updated_at": "2018-08-23 23:23:21.305565",
    "country": "United States",
    "longitude": "-94.1652437133366",
    "latitude": "36.0666309",
    "tags": []
  },
  {
    "id": "jjs-brewing-company",
    "name": "JJs Brewing Company",
    "brewery_type": "brewpub",
    "street": "3615 n steele blvd",
    "city": "fayetteville",
    "state": "Arkansas",
    "postal_code": "72703",
    "website_url": "http://www.thejbgb.com/",
    "phone": "4792632562",
    "created_at": "2018-07-24 01:32:50.627014",
    "updated_at": "2018-08-23 23:23:22.201413",
    "country": "United States",
    "longitude": "-94.1571434160088",
    "latitude": "36.11719055",
    "tags": []
  },
  {
    "id": "puritan-brew-company",
    "name": "Puritan Brew Company",
    "brewery_type": "contract",
    "street": "205 W Dickson St",
    "city": "Fayetteville",
    "state": "Arkansas",
    "postal_code": "72701-5222",
    "website_url": "http://www.puritanbrewcompany.com",
    "phone": "4793012365",
    "created_at": "2018-07-24 01:32:50.775451",
    "updated_at": "2018-08-23 23:23:28.528977",
    "country": "United States",
    "longitude": "-94.1620702",
    "latitude": "36.066188",
    "tags": []
  },
  {
    "id": "tiny-tims-pizza-/west-mountain-brewery",
    "name": "Tiny Tim's Pizza /West Mountain Brewery",
    "brewery_type": "brewpub",
    "street": "21 W Mountain St",
    "city": "Fayetteville",
    "state": "Arkansas",
    "postal_code": "72701-6086",
    "website_url": "http://www.facebook.com/pg/tinytimspizza",
    "phone": "4794429090",
    "created_at": "2018-07-24 01:32:50.896797",
    "updated_at": "2018-08-23 23:23:38.946463",
    "country": "United States",
    "longitude": "-94.1602601",
    "latitude": "36.0617393",
    "tags": []
  }
]