[
  {
    "id": "lost-forty-brewing",
    "name": "Lost Forty Brewing",
    "brewery_type": "micro",
    "street": "501 Byrd St",
    "city": "Little Rock",
    "state": "Arkansas",
    "postal_code": "72202",
    "website_url": "http://www.lost40brewing.com/",
    "phone": "5013197275",
    "created_at": "2018-07-24 01:32:50.710061",
    "updated_at": "2018-08-23 23:23:24.018254",
    "country": "United States",
    "longitude": "-92.260019",
    "latitude": "34.742845",
    "tags": []
  },
  {
    "id": "rebel-kettle-brewing-company",
    "name": "Rebel Kettle Brewing Company",
    "brewery_type": "brewpub",
    "street": "822 E 6th St",
    "city": "Little Rock",
    "state": "Arkansas",
    "postal_code": "72202-2606",
    "website_url": "http://www.rebelkettle.com",
    "phone": "5013742791",
    "created_at": "2018-07-24 01:32:50.799604",
    "updated_at": "2018-08-23 23:23:30.847873",
    "country": "United States",
    "longitude": "-92.2620919591837",
    "latitude": "34.7421112653061",
    "tags": []
  },
  {
    "id": "core-brewing-soma",
    "name": "Core Brewing - SoMa",
    "brewery_type": "brewpub",
    "street": "1214 S. Main St",
    "city": "Little Rock",
    "state": "Arkansas",
    "postal_code": "72202",
    "website_url": "",
    "phone": "4793068898",
    "created_at": "2018-07-24 01:32:50.447777",
    "updated_at": "2018-08-11 21:35:51.46182",
    "country": "United States",
    "longitude": "",
    "latitude": "",
    "tags": []
  },
  {
    "id": "blue-canoe-brewing-co",
    "name": "Blue Canoe Brewing Co",
    "brewery_type": "micro",
    "street": "1637 E. 15th Street",
    "city": "Little Rock",
    "state": "Arkansas",
    "postal_code": "72202",
    "website_url": "http://www.bluecanoebrewco.com",
    "phone": "5014929378",
    "created_at": "2018-07-24 01:32:50.3644",
    "updated_at": "2018-08-23 23:23:04.620242",
    "country": "United States",
    "longitude": "-92.2536680720849",
    "latitude": "34.73235495962",
    "tags": []
  },
  {
    "id": "buffalo-brewing-company-at-the-water-buffalo",
    "name": "Buffalo Brewing Company At The Water Buffalo",
    "brewery_type": "micro",
    "street": "106 S Rodney Parham Rd",
    "city": "Little Rock",
    "state": "Arkansas",
    "postal_code": "72205",
    "website_url": "http://www.thewaterbuffalo.com",
    "phone": "5012311062",
    "created_at": "2018-07-24 01:32:50.410785",
    "updated_at": "2018-08-23 23:23:08.563039",
    "country": "United States",
    "longitude": "-92.366648",
    "latitude": "34.752616",
    "tags": []
  },
  {
    "id": "damgoode-pies",
    "name": "Damgoode Pies",
    "brewery_type": "brewpub",
    "street": "500 President Clinton Ave",
    "city": "Little Rock",
    "state": "Arkansas",
    "postal_code": "72201-1756",
    "website_url": "http://www.damgoodepies.com",
    "phone": "5016642239",
    "created_at": "2018-07-24 01:32:50.49069",
    "updated_at": "2018-08-23 23:23:13.798756",
    "country": "United States",
    "longitude": "-92.2653101",
    "latitude": "34.7475388",
    "tags": []
  },
  {
    "id": "lost-40-brewing",
    "name": "Lost 40 brewing",
    "brewery_type": "micro",
    "street": "510 McLean St",
    "city": "Little Rock",
    "state": "Arkansas",
    "postal_code": "72202-2660",
    "website_url": "",
    "phone": "5015545557",
    "created_at": "2018-07-24 01:32:50.697512",
    "updated_at": "2018-08-23 23:23:23.1096",
    "country": "United States",
    "longitude": "-92.25901",
    "latitude": "34.7426855790517",
    "tags": []
  },
  {
    "id": "refined-ale-brewery",
    "name": "Refined Ale Brewery",
    "brewery_type": "micro",
    "street": "2221 S Cedar St",
    "city": "Little Rock",
    "state": "Arkansas",
    "postal_code": "72204-5452",
    "website_url": "http://www.refinedale.com",
    "phone": "5012800556",
    "created_at": "2018-07-24 01:32:50.811767",
    "updated_at": "2018-08-23 23:23:32.040411",
    "country": "United States",
    "longitude": "-92.3184696976744",
    "latitude": "34.7308344651163",
    "tags": []
  },
  {
    "id": "stones-throw-brewing",
    "name": "Stone's Throw Brewing",
    "brewery_type": "brewpub",
    "street": "402 E 9th St",
    "city": "Little Rock",
    "state": "Arkansas",
    "postal_code": "72202-3914",
    "website_url": "http://www.stonesthrowbeer.com",
    "phone": "5012449154",
    "created_at": "2018-07-24 01:32:50.870988",
    "updated_at": "2018-08-23 23:23:37.122772",
    "country": "United States",
    "longitude": "-92.2680663333333",
    "latitude": "34.7397885",
    "tags": []
  },
  {
    "id": "vinos-pizza-pub-brewery",
    "name": "Vino's Pizza Pub Brewery",
    "brewery_type": "brewpub",
    "street": "923 W 7th St",
    "city": "Little Rock",
    "state": "Arkansas",
    "postal_code": "72201-4005",
    "website_url": "http://www.vinosbrewpub.com",
    "phone": "5013758466",
    "created_at": "2018-07-24 01:32:50.908685",
    "updated_at": "2018-08-23 23:23:40.00633",
    "country": "United States",
    "longitude": "-92.2814021238178",
    "latitude": "34.7434391973995",
    "tags": []
  }
]