[
  {
    "id": "bentonville-brewing-co",
    "name": "Bentonville Brewing Co",
    "brewery_type": "micro",
    "street": "1700 S 1st St",
    "city": "Rogers",
    "state": "Arkansas",
    "postal_code": "72756-5923",
    "website_url": "http://www.bentonvillebrewing.com",
    "phone": "4799037330",
    "created_at": "2018-07-24 01:32:50.329268",
    "updated_at": "2018-08-23 23:23:01.046688",
    "country": "United States",
    "longitude": "-94.1178372",
    "latitude": "36.3168272",
    "tags": []
  },
  {
    "id": "fosters-pint-and-plate",
    "name": "Foster's Pint & Plate",
    "brewery_type": "brewpub",
    "street": "2001 S Bellview Rd # 2",
    "city": "Rogers",
    "state": "Arkansas",
    "postal_code": "72758-4050",
    "website_url": "http://www.fosterspintandplate.com",
    "phone": "",
    "created_at": "2018-07-24 01:32:50.566777",
    "updated_at": "2018-08-11 21:35:51.795711",
    "country": "United States",
    "longitude": "",
    "latitude": "",
    "tags": []
  },
  {
    "id": "rendezvous-junction-brewing-company",
    "name": "Rendezvous Junction Brewing Company",
    "brewery_type": "micro",
    "street": "2001 S Bellview Rd Ste 2",
    "city": "Rogers",
    "state": "Arkansas",
    "postal_code": "72758-4050",
    "website_url": "http://www.rendezvousjunction.com",
    "phone": "4793817501",
    "created_at": "2018-07-24 01:32:50.823534",
    "updated_at": "2018-08-11 21:35:52.341612",
    "country": "United States",
    "longitude": "",
    "latitude": "",
    "tags": []
  },
  {
    "id": "hawk-moth-brewing-co",
    "name": "Hawk Moth Brewing Co",
    "brewery_type": "planning",
    "street": "",
    "city": "rogers",
    "state": "Arkansas",
    "postal_code": "72756",
    "website_url": "",
    "phone": "4796164800",
    "created_at": "2018-07-24 01:32:50.60325",
    "updated_at": "2018-08-23 23:23:20.413679",
    "country": "United States",
    "longitude": "-94.1185366",
    "latitude": "36.3320197",
    "tags": []
  },
  {
    "id": "ozark-beer-company",
    "name": "Ozark Beer Company",
    "brewery_type": "micro",
    "street": "109 N Arkansas St",
    "city": "Rogers",
    "state": "Arkansas",
    "postal_code": "72756-6601",
    "website_url": "http://www.ozarkbeercompany.com",
    "phone": "4796362337",
    "created_at": "2018-07-24 01:32:50.749",
    "updated_at": "2018-08-23 23:23:26.707749",
    "country": "United States",
    "longitude": "-94.1147203",
    "latitude": "36.3335034",
    "tags": []
  },
  {
    "id": "new-province-brewing-company",
    "name": "New Province Brewing Company",
    "brewery_type": "micro",
    "street": "1310 W Hudson Rd",
    "city": "Rogers",
    "state": "Arkansas",
    "postal_code": "72756-2311",
    "website_url": "http://newprovincebrewing.com",
    "phone": "4795313233",
    "created_at": "2018-07-24 01:32:50.722386",
    "updated_at": "2018-08-23 23:23:24.914061",
    "country": "United States",
    "longitude": "-94.1327921626482",
    "latitude": "36.3553520033412",
    "tags": []
  }
]