[
  {
    "id": "free-state-brewing-co",
    "name": "Free State Brewing Co",
    "brewery_type": "brewpub",
    "street": "636 Massachusetts St",
    "city": "Lawrence",
    "state": "Kansas",
    "postal_code": "66044-2236",
    "website_url": "http://www.freestatebrewing.com",
    "phone": "7858434555",
    "created_at": "2018-07-24 01:33:24.734412",
    "updated_at": "2018-08-24 00:38:24.761939",
    "country": "United States",
    "longitude": "-95.2358091579129",
    "latitude": "38.9724346875125",
    "tags": []
  },
  {
    "id": "23rd-street-brewery",
    "name": "23rd Street Brewery",
    "brewery_type": "brewpub",
    "street": "3512 Clinton Pkwy",
    "city": "Lawrence",
    "state": "Kansas",
    "postal_code": "66047-2145",
    "website_url": "http://www.brew23.com",
    "phone": "7858562337",
    "created_at": "2018-07-24 01:33:24.550504",
    "updated_at": "2018-08-24 00:38:19.427771",
    "country": "United States",
    "longitude": "-95.280933528393",
    "latitude": "38.9429674",
    "tags": []
  },
  {
    "id": "free-state-brewing-co-production",
    "name": "Free State Brewing Co - Production",
    "brewery_type": "micro",
    "street": "1923 Moodie Rd",
    "city": "Lawrence",
    "state": "Kansas",
    "postal_code": "66046-3167",
    "website_url": "",
    "phone": "",
    "created_at": "2018-07-24 01:33:24.746131",
    "updated_at": "2018-08-24 00:38:25.293846",
    "country": "United States",
    "longitude": "-95.2258626448196",
    "latitude": "38.9496728381604",
    "tags": []
  },
  {
    "id": "lawrence-beer-company",
    "name": "Lawrence Beer Company",
    "brewery_type": "brewpub",
    "street": "826 Pennsylvania St",
    "city": "Lawrence",
    "state": "Kansas",
    "postal_code": "66044-2754",
    "website_url": "http://www.lawrencebeerco.com",
    "phone": "7858560453",
    "created_at": "2018-07-24 01:33:24.875615",
    "updated_at": "2018-08-24 00:38:30.436497",
    "country": "United States",
    "longitude": "-95.2285539",
    "latitude": "38.9683511",
    "tags": []
  },
  {
    "id": "yankee-tank-brewing-company",
    "name": "Yankee Tank Brewing Company",
    "brewery_type": "micro",
    "street": "807 E 23rd St Ste J",
    "city": "Lawrence",
    "state": "Kansas",
    "postal_code": "66046-4952",
    "website_url": "http://yankeetankbrewing.com",
    "phone": "7852339333",
    "created_at": "2018-07-24 01:33:25.212761",
    "updated_at": "2018-08-11 21:37:26.852105",
    "country": "United States",
    "longitude": "",
    "latitude": "",
    "tags": []
  }
]