[
  {
    "id": "little-apple-brewing-co",
    "name": "Little Apple Brewing Co",
    "brewery_type": "micro",
    "street": "1110 Westloop Pl",
    "city": "Manhattan",
    "state": "Kansas",
    "postal_code": "66502-2838",
    "website_url": "http://www.littleapplebrewery.com",
    "phone": "7855395500",
    "created_at": "2018-07-24 01:33:24.9147",
    "updated_at": "2018-08-24 00:38:31.349637",
    "country": "United States",
    "longitude": "-96.6083689",
    "latitude": "39.1915231",
    "tags": []
  },
  {
    "id": "tallgrass-brewing-co",
    "name": "Tallgrass Brewing Co",
    "brewery_type": "regional",
    "street": "5960 Dry Hop Cir",
    "city": "Manhattan",
    "state": "Kansas",
    "postal_code": "66503-9815",
    "website_url": "http://www.tallgrassbeer.com",
    "phone": "7855371131",
    "created_at": "2018-07-24 01:33:25.03339",
    "updated_at": "2018-08-24 00:38:34.213544",
    "country": "United States",
    "longitude": "-96.6792762",
    "latitude": "39.1428736",
    "tags": []
  },
  {
    "id": "tallgrass-taphouse-co",
    "name": "Tallgrass Taphouse Co",
    "brewery_type": "brewpub",
    "street": "320 Poyntz Ave",
    "city": "Manhattan",
    "state": "Kansas",
    "postal_code": "66502-6038",
    "website_url": "http://www.tallgrasstaphouse.com",
    "phone": "7853202933",
    "created_at": "2018-07-24 01:33:25.046852",
    "updated_at": "2018-08-24 00:38:34.656841",
    "country": "United States",
    "longitude": "-96.561291",
    "latitude": "39.1795046",
    "tags": []
  }
]