[
  {
    "id": "snake-river-brewing-co",
    "name": "Snake River Brewing Co",
    "brewery_type": "micro",
    "street": "265 S Millward St PO Box 3317",
    "city": "Jackson",
    "state": "Wyoming",
    "postal_code": "83001-8582",
    "website_url": "http://www.snakeriverbrewing.com",
    "phone": "3077392337",
    "created_at": "2018-07-24 01:34:37.602878",
    "updated_at": "2018-08-11 21:40:38.773041",
    "country": "United States",
    "longitude": "",
    "latitude": "",
    "tags": []
  },
  {
    "id": "stillwest-brewery-and-grill",
    "name": "StillWest Brewery & Grill",
    "brewery_type": "planning",
    "street": "",
    "city": "Jackson",
    "state": "Wyoming",
    "postal_code": "83001-8668",
    "website_url": "",
    "phone": "2566948187",
    "created_at": "2018-07-24 01:34:37.640629",
    "updated_at": "2018-08-11 21:40:38.862691",
    "country": "United States",
    "longitude": "",
    "latitude": "",
    "tags": []
  },
  {
    "id": "melvin-brewing-co",
    "name": "Melvin Brewing Co",
    "brewery_type": "micro",
    "street": "75 E Pearl Ave",
    "city": "Jackson",
    "state": "Wyoming",
    "postal_code": "83001-8658",
    "website_url": "",
    "phone": "3077330005",
    "created_at": "2018-07-24 01:34:37.513891",
    "updated_at": "2018-08-24 16:46:57.324444",
    "country": "United States",
    "longitude": "-110.761857836735",
    "latitude": "43.4785977755102",
    "tags": []
  },
  {
    "id": "roadhouse-brewing-company",
    "name": "Roadhouse Brewing Company",
    "brewery_type": "micro",
    "street": "1225 Gregory Ln",
    "city": "Jackson",
    "state": "Wyoming",
    "postal_code": "83001-9433",
    "website_url": "http://www.roadhousebrewery.com",
    "phone": "3072641900",
    "created_at": "2018-07-24 01:34:37.564428",
    "updated_at": "2018-08-24 16:47:03.297636",
    "country": "United States",
    "longitude": "-110.796319887865",
    "latitude": "43.4634604115665",
    "tags": []
  }
]