[
  {
    "id": "archetype-brewing",
    "name": "Archetype Brewing",
    "brewery_type": "micro",
    "street": "265 Haywood Rd",
    "city": "Asheville",
    "state": "North Carolina",
    "postal_code": "28806-4545",
    "website_url": "http://www.archetypebrewing.com",
    "phone": "8285054177",
    "created_at": "2018-07-24 01:33:54.882189",
    "updated_at": "2018-08-11 21:38:44.638478",
    "country": "United States",
    "longitude": "",
    "latitude": "",
    "tags": []
  },
  {
    "id": "biltmore-brewing-company",
    "name": "Biltmore Brewing Company",
    "brewery_type": "proprietor",
    "street": "1 N Pack Sq C/O Biltmore Winery Estates",
    "city": "Asheville",
    "state": "North Carolina",
    "postal_code": "28801-3462",
    "website_url": "http://www.biltmore.com",
    "phone": "8004113812",
    "created_at": "2018-07-24 01:33:55.167716",
    "updated_at": "2018-08-11 21:38:45.283178",
    "country": "United States",
    "longitude": "",
    "latitude": "",
    "tags": []
  },
  {
    "id": "asheville-brewing-co",
    "name": "Asheville Brewing Co",
    "brewery_type": "brewpub",
    "street": "77 Coxe Ave",
    "city": "Asheville",
    "state": "North Carolina",
    "postal_code": "28801-3621",
    "website_url": "http://www.ashevillepizza.com",
    "phone": "8282554077",
    "created_at": "2018-07-24 01:33:54.910237",
    "updated_at": "2018-08-24 15:41:00.271537",
    "country": "United States",
    "longitude": "-82.5553054474744",
    "latitude": "35.5917763",
    "tags": []
  },
  {
    "id": "bens-tune-up-/-bens-beer",
    "name": "Ben's Tune-Up / Ben's Beer",
    "brewery_type": "brewpub",
    "street": "195 Hilliard Ave",
    "city": "Asheville",
    "state": "North Carolina",
    "postal_code": "28801-3616",
    "website_url": "http://www.benstuneup.com",
    "phone": "8284247580",
    "created_at": "2018-07-24 01:33:55.102921",
    "updated_at": "2018-08-24 15:41:05.480998",
    "country": "United States",
    "longitude": "-82.5557931",
    "latitude": "35.5912756",
    "tags": []
  },
  {
    "id": "bhramari-brewhouse",
    "name": "Bhramari Brewhouse",
    "brewery_type": "micro",
    "street": "101 S Lexington Ave",
    "city": "Asheville",
    "state": "North Carolina",
    "postal_code": "28801-3309",
    "website_url": "http://www.bhramaribrewing.com",
    "phone": "8282147981",
    "created_at": "2018-07-24 01:33:55.115889",
    "updated_at": "2018-08-24 15:41:06.02324",
    "country": "United States",
    "longitude": "-82.55191879386",
    "latitude": "35.5916676262246",
    "tags": []
  },
  {
    "id": "burial-beer-co-forestry-camp",
    "name": "Burial Beer Co Forestry Camp",
    "brewery_type": "micro",
    "street": "",
    "city": "Asheville",
    "state": "North Carolina",
    "postal_code": "28803-2719",
    "website_url": "",
    "phone": "",
    "created_at": "2018-07-24 01:33:55.678209",
    "updated_at": "2018-08-11 21:38:46.710668",
    "country": "United States",
    "longitude": "",
    "latitude": "",
    "tags": []
  },
  {
    "id": "catawba-brewing-co-asheville",
    "name": "Catawba Brewing Co - Asheville",
    "brewery_type": "micro",
    "street": "63 Brook St Ste 1",
    "city": "Asheville",
    "state": "North Carolina",
    "postal_code": "28803-2685",
    "website_url": "http://www.catawbavalleybrewingcompany.com",
    "phone": "8284247290",
    "created_at": "2018-07-24 01:33:55.755781",
    "updated_at": "2018-08-11 21:38:46.880129",
    "country": "United States",
    "longitude": "",
    "latitude": "",
    "tags": []
  },
  {
    "id": "burial-beer-co",
    "name": "Burial Beer Co",
    "brewery_type": "micro",
    "street": "40 Collier Ave",
    "city": "Asheville",
    "state": "North Carolina",
    "postal_code": "28801-4024",
    "website_url": "http://www.burialbeer.com",
    "phone": "",
    "created_at": "2018-07-24 01:33:55.666087",
    "updated_at": "2018-08-24 15:41:23.454876",
    "country": "United States",
    "longitude": "-82.5537906230192",
    "latitude": "35.5879562",
    "tags": []
  },
  {
    "id": "green-man-brewing-co",
    "name": "Green Man Brewing Co",
    "brewery_type": "micro",
    "street": "27 Buxton Ave",
    "city": "Asheville",
    "state": "North Carolina",
    "postal_code": "28801-4019",
    "website_url": "http://www.greenmanbrewery.com",
    "phone": "8282525502",
    "created_at": "2018-07-24 01:33:56.470437",
    "updated_at": "2018-08-24 15:41:50.096611",
    "country": "United States",
    "longitude": "-82.5536715280212",
    "latitude": "35.5886248998363",
    "tags": []
  },
  {
    "id": "habitat-brewing-co",
    "name": "Habitat Brewing Co",
    "brewery_type": "micro",
    "street": "174 Broadway St",
    "city": "Asheville",
    "state": "North Carolina",
    "postal_code": "28801-2305",
    "website_url": "http://www.habitatbrewing.com",
    "phone": "7047018141",
    "created_at": "2018-07-24 01:33:56.498245",
    "updated_at": "2018-08-24 15:41:50.670853",
    "country": "United States",
    "longitude": "-82.5533973",
    "latitude": "35.5986648",
    "tags": []
  },
  {
    "id": "hillman-beer",
    "name": "Hillman Beer",
    "brewery_type": "brewpub",
    "street": "25 Sweeten Creek Rd",
    "city": "Asheville",
    "state": "North Carolina",
    "postal_code": "28803-2318",
    "website_url": "http://www.hillmanbeer.com",
    "phone": "8285051312",
    "created_at": "2018-07-24 01:33:56.619982",
    "updated_at": "2018-08-24 15:41:54.892505",
    "country": "United States",
    "longitude": "-82.520631",
    "latitude": "35.5139103",
    "tags": []
  },
  {
    "id": "hi-wire-brewing-big-top-production-facility",
    "name": "Hi-Wire Brewing Big Top Production Facility",
    "brewery_type": "micro",
    "street": "2 Huntsman Pl",
    "city": "Asheville",
    "state": "North Carolina",
    "postal_code": "28803-2600",
    "website_url": "http://www.hiwirebrewing.com",
    "phone": "",
    "created_at": "2018-07-24 01:33:56.632661",
    "updated_at": "2018-08-24 15:41:55.361913",
    "country": "United States",
    "longitude": "-82.5456631071331",
    "latitude": "35.5702055141848",
    "tags": []
  },
  {
    "id": "hi-wire-brewing-south-slope-specialty-brewery",
    "name": "Hi-Wire Brewing South Slope Specialty Brewery",
    "brewery_type": "micro",
    "street": "197 Hilliard Ave",
    "city": "Asheville",
    "state": "North Carolina",
    "postal_code": "28801-3616",
    "website_url": "http://www.hiwirebrewing.com",
    "phone": "8285759675",
    "created_at": "2018-07-24 01:33:56.645725",
    "updated_at": "2018-08-24 15:41:55.811907",
    "country": "United States",
    "longitude": "-82.5560374689874",
    "latitude": "35.5912314973118",
    "tags": []
  },
  {
    "id": "lexington-avenue-brewery-the-lab",
    "name": "Lexington Avenue Brewery - The LAB",
    "brewery_type": "brewpub",
    "street": "39 N Lexington Ave",
    "city": "Asheville",
    "state": "North Carolina",
    "postal_code": "28801-2827",
    "website_url": "http://www.lexavebrew.com",
    "phone": "8282520212",
    "created_at": "2018-07-24 01:33:56.964942",
    "updated_at": "2018-08-24 15:42:05.678573",
    "country": "United States",
    "longitude": "-82.5532489",
    "latitude": "35.5961485",
    "tags": []
  },
  {
    "id": "one-world-brewing",
    "name": "One World Brewing",
    "brewery_type": "micro",
    "street": "10 Patton Ave Ste 002",
    "city": "Asheville",
    "state": "North Carolina",
    "postal_code": "28801-3302",
    "website_url": "http://www.oneworldbrewing.com",
    "phone": "8287855580",
    "created_at": "2018-07-24 01:33:57.648101",
    "updated_at": "2018-08-11 21:38:51.269496",
    "country": "United States",
    "longitude": "",
    "latitude": "",
    "tags": []
  },
  {
    "id": "new-belgium-brewing-co",
    "name": "New Belgium Brewing Co",
    "brewery_type": "regional",
    "street": "21 Craven St",
    "city": "Asheville",
    "state": "North Carolina",
    "postal_code": "28806-",
    "website_url": "http://www.newbelgium.com",
    "phone": "8885989552",
    "created_at": "2018-07-24 01:33:57.439807",
    "updated_at": "2018-08-24 15:42:19.453621",
    "country": "United States",
    "longitude": "-82.571942933736",
    "latitude": "35.5879302",
    "tags": []
  },
  {
    "id": "sweeten-creek-brewing",
    "name": "Sweeten Creek Brewing",
    "brewery_type": "brewpub",
    "street": "1127 Sweeten Creek Rd",
    "city": "Asheville",
    "state": "North Carolina",
    "postal_code": "28803-1728",
    "website_url": "http://www.sweetencreekbrewing.com",
    "phone": "8285752785",
    "created_at": "2018-07-24 01:33:58.273528",
    "updated_at": "2018-08-24 15:42:46.662258",
    "country": "United States",
    "longitude": "-82.520631",
    "latitude": "35.5139103",
    "tags": []
  },
  {
    "id": "upcountry-brewing",
    "name": "UpCountry Brewing",
    "brewery_type": "brewpub",
    "street": "1042 Haywood Rd",
    "city": "Asheville",
    "state": "North Carolina",
    "postal_code": "28806-2639",
    "website_url": "http://upcountrybrewing.com/",
    "phone": "8285752400",
    "created_at": "2018-07-24 01:33:58.663255",
    "updated_at": "2018-08-11 21:38:53.56132",
    "country": "United States",
    "longitude": "",
    "latitude": "",
    "tags": []
  },
  {
    "id": "twin-leaf-brewery",
    "name": "Twin Leaf Brewery",
    "brewery_type": "micro",
    "street": "144 Coxe Ave",
    "city": "Asheville",
    "state": "North Carolina",
    "postal_code": "28801-4026",
    "website_url": "http://www.twinleafbrewery.com",
    "phone": "8283332221",
    "created_at": "2018-07-24 01:33:58.625282",
    "updated_at": "2018-08-24 15:42:57.619728",
    "country": "United States",
    "longitude": "-82.5545418535317",
    "latitude": "35.58942485",
    "tags": []
  },
  {
    "id": "wedge-brewing-co",
    "name": "Wedge Brewing Co",
    "brewery_type": "micro",
    "street": "37 Paynes Way Ste 100",
    "city": "Asheville",
    "state": "North Carolina",
    "postal_code": "28801-2626",
    "website_url": "http://www.wedgebrewing.com",
    "phone": "8285052792",
    "created_at": "2018-07-24 01:33:58.757708",
    "updated_at": "2018-08-24 15:43:02.16273",
    "country": "United States",
    "longitude": "-82.5665920052359",
    "latitude": "35.5865571",
    "tags": []
  },
  {
    "id": "white-labs-kitchen-and-tap",
    "name": "White Labs Kitchen and Tap",
    "brewery_type": "brewpub",
    "street": "172 S Charlotte St",
    "city": "Asheville",
    "state": "North Carolina",
    "postal_code": "28801",
    "website_url": "",
    "phone": "8289743868",
    "created_at": "2018-07-24 01:33:58.825012",
    "updated_at": "2018-08-24 15:43:04.595016",
    "country": "United States",
    "longitude": "-82.5490695",
    "latitude": "35.5911334",
    "tags": []
  },
  {
    "id": "brouwerij-cursus-keme",
    "name": "Brouwerij Cursus Keme",
    "brewery_type": "brewpub",
    "street": "155 Thompson St",
    "city": "Asheville",
    "state": "North Carolina",
    "postal_code": "28803-1443",
    "website_url": "",
    "phone": "",
    "created_at": "2018-07-24 01:33:55.598922",
    "updated_at": "2018-08-24 15:41:20.581816",
    "country": "United States",
    "longitude": "-82.5257283663686",
    "latitude": "35.5743884286413",
    "tags": []
  },
  {
    "id": "french-broad-river-brewing-co",
    "name": "French Broad River Brewing Co",
    "brewery_type": "micro",
    "street": "101 Fairview Rd Ste D",
    "city": "Asheville",
    "state": "North Carolina",
    "postal_code": "28803-4301",
    "website_url": "http://www.frenchbroadbrewery.com",
    "phone": "8282770222",
    "created_at": "2018-07-24 01:33:56.302221",
    "updated_at": "2018-08-11 21:38:48.111798",
    "country": "United States",
    "longitude": "",
    "latitude": "",
    "tags": []
  },
  {
    "id": "highland-brewing-co",
    "name": "Highland Brewing Co",
    "brewery_type": "regional",
    "street": "12 Old Charlotte Hwy Ste H",
    "city": "Asheville",
    "state": "North Carolina",
    "postal_code": "28803-9419",
    "website_url": "http://www.highlandbrewing.com",
    "phone": "8282993816",
    "created_at": "2018-07-24 01:33:56.606827",
    "updated_at": "2018-08-11 21:38:48.763052",
    "country": "United States",
    "longitude": "",
    "latitude": "",
    "tags": []
  },
  {
    "id": "oyster-house-brewing-co",
    "name": "Oyster House Brewing Co.",
    "brewery_type": "brewpub",
    "street": "625 Haywood Rd",
    "city": "Asheville",
    "state": "North Carolina",
    "postal_code": "28806-3255",
    "website_url": "http://www.oysterhousebeers.com",
    "phone": "8285759370",
    "created_at": "2018-07-24 01:33:57.714107",
    "updated_at": "2018-08-11 21:38:51.414687",
    "country": "United States",
    "longitude": "",
    "latitude": "",
    "tags": []
  },
  {
    "id": "thirsty-monk-brewery",
    "name": "Thirsty Monk Brewery",
    "brewery_type": "brewpub",
    "street": "92 Patton Ave",
    "city": "Asheville",
    "state": "North Carolina",
    "postal_code": "28801-3315",
    "website_url": "http://www.monkpub.com",
    "phone": "8282545470",
    "created_at": "2018-07-24 01:33:58.421978",
    "updated_at": "2018-08-24 15:42:51.462306",
    "country": "United States",
    "longitude": "-82.5553147520814",
    "latitude": "35.59410425",
    "tags": []
  },
  {
    "id": "wicked-weed-brewing",
    "name": "Wicked Weed Brewing",
    "brewery_type": "large",
    "street": "91 Biltmore Ave",
    "city": "Asheville",
    "state": "North Carolina",
    "postal_code": "28801-3626",
    "website_url": "http://www.wickedweedbrewing.com",
    "phone": "8285759599",
    "created_at": "2018-07-24 01:33:58.865259",
    "updated_at": "2018-08-24 15:43:05.943755",
    "country": "United States",
    "longitude": "-82.5510683176403",
    "latitude": "35.5916712",
    "tags": []
  }
]