[
  {
    "id": "twenty-six-acres-brewing-company",
    "name": "Twenty-Six Acres Brewing Company",
    "brewery_type": "micro",
    "street": "7285 Westwinds Blvd NW",
    "city": "Concord",
    "state": "North Carolina",
    "postal_code": "28027-3310",
    "website_url": "http://www.26acres.com",
    "phone": "9802772337",
    "created_at": "2018-07-24 01:33:58.611029",
    "updated_at": "2018-08-24 15:42:57.186196",
    "country": "United States",
    "longitude": "-80.7219270261999",
    "latitude": "35.3861774847151",
    "tags": []
  },
  {
    "id": "commoners-brewing-company",
    "name": "Commoners Brewing Company",
    "brewery_type": "micro",
    "street": "1048 Copperfield Blvd Ste 101",
    "city": "Concord",
    "state": "North Carolina",
    "postal_code": "28025",
    "website_url": "http://www.commonersbrewingcompany.com",
    "phone": "7048866002",
    "created_at": "2018-07-24 01:33:55.856297",
    "updated_at": "2018-08-11 21:38:47.113632",
    "country": "United States",
    "longitude": "",
    "latitude": "",
    "tags": []
  },
  {
    "id": "cabarrus-brewing-company",
    "name": "Cabarrus Brewing Company",
    "brewery_type": "micro",
    "street": "329 McGill Ave NW",
    "city": "Concord",
    "state": "North Carolina",
    "postal_code": "28027-6149",
    "website_url": "http://www.cabarrusbrewing.com",
    "phone": "7044904487",
    "created_at": "2018-07-24 01:33:55.691211",
    "updated_at": "2018-08-24 15:41:23.920154",
    "country": "United States",
    "longitude": "-80.6060002786602",
    "latitude": "35.4157357821076",
    "tags": []
  },
  {
    "id": "high-branch-brewing-co",
    "name": "High Branch Brewing Co",
    "brewery_type": "micro",
    "street": "325 McGill Ave NW Ste 148",
    "city": "Concord",
    "state": "North Carolina",
    "postal_code": "28027-0011",
    "website_url": "",
    "phone": "",
    "created_at": "2018-07-24 01:33:56.593045",
    "updated_at": "2018-08-11 21:38:48.732491",
    "country": "United States",
    "longitude": "",
    "latitude": "",
    "tags": []
  },
  {
    "id": "red-hill-brewing-co",
    "name": "Red Hill Brewing Co",
    "brewery_type": "micro",
    "street": "21 Union St S",
    "city": "Concord",
    "state": "North Carolina",
    "postal_code": "28025-5009",
    "website_url": "http://www.redhillbrewing.com",
    "phone": "7047842337",
    "created_at": "2018-07-24 01:33:57.901197",
    "updated_at": "2018-08-24 15:42:32.603074",
    "country": "United States",
    "longitude": "-80.5806658",
    "latitude": "35.41030435",
    "tags": []
  }
]