[
  {
    "id": "bull-durham-beer-co",
    "name": "Bull Durham Beer Co",
    "brewery_type": "micro",
    "street": "409 Blackwell St",
    "city": "Durham",
    "state": "North Carolina",
    "postal_code": "27701-3972",
    "website_url": "http://www.bulldurhambeer.com",
    "phone": "9197443568",
    "created_at": "2018-07-24 01:33:55.653107",
    "updated_at": "2018-08-24 15:41:22.982849",
    "country": "United States",
    "longitude": "-78.90481567784",
    "latitude": "35.9915653",
    "tags": []
  },
  {
    "id": "ponysaurus-brewing-company",
    "name": "Ponysaurus Brewing Company",
    "brewery_type": "brewpub",
    "street": "219 Hood St",
    "city": "Durham",
    "state": "North Carolina",
    "postal_code": "27701-3715",
    "website_url": "http://www.ponysaurusbrewing.com",
    "phone": "9784827701",
    "created_at": "2018-07-24 01:33:57.813725",
    "updated_at": "2018-08-24 15:42:29.557838",
    "country": "United States",
    "longitude": "-78.8939992244898",
    "latitude": "35.990086244898",
    "tags": []
  },
  {
    "id": "barrel-culture-brewing-and-blending",
    "name": "Barrel Culture Brewing And Blending",
    "brewery_type": "proprietor",
    "street": "4913 S Alston Ave",
    "city": "Durham",
    "state": "North Carolina",
    "postal_code": "27713-4424",
    "website_url": "",
    "phone": "",
    "created_at": "2018-07-24 01:33:54.990729",
    "updated_at": "2018-08-24 15:41:03.447147",
    "country": "United States",
    "longitude": "-78.8889165519659",
    "latitude": "35.8944573651364",
    "tags": []
  },
  {
    "id": "durty-bull-brewing-co",
    "name": "Durty Bull Brewing Co.",
    "brewery_type": "micro",
    "street": "206 Broadway St Ste 104",
    "city": "Durham",
    "state": "North Carolina",
    "postal_code": "27701-2404",
    "website_url": "http://www.durtybull.com",
    "phone": "9196882337",
    "created_at": "2018-07-24 01:33:56.034213",
    "updated_at": "2018-08-11 21:38:47.513038",
    "country": "United States",
    "longitude": "",
    "latitude": "",
    "tags": []
  },
  {
    "id": "fullsteam-brewery",
    "name": "Fullsteam Brewery",
    "brewery_type": "micro",
    "street": "726 Rigsbee Ave",
    "city": "Durham",
    "state": "North Carolina",
    "postal_code": "27701-2139",
    "website_url": "http://www.fullsteam.ag",
    "phone": "9196822337",
    "created_at": "2018-07-24 01:33:56.342175",
    "updated_at": "2018-08-24 15:41:45.739266",
    "country": "United States",
    "longitude": "-78.8995943502541",
    "latitude": "36.00310675",
    "tags": []
  },
  {
    "id": "hi-wire-brewing-taproom",
    "name": "Hi-Wire Brewing Taproom",
    "brewery_type": "planning",
    "street": "",
    "city": "Durham",
    "state": "North Carolina",
    "postal_code": "27701",
    "website_url": "",
    "phone": "",
    "created_at": "2018-07-24 01:33:56.657728",
    "updated_at": "2018-08-11 21:38:48.877808",
    "country": "United States",
    "longitude": "",
    "latitude": "",
    "tags": []
  },
  {
    "id": "modern-romance-brewery",
    "name": "Modern Romance Brewery",
    "brewery_type": "planning",
    "street": "",
    "city": "Durham",
    "state": "North Carolina",
    "postal_code": "27703-5133",
    "website_url": "http://www.drinkmodern.com",
    "phone": "9192594469",
    "created_at": "2018-07-24 01:33:57.25511",
    "updated_at": "2018-08-11 21:38:50.353567",
    "country": "United States",
    "longitude": "",
    "latitude": "",
    "tags": []
  },
  {
    "id": "the-glass-jug",
    "name": "The Glass Jug",
    "brewery_type": "micro",
    "street": "5410 Nc Highway 55 Ste V",
    "city": "Durham",
    "state": "North Carolina",
    "postal_code": "27713-7802",
    "website_url": "http://www.glass-jug.com",
    "phone": "9198186907",
    "created_at": "2018-07-24 01:33:58.341455",
    "updated_at": "2018-08-11 21:38:52.856514",
    "country": "United States",
    "longitude": "",
    "latitude": "",
    "tags": []
  },
  {
    "id": "bull-city-burger-and-brewery",
    "name": "Bull City Burger And Brewery",
    "brewery_type": "brewpub",
    "street": "107 E Parrish St Ste 105",
    "city": "Durham",
    "state": "North Carolina",
    "postal_code": "27701-3318",
    "website_url": "http://www.bullcityburgerandbrewery.com",
    "phone": "9196802333",
    "created_at": "2018-07-24 01:33:55.638752",
    "updated_at": "2018-08-11 21:38:46.602475",
    "country": "United States",
    "longitude": "",
    "latitude": "",
    "tags": []
  }
]