[
  {
    "id": "lake-gaston-brewing-company",
    "name": "Lake Gaston Brewing Company",
    "brewery_type": "brewpub",
    "street": "124 Hay St",
    "city": "Fayetteville",
    "state": "North Carolina",
    "postal_code": "28301-5650",
    "website_url": "http://www.lakegastonbrew.com",
    "phone": "9107790444",
    "created_at": "2018-07-24 01:33:56.912793",
    "updated_at": "2018-08-24 15:42:03.638691",
    "country": "United States",
    "longitude": "-78.8788145510204",
    "latitude": "35.0528321020408",
    "tags": []
  },
  {
    "id": "mash-house-restaurant-and-brewery",
    "name": "Mash House Restaurant & Brewery",
    "brewery_type": "brewpub",
    "street": "4150 Sycamore Dairy Rd",
    "city": "Fayetteville",
    "state": "North Carolina",
    "postal_code": "28303-3459",
    "website_url": "http://www.themashhouse.com",
    "phone": "9108679223",
    "created_at": "2018-07-24 01:33:57.171315",
    "updated_at": "2018-08-24 15:42:12.393594",
    "country": "United States",
    "longitude": "-78.956548307397",
    "latitude": "35.0746817120553",
    "tags": []
  },
  {
    "id": "brewery-in-planning-fayetteville",
    "name": "Brewery In Planning - Fayetteville",
    "brewery_type": "planning",
    "street": "",
    "city": "Fayetteville",
    "state": "North Carolina",
    "postal_code": "28303-4660",
    "website_url": "",
    "phone": "",
    "created_at": "2018-07-24 01:33:55.452344",
    "updated_at": "2018-08-11 21:38:46.059823",
    "country": "United States",
    "longitude": "",
    "latitude": "",
    "tags": []
  },
  {
    "id": "bright-light-brewing-company",
    "name": "Bright Light Brewing Company",
    "brewery_type": "micro",
    "street": "444 W Russel St Ste 102",
    "city": "Fayetteville",
    "state": "North Carolina",
    "postal_code": "28301",
    "website_url": "",
    "phone": "9103390464",
    "created_at": "2018-07-24 01:33:55.56145",
    "updated_at": "2018-08-11 21:38:46.406268",
    "country": "United States",
    "longitude": "",
    "latitude": "",
    "tags": []
  },
  {
    "id": "huske-hardware-house-brewing-co",
    "name": "Huske Hardware House Brewing Co",
    "brewery_type": "brewpub",
    "street": "405 Hay St",
    "city": "Fayetteville",
    "state": "North Carolina",
    "postal_code": "28301-5537",
    "website_url": "http://www.huskehardware.com",
    "phone": "9104265650",
    "created_at": "2018-07-24 01:33:56.734663",
    "updated_at": "2018-08-24 15:41:58.78852",
    "country": "United States",
    "longitude": "-78.8824913061224",
    "latitude": "35.0539305102041",
    "tags": []
  }
]