[
  {
    "id": "3rd-degree-brewhouse",
    "name": "3rd Degree Brewhouse",
    "brewery_type": "micro",
    "street": "1625 N Main St",
    "city": "Fuquay Varina",
    "state": "North Carolina",
    "postal_code": "27526",
    "website_url": "http://www.facebook.com/3rddegreebrewhouse/",
    "phone": "9192015457",
    "created_at": "2018-07-24 01:33:54.816645",
    "updated_at": "2018-08-24 15:40:57.84585",
    "country": "United States",
    "longitude": "-78.794223",
    "latitude": "35.5914556",
    "tags": []
  },
  {
    "id": "aviator-brewing-company",
    "name": "Aviator Brewing Company",
    "brewery_type": "regional",
    "street": "209 Technology Park Ln",
    "city": "Fuquay Varina",
    "state": "North Carolina",
    "postal_code": "27526-9311",
    "website_url": "http://www.aviatorbrew.com",
    "phone": "9195672337",
    "created_at": "2018-07-24 01:33:54.935632",
    "updated_at": "2018-08-24 15:41:01.328183",
    "country": "United States",
    "longitude": "-78.807389599939",
    "latitude": "35.6169598306954",
    "tags": []
  },
  {
    "id": "fainting-goat-brewing-company",
    "name": "Fainting Goat Brewing Company",
    "brewery_type": "micro",
    "street": "330 S Main St",
    "city": "Fuquay Varina",
    "state": "North Carolina",
    "postal_code": "27526-2225",
    "website_url": "http://www.faintinggoatbeer.com",
    "phone": "9193950642",
    "created_at": "2018-07-24 01:33:56.1138",
    "updated_at": "2018-08-24 15:41:39.243776",
    "country": "United States",
    "longitude": "-78.8000193260112",
    "latitude": "35.5812855",
    "tags": []
  },
  {
    "id": "oaklyn-springs-brewery",
    "name": "Oaklyn Springs Brewery",
    "brewery_type": "planning",
    "street": "",
    "city": "Fuquay Varina",
    "state": "North Carolina",
    "postal_code": "27526-5499",
    "website_url": "http://www.oaklynspringsbrewery.com",
    "phone": "9192800046",
    "created_at": "2018-07-24 01:33:57.583148",
    "updated_at": "2018-08-11 21:38:51.131007",
    "country": "United States",
    "longitude": "",
    "latitude": "",
    "tags": []
  },
  {
    "id": "mason-jar-lager-co",
    "name": "Mason Jar Lager Co.",
    "brewery_type": "micro",
    "street": "341 Broad St # 151",
    "city": "Fuquay Varina",
    "state": "North Carolina",
    "postal_code": "27526-1703",
    "website_url": "http://www.masonjarlagerco.com",
    "phone": "9195575303",
    "created_at": "2018-07-24 01:33:57.185643",
    "updated_at": "2018-08-24 15:42:12.910579",
    "country": "United States",
    "longitude": "-78.8026696",
    "latitude": "35.6015909",
    "tags": []
  }
]