[
  {
    "id": "bark-brewing-company",
    "name": "Bark Brewing Company",
    "brewery_type": "brewpub",
    "street": "3021 Spring Garden St",
    "city": "Greensboro",
    "state": "North Carolina",
    "postal_code": "27403-1968",
    "website_url": "http://barkbrewingcompany.com",
    "phone": "3368561406",
    "created_at": "2018-07-24 01:33:54.965272",
    "updated_at": "2018-08-24 15:41:02.410861",
    "country": "United States",
    "longitude": "-79.8436043406271",
    "latitude": "36.0620103554184",
    "tags": []
  },
  {
    "id": "joymongers-brewing-co",
    "name": "Joymongers Brewing Co.",
    "brewery_type": "micro",
    "street": "576 N Eugene St",
    "city": "Greensboro",
    "state": "North Carolina",
    "postal_code": "27401",
    "website_url": "http://www.joymongers.com",
    "phone": "3367635255",
    "created_at": "2018-07-24 01:33:56.849679",
    "updated_at": "2018-08-24 15:42:01.74712",
    "country": "United States",
    "longitude": "-79.7938094489796",
    "latitude": "36.0787189591837",
    "tags": []
  },
  {
    "id": "g-mansfield-inc",
    "name": "G. Mansfield, Inc",
    "brewery_type": "planning",
    "street": "",
    "city": "Greensboro",
    "state": "North Carolina",
    "postal_code": "27403-2744",
    "website_url": "",
    "phone": "3363370757",
    "created_at": "2018-07-24 01:33:56.367045",
    "updated_at": "2018-08-11 21:38:48.249522",
    "country": "United States",
    "longitude": "",
    "latitude": "",
    "tags": []
  },
  {
    "id": "gibbs-hundred-brewing-company",
    "name": "Gibb's Hundred Brewing Company",
    "brewery_type": "micro",
    "street": "504 State St",
    "city": "Greensboro",
    "state": "North Carolina",
    "postal_code": "27405",
    "website_url": "http://www.gibbshundred.com",
    "phone": "3367637087",
    "created_at": "2018-07-24 01:33:56.405101",
    "updated_at": "2018-08-24 15:41:48.003393",
    "country": "United States",
    "longitude": "-79.783217",
    "latitude": "36.101006",
    "tags": []
  },
  {
    "id": "little-brother-brewing",
    "name": "Little Brother Brewing",
    "brewery_type": "micro",
    "street": "348 S Elm St",
    "city": "Greensboro",
    "state": "North Carolina",
    "postal_code": "27401-2606",
    "website_url": "http://Www.littlebrotherbrew.com",
    "phone": "7049990577",
    "created_at": "2018-07-24 01:33:56.991043",
    "updated_at": "2018-08-24 15:42:06.206417",
    "country": "United States",
    "longitude": "-79.7907703",
    "latitude": "36.0686165",
    "tags": []
  },
  {
    "id": "natty-greenes-brewing-co",
    "name": "Natty Greene's Brewing Co",
    "brewery_type": "regional",
    "street": "1918 W Gate City Blvd",
    "city": "Greensboro",
    "state": "North Carolina",
    "postal_code": "27403-2615",
    "website_url": "http://www.nattygreenes.com",
    "phone": "3362741373",
    "created_at": "2018-07-24 01:33:57.345993",
    "updated_at": "2018-08-24 15:42:16.957492",
    "country": "United States",
    "longitude": "-79.7923996",
    "latitude": "36.0646259",
    "tags": []
  },
  {
    "id": "pig-pounder-brewery",
    "name": "Pig Pounder Brewery",
    "brewery_type": "micro",
    "street": "1107 Grecade St",
    "city": "Greensboro",
    "state": "North Carolina",
    "postal_code": "27408-8709",
    "website_url": "http://www.pigpounder.com",
    "phone": "3365531290",
    "created_at": "2018-07-24 01:33:57.739035",
    "updated_at": "2018-08-24 15:42:28.049164",
    "country": "United States",
    "longitude": "-79.804196",
    "latitude": "36.084466",
    "tags": []
  },
  {
    "id": "preyer-brewing-company",
    "name": "Preyer Brewing Company",
    "brewery_type": "micro",
    "street": "600 A-B Battleground Ave",
    "city": "Greensboro",
    "state": "North Carolina",
    "postal_code": "27401-2015",
    "website_url": "http://www.preyerbrewing.com",
    "phone": "3362569450",
    "created_at": "2018-07-24 01:33:57.827109",
    "updated_at": "2018-08-11 21:38:51.703262",
    "country": "United States",
    "longitude": "",
    "latitude": "",
    "tags": []
  },
  {
    "id": "natty-greenes-pub-and-brewing-co",
    "name": "Natty Greene's Pub & Brewing Co",
    "brewery_type": "brewpub",
    "street": "345 S Elm St",
    "city": "Greensboro",
    "state": "North Carolina",
    "postal_code": "27401-2603",
    "website_url": "http://www.nattygreenes.com",
    "phone": "3368566111",
    "created_at": "2018-07-24 01:33:57.359505",
    "updated_at": "2018-08-24 15:42:17.438649",
    "country": "United States",
    "longitude": "-79.7903852",
    "latitude": "36.0686458",
    "tags": []
  }
]