[
  {
    "id": "flytrap-brewing",
    "name": "Flytrap Brewing",
    "brewery_type": "micro",
    "street": "319 Walnut St",
    "city": "Wilmington",
    "state": "North Carolina",
    "postal_code": "28401-4051",
    "website_url": "http://flytrapbrewing.com",
    "phone": "9107692881",
    "created_at": "2018-07-24 01:33:56.164878",
    "updated_at": "2018-08-24 15:41:40.833863",
    "country": "United States",
    "longitude": "-77.9454578768839",
    "latitude": "34.24034335",
    "tags": []
  },
  {
    "id": "brewery-in-planning-hendersonville",
    "name": "Brewery in Planning - Hendersonville",
    "brewery_type": "planning",
    "street": "",
    "city": "Wilmington",
    "state": "North Carolina",
    "postal_code": "28403",
    "website_url": "",
    "phone": "2526363543",
    "created_at": "2018-07-24 01:33:55.464169",
    "updated_at": "2018-08-11 21:38:46.091984",
    "country": "United States",
    "longitude": "",
    "latitude": "",
    "tags": []
  },
  {
    "id": "bills-brewing-co",
    "name": "Bill's Brewing Co.",
    "brewery_type": "brewpub",
    "street": "4238 Market St.",
    "city": "Wilmington",
    "state": "North Carolina",
    "postal_code": "28403",
    "website_url": "http://www.billsfrontporch.com",
    "phone": "9107626333",
    "created_at": "2018-07-24 01:33:55.141687",
    "updated_at": "2018-08-24 15:41:07.093448",
    "country": "United States",
    "longitude": "-77.892361",
    "latitude": "34.242224",
    "tags": []
  },
  {
    "id": "bills-front-porch-pub-and-brewery",
    "name": "Bill's Front Porch Pub and Brewery",
    "brewery_type": "brewpub",
    "street": "4238 Market St",
    "city": "Wilmington",
    "state": "North Carolina",
    "postal_code": "28403-1409",
    "website_url": "http://www.billsfrontporch.com",
    "phone": "9107626333",
    "created_at": "2018-07-24 01:33:55.155629",
    "updated_at": "2018-08-24 15:41:07.537677",
    "country": "United States",
    "longitude": "-77.892361",
    "latitude": "34.242224",
    "tags": []
  },
  {
    "id": "broomtail-craft-brewery",
    "name": "Broomtail Craft Brewery",
    "brewery_type": "micro",
    "street": "6404 Amsterdam Way Ste 100",
    "city": "Wilmington",
    "state": "North Carolina",
    "postal_code": "28405-2563",
    "website_url": "http://www.broomtailcraftbrewery.com",
    "phone": "9102641369",
    "created_at": "2018-07-24 01:33:55.586139",
    "updated_at": "2018-08-11 21:38:46.458955",
    "country": "United States",
    "longitude": "",
    "latitude": "",
    "tags": []
  },
  {
    "id": "flying-machine-brewing-company",
    "name": "Flying Machine Brewing Company",
    "brewery_type": "planning",
    "street": "",
    "city": "Wilmington",
    "state": "North Carolina",
    "postal_code": "28403",
    "website_url": "http://www.facebook.com/flyingmachinebrewing",
    "phone": "",
    "created_at": "2018-07-24 01:33:56.151616",
    "updated_at": "2018-08-11 21:38:47.7645",
    "country": "United States",
    "longitude": "",
    "latitude": "",
    "tags": []
  },
  {
    "id": "edward-teach-brewing",
    "name": "Edward Teach Brewing",
    "brewery_type": "micro",
    "street": "604 N 4th St",
    "city": "Wilmington",
    "state": "North Carolina",
    "postal_code": "28401",
    "website_url": "",
    "phone": "9105235401",
    "created_at": "2018-07-24 01:33:56.075101",
    "updated_at": "2018-08-24 15:41:37.58247",
    "country": "United States",
    "longitude": "-77.945422",
    "latitude": "34.242576",
    "tags": []
  },
  {
    "id": "front-street-brewery",
    "name": "Front Street Brewery",
    "brewery_type": "brewpub",
    "street": "9 N Front St",
    "city": "Wilmington",
    "state": "North Carolina",
    "postal_code": "28401-4436",
    "website_url": "http://www.frontstreetbrewery.com",
    "phone": "9102511935",
    "created_at": "2018-07-24 01:33:56.32879",
    "updated_at": "2018-08-24 15:41:45.302332",
    "country": "United States",
    "longitude": "-77.9488688333333",
    "latitude": "34.2357825",
    "tags": []
  },
  {
    "id": "ironclad-brewery",
    "name": "Ironclad Brewery",
    "brewery_type": "micro",
    "street": "115 N 2nd St",
    "city": "Wilmington",
    "state": "North Carolina",
    "postal_code": "28401-3936",
    "website_url": "http://www.ironcladbrewery.com",
    "phone": "9107690290",
    "created_at": "2018-07-24 01:33:56.785889",
    "updated_at": "2018-08-24 15:42:00.282261",
    "country": "United States",
    "longitude": "-77.9476721428571",
    "latitude": "34.2367162857143",
    "tags": []
  },
  {
    "id": "mad-mole-brewing-llc",
    "name": "Mad Mole Brewing LLC",
    "brewery_type": "micro",
    "street": "6309 Boathouse Rd Ste C",
    "city": "Wilmington",
    "state": "North Carolina",
    "postal_code": "28403-3576",
    "website_url": "http://www.madmolebrewing.com",
    "phone": "9108598115",
    "created_at": "2018-07-24 01:33:57.145437",
    "updated_at": "2018-08-11 21:38:50.12258",
    "country": "United States",
    "longitude": "",
    "latitude": "",
    "tags": []
  },
  {
    "id": "new-anthem-beer-project",
    "name": "New Anthem Beer Project",
    "brewery_type": "micro",
    "street": "116 Dock St",
    "city": "Wilmington",
    "state": "North Carolina",
    "postal_code": "28401-4433",
    "website_url": "http://www.newanthembeer.com",
    "phone": "9103994683",
    "created_at": "2018-07-24 01:33:57.426218",
    "updated_at": "2018-08-24 15:42:18.934463",
    "country": "United States",
    "longitude": "-77.9482695918367",
    "latitude": "34.2341397142857",
    "tags": []
  },
  {
    "id": "tek-mountain-brewing",
    "name": "Tek Mountain Brewing",
    "brewery_type": "micro",
    "street": "1844 Sir Tyler Dr",
    "city": "Wilmington",
    "state": "North Carolina",
    "postal_code": "28405-8305",
    "website_url": "http://www.facebook.com/groups/TekMountainBrewing/",
    "phone": "9104705334",
    "created_at": "2018-07-24 01:33:58.312611",
    "updated_at": "2018-08-24 15:42:48.092962",
    "country": "United States",
    "longitude": "-77.8239016974168",
    "latitude": "34.242240420821",
    "tags": []
  },
  {
    "id": "watermans-brewing-co",
    "name": "Waterman's Brewing Co",
    "brewery_type": "brewpub",
    "street": "1610 Pavillion Pl",
    "city": "Wilmington",
    "state": "North Carolina",
    "postal_code": "28403-3735",
    "website_url": "http://www.watermansbrewing.com",
    "phone": "9108393103",
    "created_at": "2018-07-24 01:33:58.744483",
    "updated_at": "2018-08-11 21:38:53.736223",
    "country": "United States",
    "longitude": "",
    "latitude": "",
    "tags": []
  },
  {
    "id": "waterline-brewing-co",
    "name": "Waterline Brewing Co.",
    "brewery_type": "micro",
    "street": "721 Surrey St",
    "city": "Wilmington",
    "state": "North Carolina",
    "postal_code": "28401-5043",
    "website_url": "http://www.waterlinebrewing.com",
    "phone": "9107778955",
    "created_at": "2018-07-24 01:33:58.729365",
    "updated_at": "2018-08-24 15:43:01.138971",
    "country": "United States",
    "longitude": "-77.9488406652162",
    "latitude": "34.2260974602254",
    "tags": []
  },
  {
    "id": "wilmington-brewing-company",
    "name": "Wilmington Brewing Company",
    "brewery_type": "micro",
    "street": "824 S Kerr Ave",
    "city": "Wilmington",
    "state": "North Carolina",
    "postal_code": "28403-8426",
    "website_url": "http://www.wilmingtonbeer.com",
    "phone": "9103923315",
    "created_at": "2018-07-24 01:33:58.917606",
    "updated_at": "2018-08-24 15:43:07.745597",
    "country": "United States",
    "longitude": "-77.8868023066094",
    "latitude": "34.2213165",
    "tags": []
  },
  {
    "id": "wrightsville-beach-brewery",
    "name": "Wrightsville Beach Brewery",
    "brewery_type": "brewpub",
    "street": "6201 Oleander Dr",
    "city": "Wilmington",
    "state": "North Carolina",
    "postal_code": "28403-3535",
    "website_url": "http://www.wbbeer.com",
    "phone": "9102564938",
    "created_at": "2018-07-24 01:33:58.97052",
    "updated_at": "2018-08-24 15:43:09.259834",
    "country": "United States",
    "longitude": "-77.836851",
    "latitude": "34.210452",
    "tags": []
  }
]