[
  {
    "id": "brewery-in-planning-winston-salem",
    "name": "Brewery in Planning - Winston Salem",
    "brewery_type": "planning",
    "street": "",
    "city": "Winston Salem",
    "state": "North Carolina",
    "postal_code": "27106-5015",
    "website_url": "",
    "phone": "3366922022",
    "created_at": "2018-07-24 01:33:55.537345",
    "updated_at": "2018-08-11 21:38:46.346496",
    "country": "United States",
    "longitude": "",
    "latitude": "",
    "tags": []
  },
  {
    "id": "cavern-brewing-at-lowes-foods",
    "name": "Cavern Brewing At Lowes Foods",
    "brewery_type": "brewpub",
    "street": "1381 Old Mill Cir Ste 200",
    "city": "Winston Salem",
    "state": "North Carolina",
    "postal_code": "27103-1497",
    "website_url": "http://www.lowesfoods.com",
    "phone": "3367753007",
    "created_at": "2018-07-24 01:33:55.800961",
    "updated_at": "2018-08-11 21:38:46.961123",
    "country": "United States",
    "longitude": "",
    "latitude": "",
    "tags": []
  },
  {
    "id": "fiddlin-fish-brewing-company",
    "name": "Fiddlin' Fish Brewing Company",
    "brewery_type": "micro",
    "street": "772 N Trade St.",
    "city": "Winston Salem",
    "state": "North Carolina",
    "postal_code": "27101",
    "website_url": "http://www.fiddlinfish.com",
    "phone": "3364079671",
    "created_at": "2018-07-24 01:33:56.126628",
    "updated_at": "2018-08-11 21:38:47.705762",
    "country": "United States",
    "longitude": "",
    "latitude": "",
    "tags": []
  },
  {
    "id": "foothills-brewing-co",
    "name": "Foothills Brewing Co",
    "brewery_type": "regional",
    "street": "3800 Kimwell Dr",
    "city": "Winston Salem",
    "state": "North Carolina",
    "postal_code": "27103-6708",
    "website_url": "http://www.foothillsbrewing.com",
    "phone": "3363544030",
    "created_at": "2018-07-24 01:33:56.204954",
    "updated_at": "2018-08-24 15:41:41.732278",
    "country": "United States",
    "longitude": "-80.3268051463415",
    "latitude": "36.0481642621951",
    "tags": []
  },
  {
    "id": "foothills-brewing-co-brewpub",
    "name": "Foothills Brewing Co Brewpub",
    "brewery_type": "brewpub",
    "street": "638 W 4th St",
    "city": "Winston Salem",
    "state": "North Carolina",
    "postal_code": "27101-2730",
    "website_url": "http://www.foothillsbrewing.com",
    "phone": "3367773348",
    "created_at": "2018-07-24 01:33:56.219087",
    "updated_at": "2018-08-24 15:41:42.237497",
    "country": "United States",
    "longitude": "-80.250852122449",
    "latitude": "36.0976512040816",
    "tags": []
  },
  {
    "id": "hoots-beer-co",
    "name": "HOOTS Beer Co.",
    "brewery_type": "micro",
    "street": "840 Mill Works St",
    "city": "Winston Salem",
    "state": "North Carolina",
    "postal_code": "27101-1243",
    "website_url": "http://www.hootspublic.com",
    "phone": "3366086026",
    "created_at": "2018-07-24 01:33:56.682074",
    "updated_at": "2018-08-11 21:38:48.938322",
    "country": "United States",
    "longitude": "",
    "latitude": "",
    "tags": []
  },
  {
    "id": "small-batch-beer-co",
    "name": "Small Batch Beer Co",
    "brewery_type": "brewpub",
    "street": "241 W 5th St",
    "city": "Winston Salem",
    "state": "North Carolina",
    "postal_code": "27101-2825",
    "website_url": "http://www.smallbatchws.com",
    "phone": "3368936395",
    "created_at": "2018-07-24 01:33:58.122922",
    "updated_at": "2018-08-24 15:42:41.271646",
    "country": "United States",
    "longitude": "-80.2465619387755",
    "latitude": "36.0998405714286",
    "tags": []
  },
  {
    "id": "wise-man-brewing",
    "name": "Wise Man Brewing",
    "brewery_type": "micro",
    "street": "826 Angelo Brothers Ave",
    "city": "Winston-Salem",
    "state": "North Carolina",
    "postal_code": "27101",
    "website_url": "http://www.wisemanbrewing.com",
    "phone": "3367250008",
    "created_at": "2018-07-24 01:33:58.93138",
    "updated_at": "2018-08-11 21:38:54.276444",
    "country": "United States",
    "longitude": "",
    "latitude": "",
    "tags": []
  },
  {
    "id": "incendiary-brewing-company",
    "name": "Incendiary Brewing Company",
    "brewery_type": "planning",
    "street": "",
    "city": "Winston Salem",
    "state": "North Carolina",
    "postal_code": "27101",
    "website_url": "http://www.incendiarybrewing.com",
    "phone": "3369999999",
    "created_at": "2018-07-24 01:33:56.760792",
    "updated_at": "2018-08-11 21:38:49.230113",
    "country": "United States",
    "longitude": "",
    "latitude": "",
    "tags": []
  }
]