[
  {
    "id": "gordon-biersch-brewery-restaurant-new-orleans",
    "name": "Gordon Biersch Brewery Restaurant - New Orleans",
    "brewery_type": "brewpub",
    "street": "200 Poydras St",
    "city": "New Orleans",
    "state": "Louisiana",
    "postal_code": "70130-1641",
    "website_url": "http://www.craftworksrestaurants.com",
    "phone": "5045522739",
    "created_at": "2018-07-24 01:33:26.327127",
    "updated_at": "2018-08-24 00:39:15.915135",
    "country": "United States",
    "longitude": "-90.0651027",
    "latitude": "29.9481058",
    "tags": []
  },
  {
    "id": "wayward-owl-brewing-company",
    "name": "Wayward Owl Brewing Company",
    "brewery_type": "micro",
    "street": "3940 Thalia St",
    "city": "New Orleans",
    "state": "Louisiana",
    "postal_code": "70125-2008",
    "website_url": "http://www.waywardowlbrewing.com",
    "phone": "5048271646",
    "created_at": "2018-07-24 01:33:26.642268",
    "updated_at": "2018-08-24 00:39:28.572982",
    "country": "United States",
    "longitude": "-90.0975913741154",
    "latitude": "29.9521547",
    "tags": []
  },
  {
    "id": "dixie-brewing-co-inc",
    "name": "Dixie Brewing Co Inc.",
    "brewery_type": "contract",
    "street": "6221 S Claiborne Ave Ste 101",
    "city": "New Orleans",
    "state": "Louisiana",
    "postal_code": "70125-4191",
    "website_url": "",
    "phone": "5048228711",
    "created_at": "2018-07-24 01:33:26.241188",
    "updated_at": "2018-08-11 21:37:29.011791",
    "country": "United States",
    "longitude": "",
    "latitude": "",
    "tags": []
  },
  {
    "id": "dixie-brewing-company-llc",
    "name": "Dixie Brewing Company, LLC",
    "brewery_type": "contract",
    "street": "1450 Poydras St Ste 580",
    "city": "New Orleans",
    "state": "Louisiana",
    "postal_code": "70112-1227",
    "website_url": "http://www.dixiebeer.com",
    "phone": "5059176071",
    "created_at": "2018-07-24 01:33:26.256283",
    "updated_at": "2018-08-11 21:37:29.039877",
    "country": "United States",
    "longitude": "",
    "latitude": "",
    "tags": []
  },
  {
    "id": "brieux-carre-brewing-company",
    "name": "Brieux Carre Brewing Company",
    "brewery_type": "micro",
    "street": "2115 Decatur St",
    "city": "New Orleans",
    "state": "Louisiana",
    "postal_code": "70116",
    "website_url": "http://www.brieuxcarre.com",
    "phone": "5043044242",
    "created_at": "2018-07-24 01:33:26.123276",
    "updated_at": "2018-08-24 00:39:09.604076",
    "country": "United States",
    "longitude": "-90.0572496",
    "latitude": "29.9627851",
    "tags": []
  },
  {
    "id": "crescent-city-brewhouse",
    "name": "Crescent City Brewhouse",
    "brewery_type": "brewpub",
    "street": "527 Decatur St",
    "city": "New Orleans",
    "state": "Louisiana",
    "postal_code": "70130-1027",
    "website_url": "http://www.crescentcitybrewhouse.com",
    "phone": "5045220571",
    "created_at": "2018-07-24 01:33:26.216694",
    "updated_at": "2018-08-24 00:39:12.460221",
    "country": "United States",
    "longitude": "-90.0639242",
    "latitude": "29.9557185",
    "tags": []
  },
  {
    "id": "royal-brewery",
    "name": "Royal Brewery",
    "brewery_type": "micro",
    "street": "7366 Townsend Pl Ste B",
    "city": "New Orleans",
    "state": "Louisiana",
    "postal_code": "70126-1138",
    "website_url": "http://WWW.royalbrewerynola.com",
    "phone": "5044158444",
    "created_at": "2018-07-24 01:33:26.514006",
    "updated_at": "2018-08-11 21:37:29.608953",
    "country": "United States",
    "longitude": "",
    "latitude": "",
    "tags": []
  },
  {
    "id": "parleaux-beer-lab",
    "name": "Parleaux Beer Lab",
    "brewery_type": "micro",
    "street": "634 Lesseps St",
    "city": "New Orleans",
    "state": "Louisiana",
    "postal_code": "70117",
    "website_url": "http://www.parleauxbeerlab.com",
    "phone": "5047028433",
    "created_at": "2018-07-24 01:33:26.455486",
    "updated_at": "2018-08-24 00:39:21.642306",
    "country": "United States",
    "longitude": "-90.0340023846405",
    "latitude": "29.9607459",
    "tags": []
  },
  {
    "id": "port-orleans-brewing-company",
    "name": "Port Orleans Brewing Company",
    "brewery_type": "micro",
    "street": "4124 Tchoupitoulas St",
    "city": "New Orleans",
    "state": "Louisiana",
    "postal_code": "70115-1435",
    "website_url": "http://www.portorleansbrewingco.com",
    "phone": "5042662332",
    "created_at": "2018-07-24 01:33:26.467272",
    "updated_at": "2018-08-24 00:39:22.554509",
    "country": "United States",
    "longitude": "-90.0982849",
    "latitude": "29.9169759",
    "tags": []
  },
  {
    "id": "second-line-brewing",
    "name": "Second Line Brewing",
    "brewery_type": "micro",
    "street": "433 N Bernadotte St",
    "city": "New Orleans",
    "state": "Louisiana",
    "postal_code": "70119-4311",
    "website_url": "http://www.secondlinebrewing.com",
    "phone": "5042488979",
    "created_at": "2018-07-24 01:33:26.538158",
    "updated_at": "2018-08-24 00:39:25.350076",
    "country": "United States",
    "longitude": "-90.1056073",
    "latitude": "29.9825676",
    "tags": []
  },
  {
    "id": "the-courtyard-brewery",
    "name": "The Courtyard Brewery",
    "brewery_type": "micro",
    "street": "1020 Erato St",
    "city": "New Orleans",
    "state": "Louisiana",
    "postal_code": "70130-4112",
    "website_url": "http://www.courtyardbrew.com",
    "phone": "",
    "created_at": "2018-07-24 01:33:26.575917",
    "updated_at": "2018-08-24 00:39:26.702388",
    "country": "United States",
    "longitude": "-90.0705445187399",
    "latitude": "29.9387632",
    "tags": []
  },
  {
    "id": "urban-south-brewery",
    "name": "Urban South Brewery",
    "brewery_type": "micro",
    "street": "1645 Tchoupitoulas St",
    "city": "New Orleans",
    "state": "Louisiana",
    "postal_code": "70130-1852",
    "website_url": "http://www.urbansouthbrewery.com",
    "phone": "",
    "created_at": "2018-07-24 01:33:26.615747",
    "updated_at": "2018-08-24 00:39:27.597704",
    "country": "United States",
    "longitude": "-90.0666607",
    "latitude": "29.9296799",
    "tags": []
  },
  {
    "id": "new-orleans-lager-and-ale-brewing-nola-brewing",
    "name": "New Orleans Lager and Ale Brewing (NOLA Brewing)",
    "brewery_type": "micro",
    "street": "3001 Tchoupitoulas St",
    "city": "New Orleans",
    "state": "Louisiana",
    "postal_code": "70115-1039",
    "website_url": "http://www.nolabrewing.com",
    "phone": "5048969996",
    "created_at": "2018-07-24 01:33:26.404553",
    "updated_at": "2018-08-24 00:39:18.149798",
    "country": "United States",
    "longitude": "-90.0814177592866",
    "latitude": "29.9199522",
    "tags": []
  }
]