[
  {
    "id": "horse-thief-hollow-brewery",
    "name": "Horse Thief Hollow Brewery",
    "brewery_type": "brewpub",
    "street": "10426 S Western Ave",
    "city": "Chicago",
    "state": "Illinois",
    "postal_code": "60643-2508",
    "website_url": "http://www.horsethiefbrewing.com",
    "phone": "7737792739",
    "created_at": "2018-07-24 01:33:19.338214",
    "updated_at": "2018-08-24 00:31:16.933116",
    "country": "United States",
    "longitude": "-87.6819511632652",
    "latitude": "41.70388555",
    "tags": []
  },
  {
    "id": "off-color-brewing",
    "name": "Off Color Brewing",
    "brewery_type": "micro",
    "street": "3925 W Dickens Ave",
    "city": "Chicago",
    "state": "Illinois",
    "postal_code": "60647-3453",
    "website_url": "http://www.offcolorbrewing.com",
    "phone": "",
    "created_at": "2018-07-24 01:33:19.988649",
    "updated_at": "2018-08-24 00:31:42.25077",
    "country": "United States",
    "longitude": "-87.7253843735564",
    "latitude": "41.9189269656549",
    "tags": []
  },
  {
    "id": "alarmist-brewing-co",
    "name": "Alarmist Brewing Co",
    "brewery_type": "micro",
    "street": "4055 W Peterson Ave Ste REAR",
    "city": "Chicago",
    "state": "Illinois",
    "postal_code": "60646-6072",
    "website_url": "http://alarmistbrewing.com",
    "phone": "7739882536",
    "created_at": "2018-07-24 01:33:17.95815",
    "updated_at": "2018-08-11 21:37:07.640499",
    "country": "United States",
    "longitude": "",
    "latitude": "",
    "tags": []
  },
  {
    "id": "ballast-point-brewing-company",
    "name": "Ballast Point Brewing Company",
    "brewery_type": "planning",
    "street": "",
    "city": "Chicago",
    "state": "Illinois",
    "postal_code": "60607",
    "website_url": "",
    "phone": "",
    "created_at": "2018-07-24 01:33:18.104661",
    "updated_at": "2018-08-11 21:37:07.888417",
    "country": "United States",
    "longitude": "",
    "latitude": "",
    "tags": []
  },
  {
    "id": "5-rabbit-cerveceria-inc",
    "name": "5 Rabbit Cerveceria Inc",
    "brewery_type": "micro",
    "street": "6398 W 74th St",
    "city": "Chicago",
    "state": "Illinois",
    "postal_code": "60638-6129",
    "website_url": "http://www.5rabbitbrewery.com",
    "phone": "3128959591",
    "created_at": "2018-07-24 01:33:17.882704",
    "updated_at": "2018-08-24 00:30:23.63792",
    "country": "United States",
    "longitude": "-87.6572069",
    "latitude": "41.7595502",
    "tags": []
  },
  {
    "id": "aleman-brewing",
    "name": "Aleman Brewing",
    "brewery_type": "micro",
    "street": "3304 N Knox Ave",
    "city": "Chicago",
    "state": "Illinois",
    "postal_code": "60641-4434",
    "website_url": "http://www.alemanchicago.com",
    "phone": "8123404198",
    "created_at": "2018-07-24 01:33:17.970348",
    "updated_at": "2018-08-24 00:30:27.173035",
    "country": "United States",
    "longitude": "-87.7430121293159",
    "latitude": "41.9408799441355",
    "tags": []
  },
  {
    "id": "all-rise-brewing-co",
    "name": "All Rise Brewing Co",
    "brewery_type": "brewpub",
    "street": "235 N Ashland Ave",
    "city": "Chicago",
    "state": "Illinois",
    "postal_code": "60607-1401",
    "website_url": "http://www.allrisebrewing.com",
    "phone": "3122266300",
    "created_at": "2018-07-24 01:33:17.983931",
    "updated_at": "2018-08-24 00:30:27.842182",
    "country": "United States",
    "longitude": "-87.6667328",
    "latitude": "41.8864021",
    "tags": []
  },
  {
    "id": "argus-brewery",
    "name": "Argus Brewery",
    "brewery_type": "micro",
    "street": "11314 S Front Ave",
    "city": "Chicago",
    "state": "Illinois",
    "postal_code": "60628-5007",
    "website_url": "http://www.argusbrewery.com",
    "phone": "7739414050",
    "created_at": "2018-07-24 01:33:18.067304",
    "updated_at": "2018-08-24 00:30:28.900899",
    "country": "United States",
    "longitude": "-87.6120684544394",
    "latitude": "41.68854885",
    "tags": []
  },
  {
    "id": "begyle-brewing",
    "name": "Begyle Brewing",
    "brewery_type": "micro",
    "street": "1800 W Cuyler Ave Ste 1E",
    "city": "Chicago",
    "state": "Illinois",
    "postal_code": "60613-3892",
    "website_url": "http://www.begylebrewing.com",
    "phone": "7736616963",
    "created_at": "2018-07-24 01:33:18.15595",
    "updated_at": "2018-08-11 21:37:08.005997",
    "country": "United States",
    "longitude": "",
    "latitude": "",
    "tags": []
  },
  {
    "id": "brewery-in-planning-chicago",
    "name": "Brewery In Planning - Chicago",
    "brewery_type": "planning",
    "street": "",
    "city": "Chicago",
    "state": "Illinois",
    "postal_code": "60640-4006",
    "website_url": "",
    "phone": "",
    "created_at": "2018-07-24 01:33:18.324349",
    "updated_at": "2018-08-11 21:37:08.468962",
    "country": "United States",
    "longitude": "",
    "latitude": "",
    "tags": []
  },
  {
    "id": "buchanan-craft-llc",
    "name": "Buchanan Craft LLC",
    "brewery_type": "planning",
    "street": "",
    "city": "Chicago",
    "state": "Illinois",
    "postal_code": "60647-9735",
    "website_url": "",
    "phone": "6307722199",
    "created_at": "2018-07-24 01:33:18.420481",
    "updated_at": "2018-08-11 21:37:08.694764",
    "country": "United States",
    "longitude": "",
    "latitude": "",
    "tags": []
  },
  {
    "id": "dryhop-brewers",
    "name": "Dryhop Brewers",
    "brewery_type": "micro",
    "street": "3155 N Broadway St",
    "city": "Chicago",
    "state": "Illinois",
    "postal_code": "60657-4508",
    "website_url": "http://www.dryhopchicago.com",
    "phone": "7738573155",
    "created_at": "2018-07-24 01:33:18.688818",
    "updated_at": "2018-08-11 21:37:09.591866",
    "country": "United States",
    "longitude": "",
    "latitude": "",
    "tags": []
  },
  {
    "id": "birreria-eataly",
    "name": "Birreria @ Eataly",
    "brewery_type": "brewpub",
    "street": "43 E Ohio St",
    "city": "Chicago",
    "state": "Illinois",
    "postal_code": "60611-2701",
    "website_url": "http://www.eataly.com",
    "phone": "",
    "created_at": "2018-07-24 01:33:18.22908",
    "updated_at": "2018-08-24 00:30:34.707844",
    "country": "United States",
    "longitude": "-87.6262332",
    "latitude": "41.89209845",
    "tags": []
  },
  {
    "id": "burnt-city-brewing",
    "name": "Burnt City Brewing",
    "brewery_type": "micro",
    "street": "2747 N Lincoln Ave",
    "city": "Chicago",
    "state": "Illinois",
    "postal_code": "60614-1320",
    "website_url": "http://www.burntcitybrewing.com",
    "phone": "7732951270",
    "created_at": "2018-07-24 01:33:18.467811",
    "updated_at": "2018-08-24 00:30:40.707327",
    "country": "United States",
    "longitude": "-87.6572273154071",
    "latitude": "41.93185255",
    "tags": []
  },
  {
    "id": "chicago-beer-company",
    "name": "Chicago Beer Company",
    "brewery_type": "contract",
    "street": "1140 W Randolph St",
    "city": "Chicago",
    "state": "Illinois",
    "postal_code": "60607-1619",
    "website_url": "http://www.chicagobeerco.com",
    "phone": "7732448696",
    "created_at": "2018-07-24 01:33:18.532987",
    "updated_at": "2018-08-24 00:30:42.837642",
    "country": "United States",
    "longitude": "-87.6558916515504",
    "latitude": "41.8843399958366",
    "tags": []
  },
  {
    "id": "corridor-brewery-and-provisions",
    "name": "Corridor Brewery & Provisions",
    "brewery_type": "brewpub",
    "street": "3446 N Southport Ave",
    "city": "Chicago",
    "state": "Illinois",
    "postal_code": "60657-1420",
    "website_url": "",
    "phone": "7732704272",
    "created_at": "2018-07-24 01:33:18.556482",
    "updated_at": "2018-08-24 00:30:43.998421",
    "country": "United States",
    "longitude": "-87.6643524",
    "latitude": "41.9447594",
    "tags": []
  },
  {
    "id": "cruz-blanca-brewery",
    "name": "Cruz Blanca Brewery",
    "brewery_type": "brewpub",
    "street": "904 W Randolph St",
    "city": "Chicago",
    "state": "Illinois",
    "postal_code": "60607-2208",
    "website_url": "http://www.cruzblanca.com",
    "phone": "3127331975",
    "created_at": "2018-07-24 01:33:18.568417",
    "updated_at": "2018-08-24 00:30:44.521664",
    "country": "United States",
    "longitude": "-87.6501403",
    "latitude": "41.8846013",
    "tags": []
  },
  {
    "id": "dovetail-brewery",
    "name": "Dovetail Brewery",
    "brewery_type": "micro",
    "street": "1800 W Belle Plaine Ave",
    "city": "Chicago",
    "state": "Illinois",
    "postal_code": "60613-1827",
    "website_url": "http://www.dovetailbrewery.com",
    "phone": "",
    "created_at": "2018-07-24 01:33:18.665016",
    "updated_at": "2018-08-24 00:30:49.041057",
    "country": "United States",
    "longitude": "-87.6743858",
    "latitude": "41.9561589",
    "tags": []
  },
  {
    "id": "ginos-brewing-company",
    "name": "Gino's Brewing Company",
    "brewery_type": "brewpub",
    "street": "500 N La Salle Dr",
    "city": "Chicago",
    "state": "Illinois",
    "postal_code": "60654-7109",
    "website_url": "",
    "phone": "3129884200",
    "created_at": "2018-07-24 01:33:18.963547",
    "updated_at": "2018-08-11 21:37:11.071502",
    "country": "United States",
    "longitude": "",
    "latitude": "",
    "tags": []
  },
  {
    "id": "goose-island-brewpub",
    "name": "Goose Island Brewpub",
    "brewery_type": "large",
    "street": "1800 N Clybourn Ave Ste B",
    "city": "Chicago",
    "state": "Illinois",
    "postal_code": "60614-4895",
    "website_url": "http://www.gooseisland.com",
    "phone": "3129150071",
    "created_at": "2018-07-24 01:33:19.002354",
    "updated_at": "2018-08-11 21:37:11.293951",
    "country": "United States",
    "longitude": "",
    "latitude": "",
    "tags": []
  },
  {
    "id": "empirical-brewery",
    "name": "Empirical Brewery",
    "brewery_type": "micro",
    "street": "1801 W Foster Ave",
    "city": "Chicago",
    "state": "Illinois",
    "postal_code": "60640-1023",
    "website_url": "http://www.empiricalbrewery.com",
    "phone": "",
    "created_at": "2018-07-24 01:33:18.774391",
    "updated_at": "2018-08-24 00:30:54.308959",
    "country": "United States",
    "longitude": "-87.6749395",
    "latitude": "41.9762555",
    "tags": []
  },
  {
    "id": "eris-brewery-and-cider-house",
    "name": "Eris Brewery And Cider House",
    "brewery_type": "brewpub",
    "street": "4240 W Irving Park Rd",
    "city": "Chicago",
    "state": "Illinois",
    "postal_code": "60641",
    "website_url": "",
    "phone": "5623086582",
    "created_at": "2018-07-24 01:33:18.80177",
    "updated_at": "2018-08-24 00:30:55.505166",
    "country": "United States",
    "longitude": "-87.7342346",
    "latitude": "41.95388195",
    "tags": []
  },
  {
    "id": "finch-beer-company",
    "name": "Finch Beer Company",
    "brewery_type": "micro",
    "street": "1800 W Walnut St",
    "city": "Chicago",
    "state": "Illinois",
    "postal_code": "60612-2526",
    "website_url": "http://www.finchbeer.com",
    "phone": "3129294773",
    "created_at": "2018-07-24 01:33:18.849281",
    "updated_at": "2018-08-24 00:30:57.600153",
    "country": "United States",
    "longitude": "-87.6721651",
    "latitude": "41.8861899",
    "tags": []
  },
  {
    "id": "forbidden-root-restaurant-and-brewery",
    "name": "Forbidden Root Restaurant & Brewery",
    "brewery_type": "micro",
    "street": "1746 W Chicago Ave",
    "city": "Chicago",
    "state": "Illinois",
    "postal_code": "60622-5012",
    "website_url": "http://www.forbiddenroot.com",
    "phone": "3129292202",
    "created_at": "2018-07-24 01:33:18.902408",
    "updated_at": "2018-08-24 00:30:59.745369",
    "country": "United States",
    "longitude": "-87.6715393",
    "latitude": "41.8961658",
    "tags": []
  },
  {
    "id": "goose-island-beer-co-/-fulton-st",
    "name": "Goose Island Beer Co / Fulton St",
    "brewery_type": "large",
    "street": "1800 W Fulton St",
    "city": "Chicago",
    "state": "Illinois",
    "postal_code": "60612-2512",
    "website_url": "http://www.gooseisland.com",
    "phone": "3122261119",
    "created_at": "2018-07-24 01:33:18.989016",
    "updated_at": "2018-08-24 00:31:03.83989",
    "country": "United States",
    "longitude": "-87.6722122",
    "latitude": "41.8870058",
    "tags": []
  },
  {
    "id": "great-central-brewing-company",
    "name": "Great Central Brewing Company",
    "brewery_type": "micro",
    "street": "221 N Wood St",
    "city": "Chicago",
    "state": "Illinois",
    "postal_code": "60612-2614",
    "website_url": "http://www.greatcentralbrewing.com",
    "phone": "8554644222",
    "created_at": "2018-07-24 01:33:19.135247",
    "updated_at": "2018-08-24 00:31:08.770964",
    "country": "United States",
    "longitude": "-87.6712098008915",
    "latitude": "41.8858315",
    "tags": []
  },
  {
    "id": "greenstar-brewing-at-uncommon-ground",
    "name": "Greenstar Brewing At Uncommon Ground",
    "brewery_type": "brewpub",
    "street": "3810 N Clark St",
    "city": "Chicago",
    "state": "Illinois",
    "postal_code": "60613-2812",
    "website_url": "http://www.uncommonground.com",
    "phone": "8472198834",
    "created_at": "2018-07-24 01:33:19.14717",
    "updated_at": "2018-08-24 00:31:09.315321",
    "country": "United States",
    "longitude": "-87.6600104538217",
    "latitude": "41.95128495",
    "tags": []
  },
  {
    "id": "half-acre-beer-co",
    "name": "Half Acre Beer Co",
    "brewery_type": "regional",
    "street": "4257 N Lincoln Ave",
    "city": "Chicago",
    "state": "Illinois",
    "postal_code": "60618-2953",
    "website_url": "http://www.halfacrebeer.com",
    "phone": "7737548488",
    "created_at": "2018-07-24 01:33:19.18305",
    "updated_at": "2018-08-24 00:31:10.571832",
    "country": "United States",
    "longitude": "-87.6820201",
    "latitude": "41.9591945",
    "tags": []
  },
  {
    "id": "hamburger-marys/andersonville-brewing-company",
    "name": "Hamburger Mary's/Andersonville Brewing Company",
    "brewery_type": "brewpub",
    "street": "5402 N Clark St",
    "city": "Chicago",
    "state": "Illinois",
    "postal_code": "60640-1210",
    "website_url": "http://www.hamburgermaryschicago.com",
    "phone": "7737846969",
    "created_at": "2018-07-24 01:33:19.218262",
    "updated_at": "2018-08-24 00:31:11.819639",
    "country": "United States",
    "longitude": "-87.6685509168591",
    "latitude": "41.97997865",
    "tags": []
  },
  {
    "id": "haymarket-pub-and-brewery",
    "name": "Haymarket Pub and Brewery",
    "brewery_type": "brewpub",
    "street": "737 W Randolph St",
    "city": "Chicago",
    "state": "Illinois",
    "postal_code": "60661-2103",
    "website_url": "http://www.haymarketbrewing.com",
    "phone": "3126380707",
    "created_at": "2018-07-24 01:33:19.241857",
    "updated_at": "2018-08-24 00:31:13.034132",
    "country": "United States",
    "longitude": "-87.6472956",
    "latitude": "41.8841895",
    "tags": []
  },
  {
    "id": "hopewell-brewing-co",
    "name": "Hopewell Brewing Co",
    "brewery_type": "micro",
    "street": "2760 N Milwaukee Ave",
    "city": "Chicago",
    "state": "Illinois",
    "postal_code": "60647-1337",
    "website_url": "http://www.hopewellbrewing.com",
    "phone": "7736986178",
    "created_at": "2018-07-24 01:33:19.301311",
    "updated_at": "2018-08-24 00:31:15.357825",
    "country": "United States",
    "longitude": "-87.7878762",
    "latitude": "41.9973481",
    "tags": []
  },
  {
    "id": "local-option",
    "name": "Local Option",
    "brewery_type": "contract",
    "street": "1102 W Webster Ave Ste 1",
    "city": "Chicago",
    "state": "Illinois",
    "postal_code": "60614-7089",
    "website_url": "http://www.localoptionbier.com",
    "phone": "7733482008",
    "created_at": "2018-07-24 01:33:19.649699",
    "updated_at": "2018-08-11 21:37:13.400916",
    "country": "United States",
    "longitude": "",
    "latitude": "",
    "tags": []
  },
  {
    "id": "mad-mouse-brewery",
    "name": "Mad Mouse Brewery",
    "brewery_type": "contract",
    "street": "",
    "city": "Chicago",
    "state": "Illinois",
    "postal_code": "60607-5017",
    "website_url": "http://www.moxeerestaurant.com",
    "phone": "",
    "created_at": "2018-07-24 01:33:19.700494",
    "updated_at": "2018-08-11 21:37:13.559124",
    "country": "United States",
    "longitude": "",
    "latitude": "",
    "tags": []
  },
  {
    "id": "maverick-ales-and-lager",
    "name": "Maverick Ales & Lager",
    "brewery_type": "planning",
    "street": "",
    "city": "Chicago",
    "state": "Illinois",
    "postal_code": "60612",
    "website_url": "http://www.maverickbrews.com",
    "phone": "4086051508",
    "created_at": "2018-07-24 01:33:19.749668",
    "updated_at": "2018-08-11 21:37:13.674104",
    "country": "United States",
    "longitude": "",
    "latitude": "",
    "tags": []
  },
  {
    "id": "illuminated-brew-works",
    "name": "Illuminated Brew Works",
    "brewery_type": "micro",
    "street": "415 N Sangamon St",
    "city": "Chicago",
    "state": "Illinois",
    "postal_code": "60642-6546",
    "website_url": "http://www.ibw-chicago.com",
    "phone": "7737262874",
    "created_at": "2018-07-24 01:33:19.366956",
    "updated_at": "2018-08-24 00:31:17.453027",
    "country": "United States",
    "longitude": "-87.6507493333569",
    "latitude": "41.88958325",
    "tags": []
  },
  {
    "id": "lagunitas-brewing-co",
    "name": "Lagunitas Brewing Co",
    "brewery_type": "large",
    "street": "2607 W 17th St",
    "city": "Chicago",
    "state": "Illinois",
    "postal_code": "60608-1823",
    "website_url": "http://www.lagunitas.com",
    "phone": "7735222503",
    "created_at": "2018-07-24 01:33:19.514308",
    "updated_at": "2018-08-24 00:31:23.490954",
    "country": "United States",
    "longitude": "-87.6932373",
    "latitude": "41.8583603",
    "tags": []
  },
  {
    "id": "lake-effect-brewing-company",
    "name": "Lake Effect Brewing Company",
    "brewery_type": "micro",
    "street": "4727 W Montrose Ave",
    "city": "Chicago",
    "state": "Illinois",
    "postal_code": "60641-1504",
    "website_url": "http://www.lakeeffectbrewing.com",
    "phone": "3129194473",
    "created_at": "2018-07-24 01:33:19.550788",
    "updated_at": "2018-08-24 00:31:25.217858",
    "country": "United States",
    "longitude": "-87.7459686981498",
    "latitude": "41.9604369",
    "tags": []
  },
  {
    "id": "lo-rez-brewing",
    "name": "Lo Rez Brewing",
    "brewery_type": "micro",
    "street": "2101 S Carpenter St",
    "city": "Chicago",
    "state": "Illinois",
    "postal_code": "60608-4529",
    "website_url": "http://lorezbrewing.com",
    "phone": "3128043283",
    "created_at": "2018-07-24 01:33:19.63654",
    "updated_at": "2018-08-24 00:31:28.500921",
    "country": "United States",
    "longitude": "-87.6524429",
    "latitude": "41.8533096",
    "tags": []
  },
  {
    "id": "maplewood-brewing-company",
    "name": "Maplewood Brewing Company",
    "brewery_type": "micro",
    "street": "2717 N Maplewood Ave",
    "city": "Chicago",
    "state": "Illinois",
    "postal_code": "60647-1930",
    "website_url": "http://www.maplewoodbrew.com",
    "phone": "7732701061",
    "created_at": "2018-07-24 01:33:19.724673",
    "updated_at": "2018-08-24 00:31:31.429021",
    "country": "United States",
    "longitude": "-87.6910641420172",
    "latitude": "41.93075205",
    "tags": []
  },
  {
    "id": "marz-community-brewing",
    "name": "Marz Community Brewing",
    "brewery_type": "proprietor",
    "street": "3630 S Iron St",
    "city": "Chicago",
    "state": "Illinois",
    "postal_code": "60609",
    "website_url": "http://www.marzbrewing.com",
    "phone": "",
    "created_at": "2018-07-24 01:33:19.7375",
    "updated_at": "2018-08-24 00:31:32.013744",
    "country": "United States",
    "longitude": "-87.6595253",
    "latitude": "41.827819",
    "tags": []
  },
  {
    "id": "metropolitan-brewing",
    "name": "Metropolitan Brewing",
    "brewery_type": "micro",
    "street": "3057 N Rockwell St",
    "city": "Chicago",
    "state": "Illinois",
    "postal_code": "60618-7917",
    "website_url": "http://www.metrobrewing.com",
    "phone": "7734746489",
    "created_at": "2018-07-24 01:33:19.789329",
    "updated_at": "2018-08-24 00:31:33.374161",
    "country": "United States",
    "longitude": "-87.6912391",
    "latitude": "41.9376382",
    "tags": []
  },
  {
    "id": "middle-brow-beer-company",
    "name": "Middle Brow Beer Company",
    "brewery_type": "micro",
    "street": "2840 W Armitage Ave",
    "city": "Chicago",
    "state": "Illinois",
    "postal_code": "60647",
    "website_url": "http://www.middlebrowbeer.com",
    "phone": "7088465511",
    "created_at": "2018-07-24 01:33:19.813802",
    "updated_at": "2018-08-24 00:31:34.447237",
    "country": "United States",
    "longitude": "-87.6988904994196",
    "latitude": "41.9177811",
    "tags": []
  },
  {
    "id": "moody-tongue-brewing-company",
    "name": "Moody Tongue Brewing Company",
    "brewery_type": "micro",
    "street": "2136 S Peoria St",
    "city": "Chicago",
    "state": "Illinois",
    "postal_code": "60608-4526",
    "website_url": "http://www.moodytongue.com",
    "phone": "3126005111",
    "created_at": "2018-07-24 01:33:19.866537",
    "updated_at": "2018-08-24 00:31:36.4812",
    "country": "United States",
    "longitude": "-87.6483419",
    "latitude": "41.8532798",
    "tags": []
  },
  {
    "id": "motor-row-brewing",
    "name": "Motor Row Brewing",
    "brewery_type": "micro",
    "street": "2337 S Michigan Ave",
    "city": "Chicago",
    "state": "Illinois",
    "postal_code": "60616-2104",
    "website_url": "http://www.motorrowbrewing.com",
    "phone": "",
    "created_at": "2018-07-24 01:33:19.891171",
    "updated_at": "2018-08-24 00:31:37.716636",
    "country": "United States",
    "longitude": "-87.6233063",
    "latitude": "41.8499832",
    "tags": []
  },
  {
    "id": "old-town-abbey-ales",
    "name": "Old Town Abbey Ales",
    "brewery_type": "proprietor",
    "street": "125 S Jefferson St Unit 2709",
    "city": "Chicago",
    "state": "Illinois",
    "postal_code": "60661-3731",
    "website_url": "http://www.oldtownabbey.com",
    "phone": "3126226544",
    "created_at": "2018-07-24 01:33:20.073174",
    "updated_at": "2018-08-11 21:37:14.362878",
    "country": "United States",
    "longitude": "",
    "latitude": "",
    "tags": []
  },
  {
    "id": "pipeworks-brewing-co",
    "name": "Pipeworks Brewing Co",
    "brewery_type": "micro",
    "street": "3912 W McLean Ave Ste B",
    "city": "Chicago",
    "state": "Illinois",
    "postal_code": "60647-5973",
    "website_url": "http://pipeworksbrewing.com",
    "phone": "8479109493",
    "created_at": "2018-07-24 01:33:20.228075",
    "updated_at": "2018-08-11 21:37:14.696477",
    "country": "United States",
    "longitude": "",
    "latitude": "",
    "tags": []
  },
  {
    "id": "pipeworks-brewing-co",
    "name": "Pipeworks Brewing Co",
    "brewery_type": "micro",
    "street": "",
    "city": "Chicago",
    "state": "Illinois",
    "postal_code": "60647-5972",
    "website_url": "",
    "phone": "8479109493",
    "created_at": "2018-07-24 01:33:20.23991",
    "updated_at": "2018-08-11 21:37:14.722245",
    "country": "United States",
    "longitude": "",
    "latitude": "",
    "tags": []
  },
  {
    "id": "ritt-brewing-company",
    "name": "Ritt Brewing Company",
    "brewery_type": "planning",
    "street": "",
    "city": "Chicago",
    "state": "Illinois",
    "postal_code": "60634-2319",
    "website_url": "",
    "phone": "8475618203",
    "created_at": "2018-07-24 01:33:20.424907",
    "updated_at": "2018-08-11 21:37:15.178692",
    "country": "United States",
    "longitude": "",
    "latitude": "",
    "tags": []
  },
  {
    "id": "on-tour-brewing-co",
    "name": "On Tour Brewing Co.",
    "brewery_type": "micro",
    "street": "1725 W Hubbard St",
    "city": "Chicago",
    "state": "Illinois",
    "postal_code": "60622-6213",
    "website_url": "http://www.ontourbrewing.com",
    "phone": "3127963119",
    "created_at": "2018-07-24 01:33:20.08605",
    "updated_at": "2018-08-24 00:31:45.216722",
    "country": "United States",
    "longitude": "-87.670578",
    "latitude": "41.8896255",
    "tags": []
  },
  {
    "id": "open-outcry",
    "name": "Open Outcry",
    "brewery_type": "brewpub",
    "street": "10934 S Western Ave",
    "city": "Chicago",
    "state": "Illinois",
    "postal_code": "60643-3228",
    "website_url": "http://www.openoutcrybrewing.com",
    "phone": "7736296055",
    "created_at": "2018-07-24 01:33:20.1358",
    "updated_at": "2018-08-24 00:31:47.092853",
    "country": "United States",
    "longitude": "-87.6814747",
    "latitude": "41.6943819",
    "tags": []
  },
  {
    "id": "piece-brewery",
    "name": "Piece Brewery",
    "brewery_type": "brewpub",
    "street": "1927 W North Ave",
    "city": "Chicago",
    "state": "Illinois",
    "postal_code": "60622-1316",
    "website_url": "http://www.piecechicago.com",
    "phone": "7737724422",
    "created_at": "2018-07-24 01:33:20.200082",
    "updated_at": "2018-08-24 00:31:50.062903",
    "country": "United States",
    "longitude": "-87.6760621",
    "latitude": "41.9102937",
    "tags": []
  },
  {
    "id": "revolution-brewing",
    "name": "Revolution Brewing",
    "brewery_type": "regional",
    "street": "3340 N Kedzie Ave",
    "city": "Chicago",
    "state": "Illinois",
    "postal_code": "60618-5722",
    "website_url": "http://www.revbrew.com",
    "phone": "7735882267",
    "created_at": "2018-07-24 01:33:20.387046",
    "updated_at": "2018-08-24 00:31:58.595676",
    "country": "United States",
    "longitude": "-87.707534",
    "latitude": "41.9289777",
    "tags": []
  },
  {
    "id": "revolution-brewing-brewpub",
    "name": "Revolution Brewing - Brewpub",
    "brewery_type": "brewpub",
    "street": "2323 N Milwaukee Ave",
    "city": "Chicago",
    "state": "Illinois",
    "postal_code": "60647-2924",
    "website_url": "http://www.revbrew.com",
    "phone": "7732272739",
    "created_at": "2018-07-24 01:33:20.399627",
    "updated_at": "2018-08-24 00:31:59.169837",
    "country": "United States",
    "longitude": "-87.6981447",
    "latitude": "41.923586",
    "tags": []
  },
  {
    "id": "rock-bottom-brewery-chicago",
    "name": "Rock Bottom Brewery - Chicago",
    "brewery_type": "brewpub",
    "street": "1 W Grand Ave",
    "city": "Chicago",
    "state": "Illinois",
    "postal_code": "60654-4806",
    "website_url": "http://www.rockbottom.com",
    "phone": "3127559339",
    "created_at": "2018-07-24 01:33:20.474836",
    "updated_at": "2018-08-24 00:32:01.317323",
    "country": "United States",
    "longitude": "-87.6283923757543",
    "latitude": "41.8913983",
    "tags": []
  },
  {
    "id": "the-berghoff-brewery-inc",
    "name": "The Berghoff Brewery Inc.",
    "brewery_type": "contract",
    "street": "1730 W Superior St Apt 3W",
    "city": "Chicago",
    "state": "Illinois",
    "postal_code": "60622-5639",
    "website_url": "http://www.berghoffbeer.com",
    "phone": "6083584992",
    "created_at": "2018-07-24 01:33:20.831041",
    "updated_at": "2018-08-11 21:37:16.17934",
    "country": "United States",
    "longitude": "",
    "latitude": "",
    "tags": []
  },
  {
    "id": "the-berghoff-restaurant",
    "name": "The Berghoff Restaurant",
    "brewery_type": "planning",
    "street": "",
    "city": "Chicago",
    "state": "Illinois",
    "postal_code": "60603-5502",
    "website_url": "http://www.berghoff.com",
    "phone": "3126176283",
    "created_at": "2018-07-24 01:33:20.843595",
    "updated_at": "2018-08-11 21:37:16.208114",
    "country": "United States",
    "longitude": "",
    "latitude": "",
    "tags": []
  },
  {
    "id": "urban-renewal-brewery",
    "name": "Urban Renewal Brewery",
    "brewery_type": "planning",
    "street": "",
    "city": "Chicago",
    "state": "Illinois",
    "postal_code": "60640",
    "website_url": "http://www.urbanrenewbrew.com",
    "phone": "7744874619",
    "created_at": "2018-07-24 01:33:20.986882",
    "updated_at": "2018-08-11 21:37:16.786434",
    "country": "United States",
    "longitude": "",
    "latitude": "",
    "tags": []
  },
  {
    "id": "veteran-beer-co-/-veteran-beverage-company",
    "name": "Veteran Beer Co / Veteran Beverage Company",
    "brewery_type": "proprietor",
    "street": "320 W Ohio St Ste 501",
    "city": "Chicago",
    "state": "Illinois",
    "postal_code": "60654-7816",
    "website_url": "http://www.veteranbeercompany.com",
    "phone": "6192498081",
    "created_at": "2018-07-24 01:33:20.99869",
    "updated_at": "2018-08-11 21:37:16.813112",
    "country": "United States",
    "longitude": "",
    "latitude": "",
    "tags": []
  },
  {
    "id": "vice-district-tap-room",
    "name": "Vice District Tap Room",
    "brewery_type": "micro",
    "street": "1454 S Michigan Ave Ste 1",
    "city": "Chicago",
    "state": "Illinois",
    "postal_code": "60605-2811",
    "website_url": "http://www.vicedistrictbrewing.com",
    "phone": "3122919022",
    "created_at": "2018-07-24 01:33:21.010723",
    "updated_at": "2018-08-11 21:37:16.84163",
    "country": "United States",
    "longitude": "",
    "latitude": "",
    "tags": []
  },
  {
    "id": "spiteful-brewing",
    "name": "Spiteful Brewing",
    "brewery_type": "micro",
    "street": "2024 W Balmoral Ave",
    "city": "Chicago",
    "state": "Illinois",
    "postal_code": "60625-1002",
    "website_url": "http://www.spitefulbrewing.com",
    "phone": "7732936600",
    "created_at": "2018-07-24 01:33:20.733037",
    "updated_at": "2018-08-24 00:32:09.201792",
    "country": "United States",
    "longitude": "-87.6806429",
    "latitude": "41.979914",
    "tags": []
  },
  {
    "id": "twisted-hippo",
    "name": "Twisted Hippo",
    "brewery_type": "contract",
    "street": "2925 W Montrose Ave",
    "city": "Chicago",
    "state": "Illinois",
    "postal_code": "60618-1403",
    "website_url": "http://Www.twistedhippo.com",
    "phone": "7088447768",
    "created_at": "2018-07-24 01:33:20.951011",
    "updated_at": "2018-08-24 00:32:17.18802",
    "country": "United States",
    "longitude": "-87.7019463",
    "latitude": "41.961125",
    "tags": []
  },
  {
    "id": "whiner-beer-company",
    "name": "Whiner Beer Company",
    "brewery_type": "micro",
    "street": "1400 W 46th St",
    "city": "Chicago",
    "state": "Illinois",
    "postal_code": "60609-3225",
    "website_url": "http://whiner beer.com",
    "phone": "3128102271",
    "created_at": "2018-07-24 01:33:21.076333",
    "updated_at": "2018-08-24 00:32:21.780122",
    "country": "United States",
    "longitude": "-87.6606688",
    "latitude": "41.810614",
    "tags": []
  },
  {
    "id": "tocayo-brewing-company",
    "name": "Tocayo Brewing Company",
    "brewery_type": "contract",
    "street": "1 S Dearborn St Ste 1700",
    "city": "Chicago",
    "state": "Illinois",
    "postal_code": "60603-2308",
    "website_url": "",
    "phone": "3122592189",
    "created_at": "2018-07-24 01:33:20.903239",
    "updated_at": "2018-08-11 21:37:16.509951",
    "country": "United States",
    "longitude": "",
    "latitude": "",
    "tags": []
  },
  {
    "id": "band-of-bohemia",
    "name": "Band Of Bohemia",
    "brewery_type": "brewpub",
    "street": "4710 N Ravenswood Ave",
    "city": "Chicago",
    "state": "Illinois",
    "postal_code": "60640-4408",
    "website_url": "http://bandofbohemia.com",
    "phone": "7732714710",
    "created_at": "2018-07-24 01:33:18.117409",
    "updated_at": "2018-08-24 00:30:30.769873",
    "country": "United States",
    "longitude": "-87.6750827",
    "latitude": "41.9675954",
    "tags": []
  },
  {
    "id": "old-irving-brewing-co",
    "name": "Old Irving Brewing Co.",
    "brewery_type": "brewpub",
    "street": "4419 W Montrose Ave",
    "city": "Chicago",
    "state": "Illinois",
    "postal_code": "60641-2021",
    "website_url": "http://www.oldirvingbrewing.com",
    "phone": "7739166421",
    "created_at": "2018-07-24 01:33:20.060168",
    "updated_at": "2018-08-24 00:31:44.065305",
    "country": "United States",
    "longitude": "-87.7394333",
    "latitude": "41.9605751",
    "tags": []
  }
]