[
  {
    "id": "smylie-brothers-brewing-co",
    "name": "Smylie Brothers Brewing Co",
    "brewery_type": "brewpub",
    "street": "1615 Oak Ave",
    "city": "Evanston",
    "state": "Illinois",
    "postal_code": "60201-3611",
    "website_url": "http://www.smyliebros.com",
    "phone": "2249997320",
    "created_at": "2018-07-24 01:33:20.696709",
    "updated_at": "2018-08-24 00:32:07.628809",
    "country": "United States",
    "longitude": "-87.6864692",
    "latitude": "42.0476547",
    "tags": []
  },
  {
    "id": "peckish-pig",
    "name": "Peckish Pig",
    "brewery_type": "brewpub",
    "street": "623 Howard St",
    "city": "Evanston",
    "state": "Illinois",
    "postal_code": "60202-3941",
    "website_url": "http://www.thepeckishpig@gmail.com",
    "phone": "8474916778",
    "created_at": "2018-07-24 01:33:20.160523",
    "updated_at": "2018-08-11 21:37:14.553895",
    "country": "United States",
    "longitude": "",
    "latitude": "",
    "tags": []
  },
  {
    "id": "sketchbook-brewing-company",
    "name": "Sketchbook Brewing Company",
    "brewery_type": "micro",
    "street": "821 Chicago Ave",
    "city": "Evanston",
    "state": "Illinois",
    "postal_code": "60202-2307",
    "website_url": "",
    "phone": "",
    "created_at": "2018-07-24 01:33:20.67117",
    "updated_at": "2018-08-24 00:32:06.677037",
    "country": "United States",
    "longitude": "-87.6789794",
    "latitude": "42.032929",
    "tags": []
  },
  {
    "id": "temperance-beer-company-llc",
    "name": "Temperance Beer Company, LLC",
    "brewery_type": "micro",
    "street": "2000 Dempster St",
    "city": "Evanston",
    "state": "Illinois",
    "postal_code": "60202-1017",
    "website_url": "http://temperance.beer",
    "phone": "8478641000",
    "created_at": "2018-07-24 01:33:20.807084",
    "updated_at": "2018-08-24 00:32:12.160285",
    "country": "United States",
    "longitude": "-87.7013174",
    "latitude": "42.040962",
    "tags": []
  }
]