[
  {
    "id": "engrained-brewing-co",
    "name": "Engrained Brewing Co",
    "brewery_type": "brewpub",
    "street": "1120 W Lincolnshire Blvd",
    "city": "Springfield",
    "state": "Illinois",
    "postal_code": "62711-6445",
    "website_url": "http://www.engrainedbrewing.com",
    "phone": "2175463054",
    "created_at": "2018-07-24 01:33:18.786422",
    "updated_at": "2018-08-24 00:30:54.961844",
    "country": "United States",
    "longitude": "-89.6914854",
    "latitude": "39.7481952",
    "tags": []
  },
  {
    "id": "obed-and-isaacs",
    "name": "Obed & Isaac's",
    "brewery_type": "micro",
    "street": "500 S 6th St",
    "city": "Springfield",
    "state": "Illinois",
    "postal_code": "62701-1810",
    "website_url": "http://www.connhospitalitygroup.com",
    "phone": "2176700627",
    "created_at": "2018-07-24 01:33:19.951281",
    "updated_at": "2018-08-24 00:31:40.825792",
    "country": "United States",
    "longitude": "-89.647885",
    "latitude": "39.797079",
    "tags": []
  },
  {
    "id": "buzz-bomb-brewing-co",
    "name": "Buzz Bomb Brewing Co",
    "brewery_type": "micro",
    "street": "406 E Adams St",
    "city": "Springfield",
    "state": "Illinois",
    "postal_code": "62701",
    "website_url": "http://www.buzzbombbrewingco.com",
    "phone": "2176794157",
    "created_at": "2018-07-24 01:33:18.483002",
    "updated_at": "2018-08-24 00:30:41.312898",
    "country": "United States",
    "longitude": "-89.6505039377019",
    "latitude": "39.8005278989617",
    "tags": []
  },
  {
    "id": "timotheus-brothers-brewery",
    "name": "Timotheus Brothers Brewery",
    "brewery_type": "micro",
    "street": "2708 N Peoria Rd",
    "city": "Springfield",
    "state": "Illinois",
    "postal_code": "62702-1248",
    "website_url": "",
    "phone": "2179710027",
    "created_at": "2018-07-24 01:33:20.891486",
    "updated_at": "2018-08-24 00:32:15.069943",
    "country": "United States",
    "longitude": "-89.6309244",
    "latitude": "39.846853",
    "tags": []
  }
]