[
  {
    "id": "barleys-casino-and-brewing-co",
    "name": "Barley's Casino and Brewing Co",
    "brewery_type": "brewpub",
    "street": "4500 E Sunset Rd Ste 30",
    "city": "Henderson",
    "state": "Nevada",
    "postal_code": "89014-2253",
    "website_url": "http://www.wildfire.sclv.com/barleys",
    "phone": "7024582739",
    "created_at": "2018-07-24 01:33:44.221355",
    "updated_at": "2018-08-11 21:38:16.639723",
    "country": "United States",
    "longitude": "",
    "latitude": "",
    "tags": []
  },
  {
    "id": "crafthaus-brewery",
    "name": "CraftHaus Brewery",
    "brewery_type": "micro",
    "street": "7350 Eastgate Rd Ste 110",
    "city": "Henderson",
    "state": "Nevada",
    "postal_code": "89011-4071",
    "website_url": "http://www.crafthausbrewery.com",
    "phone": "7024159184",
    "created_at": "2018-07-24 01:33:44.361508",
    "updated_at": "2018-08-11 21:38:16.99728",
    "country": "United States",
    "longitude": "",
    "latitude": "",
    "tags": []
  },
  {
    "id": "joseph-james-brewing-co-inc",
    "name": "Joseph James Brewing Co, Inc",
    "brewery_type": "micro",
    "street": "155 N Gibson Rd",
    "city": "Henderson",
    "state": "Nevada",
    "postal_code": "89014-6713",
    "website_url": "http://www.jjbrewco.com",
    "phone": "7024542739",
    "created_at": "2018-07-24 01:33:44.477724",
    "updated_at": "2018-08-24 15:35:38.652627",
    "country": "United States",
    "longitude": "-115.029408638421",
    "latitude": "36.0414687495589",
    "tags": []
  },
  {
    "id": "lovelady-brewing-company",
    "name": "Lovelady Brewing Company",
    "brewery_type": "micro",
    "street": "20 S Water St",
    "city": "Henderson",
    "state": "Nevada",
    "postal_code": "89015-7223",
    "website_url": "http://www.loveladybrewing.com",
    "phone": "7028578469",
    "created_at": "2018-07-24 01:33:44.515082",
    "updated_at": "2018-08-24 15:35:39.829264",
    "country": "United States",
    "longitude": "-114.98789744107",
    "latitude": "36.0380555773015",
    "tags": []
  },
  {
    "id": "able-baker-brewing",
    "name": "Able Baker Brewing",
    "brewery_type": "micro",
    "street": "1051 Mary Crest Rd #K",
    "city": "Henderson",
    "state": "Nevada",
    "postal_code": "89104",
    "website_url": "http://www.ablebakerbrewing.com",
    "phone": "7025817742",
    "created_at": "2018-07-24 01:33:44.153989",
    "updated_at": "2018-08-11 21:38:16.466071",
    "country": "United States",
    "longitude": "",
    "latitude": "",
    "tags": []
  },
  {
    "id": "astronomy-aleworks",
    "name": "Astronomy Aleworks",
    "brewery_type": "planning",
    "street": "",
    "city": "Henderson",
    "state": "Nevada",
    "postal_code": "89011",
    "website_url": "http://astronomyaleworks.com",
    "phone": "7023754968",
    "created_at": "2018-07-24 01:33:44.1808",
    "updated_at": "2018-08-11 21:38:16.53872",
    "country": "United States",
    "longitude": "",
    "latitude": "",
    "tags": []
  },
  {
    "id": "bad-beat-brewing",
    "name": "Bad Beat Brewing",
    "brewery_type": "micro",
    "street": "7380 Eastgate Rd Ste 110",
    "city": "Henderson",
    "state": "Nevada",
    "postal_code": "89011-4012",
    "website_url": "http://www.badbeatbrewing.com",
    "phone": "7024634199",
    "created_at": "2018-07-24 01:33:44.193501",
    "updated_at": "2018-08-11 21:38:16.567514",
    "country": "United States",
    "longitude": "",
    "latitude": "",
    "tags": []
  }
]