[
  {
    "id": "brewery-in-planning-las-vegas",
    "name": "Brewery In Planning - Las Vegas",
    "brewery_type": "planning",
    "street": "",
    "city": "Las Vegas",
    "state": "Nevada",
    "postal_code": "89144-4473",
    "website_url": "",
    "phone": "",
    "created_at": "2018-07-24 01:33:44.317288",
    "updated_at": "2018-08-11 21:38:16.910392",
    "country": "United States",
    "longitude": "",
    "latitude": "",
    "tags": []
  },
  {
    "id": "big-dogs-brewing-co",
    "name": "Big Dog's Brewing Co",
    "brewery_type": "brewpub",
    "street": "4547 N Rancho Dr Ste A",
    "city": "Las Vegas",
    "state": "Nevada",
    "postal_code": "89130-3432",
    "website_url": "http://www.bigdogsbrews.com",
    "phone": "7023683715",
    "created_at": "2018-07-24 01:33:44.248075",
    "updated_at": "2018-08-11 21:38:16.73823",
    "country": "United States",
    "longitude": "",
    "latitude": "",
    "tags": []
  },
  {
    "id": "brewery-in-planning-las-vegas-nv",
    "name": "Brewery in Planning - Las Vegas, NV",
    "brewery_type": "planning",
    "street": "",
    "city": "Las Vegas",
    "state": "Nevada",
    "postal_code": "89144",
    "website_url": "",
    "phone": "7023083440",
    "created_at": "2018-07-24 01:33:44.33484",
    "updated_at": "2018-08-11 21:38:16.939609",
    "country": "United States",
    "longitude": "",
    "latitude": "",
    "tags": []
  },
  {
    "id": "ellis-island-casino-and-brewery",
    "name": "Ellis Island Casino and Brewery",
    "brewery_type": "brewpub",
    "street": "4178 Koval Ln",
    "city": "Las Vegas",
    "state": "Nevada",
    "postal_code": "89109-4568",
    "website_url": "",
    "phone": "",
    "created_at": "2018-07-24 01:33:44.375143",
    "updated_at": "2018-08-11 21:38:17.037505",
    "country": "United States",
    "longitude": "",
    "latitude": "",
    "tags": []
  },
  {
    "id": "hop-nuts-brewing",
    "name": "Hop Nuts Brewing",
    "brewery_type": "micro",
    "street": "1120 S Main St Ste 150",
    "city": "Las Vegas",
    "state": "Nevada",
    "postal_code": "89104-1080",
    "website_url": "http://www.hopnutsbrewing.com",
    "phone": "7028165371",
    "created_at": "2018-07-24 01:33:44.439673",
    "updated_at": "2018-08-11 21:38:17.19907",
    "country": "United States",
    "longitude": "",
    "latitude": "",
    "tags": []
  },
  {
    "id": "immortal-brewing-company",
    "name": "Immortal Brewing Company",
    "brewery_type": "planning",
    "street": "",
    "city": "Las Vegas",
    "state": "Nevada",
    "postal_code": "89183-5893",
    "website_url": "http://www.immortalbrewco.com",
    "phone": "",
    "created_at": "2018-07-24 01:33:44.464928",
    "updated_at": "2018-08-11 21:38:17.252614",
    "country": "United States",
    "longitude": "",
    "latitude": "",
    "tags": []
  },
  {
    "id": "little-vixen-brewing",
    "name": "Little Vixen Brewing",
    "brewery_type": "planning",
    "street": "",
    "city": "Las Vegas",
    "state": "Nevada",
    "postal_code": "89138-6120",
    "website_url": "",
    "phone": "7759975936",
    "created_at": "2018-07-24 01:33:44.502775",
    "updated_at": "2018-08-11 21:38:17.346431",
    "country": "United States",
    "longitude": "",
    "latitude": "",
    "tags": []
  },
  {
    "id": "nevadan-brewing-company",
    "name": "Nevadan Brewing Company",
    "brewery_type": "planning",
    "street": "",
    "city": "Las Vegas",
    "state": "Nevada",
    "postal_code": "89139-5939",
    "website_url": "http://nevadanbrewing.com",
    "phone": "7028455768",
    "created_at": "2018-07-24 01:33:44.541083",
    "updated_at": "2018-08-11 21:38:17.442493",
    "country": "United States",
    "longitude": "",
    "latitude": "",
    "tags": []
  },
  {
    "id": "sin-city-beer-co",
    "name": "Sin City Beer Co",
    "brewery_type": "contract",
    "street": "3663 Las Vegas Blvd S Ste 504 Miracle Mile Shops",
    "city": "Las Vegas",
    "state": "Nevada",
    "postal_code": "89109-1951",
    "website_url": "http://www.sincitybeer.com",
    "phone": "7028094939",
    "created_at": "2018-07-24 01:33:44.687994",
    "updated_at": "2018-08-11 21:38:17.8619",
    "country": "United States",
    "longitude": "",
    "latitude": "",
    "tags": []
  },
  {
    "id": "tenaya-creek-brewery",
    "name": "Tenaya Creek Brewery",
    "brewery_type": "micro",
    "street": "831 W Bonanza Rd",
    "city": "Las Vegas",
    "state": "Nevada",
    "postal_code": "89106-3526",
    "website_url": "http://www.tenayacreek.com",
    "phone": "7023627335",
    "created_at": "2018-07-24 01:33:44.713964",
    "updated_at": "2018-08-11 21:38:17.943338",
    "country": "United States",
    "longitude": "",
    "latitude": "",
    "tags": []
  },
  {
    "id": "gordon-biersch-brewery-restaurant-las-vegas",
    "name": "Gordon Biersch Brewery Restaurant - Las Vegas",
    "brewery_type": "brewpub",
    "street": "3987 Paradise Rd",
    "city": "Las Vegas",
    "state": "Nevada",
    "postal_code": "89169-4607",
    "website_url": "http://www.craftworksrestaurants.com",
    "phone": "7023125247",
    "created_at": "2018-07-24 01:33:44.388648",
    "updated_at": "2018-08-24 15:35:35.44252",
    "country": "United States",
    "longitude": "-115.1545679",
    "latitude": "36.1442243",
    "tags": []
  },
  {
    "id": "pts-brewing-co",
    "name": "PT's Brewing Co.",
    "brewery_type": "micro",
    "street": "3101 N Tenaya Way",
    "city": "Las Vegas",
    "state": "Nevada",
    "postal_code": "89128-0437",
    "website_url": "",
    "phone": "",
    "created_at": "2018-07-24 01:33:44.598181",
    "updated_at": "2018-08-24 15:35:42.6789",
    "country": "United States",
    "longitude": "-115.2509527",
    "latitude": "36.1739188",
    "tags": []
  },
  {
    "id": "triple-7-restaurant-and-brewery-at-main-st-station",
    "name": "Triple 7 Restaurant & Brewery at Main St Station",
    "brewery_type": "brewpub",
    "street": "200 N Main St Main Street Station Casino",
    "city": "Las Vegas",
    "state": "Nevada",
    "postal_code": "89101-2910",
    "website_url": "http://www.mainstreetcasino.com",
    "phone": "7023871896",
    "created_at": "2018-07-24 01:33:44.794296",
    "updated_at": "2018-08-11 21:38:18.202462",
    "country": "United States",
    "longitude": "",
    "latitude": "",
    "tags": []
  },
  {
    "id": "banger-brewing-co",
    "name": "Banger Brewing Co",
    "brewery_type": "micro",
    "street": "450 Fremont St Ste 135",
    "city": "Las Vegas",
    "state": "Nevada",
    "postal_code": "89101-5649",
    "website_url": "http://www.bangerbrewing.com",
    "phone": "7024562739",
    "created_at": "2018-07-24 01:33:44.207532",
    "updated_at": "2018-08-11 21:38:16.60598",
    "country": "United States",
    "longitude": "",
    "latitude": "",
    "tags": []
  },
  {
    "id": "chicago-brewing-co-nv",
    "name": "Chicago Brewing Co - NV",
    "brewery_type": "brewpub",
    "street": "2201 S Fort Apache Rd",
    "city": "Las Vegas",
    "state": "Nevada",
    "postal_code": "89117-5704",
    "website_url": "http://www.chicagobrewingcolv.com",
    "phone": "7022543333",
    "created_at": "2018-07-24 01:33:44.348287",
    "updated_at": "2018-08-24 15:35:34.449266",
    "country": "United States",
    "longitude": "-115.2983835",
    "latitude": "36.1475868",
    "tags": []
  }
]