[
  {
    "id": "pigeon-head-brewery",
    "name": "Pigeon Head Brewery",
    "brewery_type": "micro",
    "street": "840 E 5th St",
    "city": "Reno",
    "state": "Nevada",
    "postal_code": "89512-3508",
    "website_url": "http://www.pigeonheadbrewery.com",
    "phone": "7752766766",
    "created_at": "2018-07-24 01:33:44.57082",
    "updated_at": "2018-08-24 15:35:41.541706",
    "country": "United States",
    "longitude": "-119.802684979592",
    "latitude": "39.5333757755102",
    "tags": []
  },
  {
    "id": "battle-bornar-beer",
    "name": "Battle BornÂ® Beer",
    "brewery_type": "contract",
    "street": "100 N Arlington Ave Ste 100",
    "city": "Reno",
    "state": "Nevada",
    "postal_code": "89501-1233",
    "website_url": "http://battleborn.beer",
    "phone": "8183173128",
    "created_at": "2018-07-24 01:33:44.234828",
    "updated_at": "2018-08-11 21:38:16.697119",
    "country": "United States",
    "longitude": "",
    "latitude": "",
    "tags": []
  },
  {
    "id": "great-basin-brewing-co-production-facility",
    "name": "Great Basin Brewing Co - Production Facility",
    "brewery_type": "micro",
    "street": "1155 S Rock Blvd Ste 490",
    "city": "Reno",
    "state": "Nevada",
    "postal_code": "89502-7174",
    "website_url": "http://www.greatbasinbrewingco.com",
    "phone": "7753557711",
    "created_at": "2018-07-24 01:33:44.427097",
    "updated_at": "2018-08-11 21:38:17.170075",
    "country": "United States",
    "longitude": "",
    "latitude": "",
    "tags": []
  },
  {
    "id": "reno-brewery",
    "name": "Reno Brewery",
    "brewery_type": "planning",
    "street": "",
    "city": "Reno",
    "state": "Nevada",
    "postal_code": "89502-1807",
    "website_url": "http://www.renobrewery.com",
    "phone": "7756360014",
    "created_at": "2018-07-24 01:33:44.611994",
    "updated_at": "2018-08-11 21:38:17.605437",
    "country": "United States",
    "longitude": "",
    "latitude": "",
    "tags": []
  },
  {
    "id": "stoneyhead-brewing-llc",
    "name": "StoneyHead Brewing LLC",
    "brewery_type": "micro",
    "street": "5301 Longley Ln Ste 84C",
    "city": "Reno",
    "state": "Nevada",
    "postal_code": "89511-1873",
    "website_url": "http://www.stoneyheadbrewing.com",
    "phone": "7758292337",
    "created_at": "2018-07-24 01:33:44.701292",
    "updated_at": "2018-08-11 21:38:17.889518",
    "country": "United States",
    "longitude": "",
    "latitude": "",
    "tags": []
  },
  {
    "id": "the-brewers-cabinet",
    "name": "The Brewer's Cabinet",
    "brewery_type": "micro",
    "street": "475 S Arlington Ave Ste 1C",
    "city": "Reno",
    "state": "Nevada",
    "postal_code": "89501-2099",
    "website_url": "http://www.thebrewerscabinet.com",
    "phone": "7753487481",
    "created_at": "2018-07-24 01:33:44.739194",
    "updated_at": "2018-08-11 21:38:18.019305",
    "country": "United States",
    "longitude": "",
    "latitude": "",
    "tags": []
  },
  {
    "id": "10-torr-distilling-and-brewing",
    "name": "10 Torr Distilling and Brewing",
    "brewery_type": "micro",
    "street": "490 Mill St",
    "city": "Reno",
    "state": "Nevada",
    "postal_code": "89502",
    "website_url": "http://www.10torr.com",
    "phone": "7755307014",
    "created_at": "2018-07-24 01:33:44.1409",
    "updated_at": "2018-08-24 00:47:53.12511",
    "country": "United States",
    "longitude": "-119.7732015",
    "latitude": "39.5171702",
    "tags": []
  },
  {
    "id": "bjs-restaurant-and-brewery-reno",
    "name": "BJs Restaurant & Brewery - Reno",
    "brewery_type": "brewpub",
    "street": "13999 S Virginia St",
    "city": "Reno",
    "state": "Nevada",
    "postal_code": "89511-8917",
    "website_url": "http://www.bjsbrewhouse.com",
    "phone": "7758537575",
    "created_at": "2018-07-24 01:33:44.263114",
    "updated_at": "2018-08-24 00:47:56.910854",
    "country": "United States",
    "longitude": "-119.8122668",
    "latitude": "39.5244083",
    "tags": []
  },
  {
    "id": "brasserie-saint-james",
    "name": "Brasserie Saint James",
    "brewery_type": "brewpub",
    "street": "901 S Center St",
    "city": "Reno",
    "state": "Nevada",
    "postal_code": "89501-2307",
    "website_url": "http://www.brasseriesaintjames.com",
    "phone": "7753488888",
    "created_at": "2018-07-24 01:33:44.289158",
    "updated_at": "2018-08-24 15:35:33.45044",
    "country": "United States",
    "longitude": "-119.807453074339",
    "latitude": "39.51655075",
    "tags": []
  },
  {
    "id": "great-basin-brewing-co",
    "name": "Great Basin Brewing Co",
    "brewery_type": "brewpub",
    "street": "5525 S Virginia St",
    "city": "Reno",
    "state": "Nevada",
    "postal_code": "89502-6085",
    "website_url": "http://www.greatbasinbrewingco.com",
    "phone": "7752847711",
    "created_at": "2018-07-24 01:33:44.413781",
    "updated_at": "2018-08-24 15:35:36.507884",
    "country": "United States",
    "longitude": "-119.789957",
    "latitude": "39.4762338",
    "tags": []
  },
  {
    "id": "imbib-custom-brews",
    "name": "IMBIB Custom Brews",
    "brewery_type": "micro",
    "street": "785 E 2nd St",
    "city": "Reno",
    "state": "Nevada",
    "postal_code": "89502-1018",
    "website_url": "http://www.imbib.beer",
    "phone": "7753033385",
    "created_at": "2018-07-24 01:33:44.452301",
    "updated_at": "2018-08-24 15:35:38.067016",
    "country": "United States",
    "longitude": "-119.80104028511",
    "latitude": "39.5274479155691",
    "tags": []
  },
  {
    "id": "lead-dog-brewing",
    "name": "Lead Dog Brewing",
    "brewery_type": "micro",
    "street": "415 E 4th St",
    "city": "Reno",
    "state": "Nevada",
    "postal_code": "89512-3315",
    "website_url": "http://www.leaddogbrewing.com",
    "phone": "7753915110",
    "created_at": "2018-07-24 01:33:44.490207",
    "updated_at": "2018-08-24 15:35:39.175377",
    "country": "United States",
    "longitude": "-119.80844505",
    "latitude": "39.5316052",
    "tags": []
  },
  {
    "id": "silver-peak-restaurant-and-brewery",
    "name": "Silver Peak Restaurant and Brewery",
    "brewery_type": "brewpub",
    "street": "124 Wonder St",
    "city": "Reno",
    "state": "Nevada",
    "postal_code": "89502-2424",
    "website_url": "http://www.silverpeakbrewery.com",
    "phone": "7753241864",
    "created_at": "2018-07-24 01:33:44.668752",
    "updated_at": "2018-08-24 15:35:44.175229",
    "country": "United States",
    "longitude": "-119.806043346939",
    "latitude": "39.5139574897959",
    "tags": []
  },
  {
    "id": "the-brew-brothers/eldorado-hotel-and-casino",
    "name": "The Brew Brothers/Eldorado Hotel and Casino",
    "brewery_type": "brewpub",
    "street": "345 N Virginia St",
    "city": "Reno",
    "state": "Nevada",
    "postal_code": "89501-1136",
    "website_url": "http://www.eldoradoresorts.com",
    "phone": "7757865700",
    "created_at": "2018-07-24 01:33:44.726693",
    "updated_at": "2018-08-24 15:35:46.142598",
    "country": "United States",
    "longitude": "-119.8164176",
    "latitude": "39.5367577",
    "tags": []
  },
  {
    "id": "the-depot-craft-brewery-distillery",
    "name": "The Depot Craft Brewery Distillery",
    "brewery_type": "brewpub",
    "street": "325 E 4th St",
    "city": "Reno",
    "state": "Nevada",
    "postal_code": "89512-3313",
    "website_url": "http://www.thedepotreno.com",
    "phone": "7757374330",
    "created_at": "2018-07-24 01:33:44.75346",
    "updated_at": "2018-08-24 15:35:47.286565",
    "country": "United States",
    "longitude": "-119.809561023407",
    "latitude": "39.53112425",
    "tags": []
  },
  {
    "id": "two-bald-guys-beverage-co",
    "name": "Two Bald Guys Beverage Co",
    "brewery_type": "contract",
    "street": "18090 Hazelnut Dr",
    "city": "Reno",
    "state": "Nevada",
    "postal_code": "89508-6898",
    "website_url": "http://www.drinktwobaldguys.com",
    "phone": "",
    "created_at": "2018-07-24 01:33:44.8068",
    "updated_at": "2018-08-11 21:38:18.2872",
    "country": "United States",
    "longitude": "",
    "latitude": "",
    "tags": []
  },
  {
    "id": "under-the-rose-brewing-company",
    "name": "Under the Rose Brewing Company",
    "brewery_type": "micro",
    "street": "559 E 4th St",
    "city": "Reno",
    "state": "Nevada",
    "postal_code": "89512-3317",
    "website_url": "",
    "phone": "7756576619",
    "created_at": "2018-07-24 01:33:44.81949",
    "updated_at": "2018-08-24 15:35:50.874589",
    "country": "United States",
    "longitude": "-119.8063947",
    "latitude": "39.5315258",
    "tags": []
  },
  {
    "id": "under-the-rose-brewing-company-midtown-location",
    "name": "Under the Rose Brewing Company MidTown Location",
    "brewery_type": "brewpub",
    "street": "1041 S Virginia St",
    "city": "Reno",
    "state": "Nevada",
    "postal_code": "89502",
    "website_url": "",
    "phone": "",
    "created_at": "2018-07-24 01:33:44.83237",
    "updated_at": "2018-08-24 15:35:51.41105",
    "country": "United States",
    "longitude": "-119.807260444444",
    "latitude": "39.5138747777778",
    "tags": []
  },
  {
    "id": "brasserie-saint-james-the-saint-barrelhouse",
    "name": "Brasserie Saint James - The Saint Barrelhouse",
    "brewery_type": "micro",
    "street": "761 S. Virginia St",
    "city": "Reno",
    "state": "Nevada",
    "postal_code": "89501-2307",
    "website_url": "",
    "phone": "7753488888",
    "created_at": "2018-07-24 01:33:44.302924",
    "updated_at": "2018-08-24 15:35:33.946534",
    "country": "United States",
    "longitude": "-119.8090037",
    "latitude": "39.5173316",
    "tags": []
  }
]