[
  {
    "id": "hondos-brew-and-cork-pub",
    "name": "Hondo's Brew and Cork Pub",
    "brewery_type": "micro",
    "street": "2703 Marine Dr",
    "city": "Astoria",
    "state": "Oregon",
    "postal_code": "97103-2900",
    "website_url": "http://www.hondosbrew.net",
    "phone": "5033252234",
    "created_at": "2018-07-24 01:34:06.246037",
    "updated_at": "2018-08-24 16:02:11.91167",
    "country": "United States",
    "longitude": "-123.814042588465",
    "latitude": "46.1888581655929",
    "tags": []
  },
  {
    "id": "reach-break-brewing",
    "name": "Reach Break Brewing",
    "brewery_type": "micro",
    "street": "1343 Duane St",
    "city": "Astoria",
    "state": "Oregon",
    "postal_code": "97103-3917",
    "website_url": "",
    "phone": "5034680743",
    "created_at": "2018-07-24 01:34:07.490247",
    "updated_at": "2018-08-24 16:04:23.323863",
    "country": "United States",
    "longitude": "-123.828993084975",
    "latitude": "46.1883674134406",
    "tags": []
  },
  {
    "id": "astoria-brewing-company",
    "name": "Astoria Brewing Company",
    "brewery_type": "micro",
    "street": "1196 Marine Dr",
    "city": "Astoria",
    "state": "Oregon",
    "postal_code": "97103-4112",
    "website_url": "",
    "phone": "5037413040",
    "created_at": "2018-07-24 01:34:04.67981",
    "updated_at": "2018-08-24 15:45:50.938261",
    "country": "United States",
    "longitude": "-123.831516",
    "latitude": "46.1898025918367",
    "tags": []
  },
  {
    "id": "buoy-beer-company",
    "name": "Buoy Beer Company",
    "brewery_type": "micro",
    "street": "1 8th St",
    "city": "Astoria",
    "state": "Oregon",
    "postal_code": "97103-4506",
    "website_url": "http://www.buoybeer.com",
    "phone": "5033254540",
    "created_at": "2018-07-24 01:34:05.280426",
    "updated_at": "2018-08-24 15:46:06.146198",
    "country": "United States",
    "longitude": "-123.835151010323",
    "latitude": "46.1913235",
    "tags": []
  },
  {
    "id": "fort-george-brewery",
    "name": "Fort George Brewery",
    "brewery_type": "regional",
    "street": "1483 Duane St",
    "city": "Astoria",
    "state": "Oregon",
    "postal_code": "97103-3819",
    "website_url": "http://www.fortgeorgebrewery.com",
    "phone": "5033257468",
    "created_at": "2018-07-24 01:34:05.954731",
    "updated_at": "2018-08-24 16:01:41.124187",
    "country": "United States",
    "longitude": "-123.8274681",
    "latitude": "46.1883837",
    "tags": []
  },
  {
    "id": "wet-dog-cafe-and-brewery",
    "name": "Wet Dog Cafe & Brewery",
    "brewery_type": "brewpub",
    "street": "990 Astor St",
    "city": "Astoria",
    "state": "Oregon",
    "postal_code": "97103-4201",
    "website_url": "http://www.wetdogcafe.com",
    "phone": "5033256975",
    "created_at": "2018-07-24 01:34:08.341727",
    "updated_at": "2018-08-24 16:05:43.05236",
    "country": "United States",
    "longitude": "-123.835821",
    "latitude": "46.190557",
    "tags": []
  }
]