[
  {
    "id": "cascade-brewing-blending-house",
    "name": "Cascade Brewing Blending House",
    "brewery_type": "micro",
    "street": "6770 SW 111th Ave",
    "city": "Beaverton",
    "state": "Oregon",
    "postal_code": "97008-5336",
    "website_url": "http://www.cascadebrewing.com",
    "phone": "5033660730",
    "created_at": "2018-07-24 01:34:05.367462",
    "updated_at": "2018-08-24 15:46:08.977424",
    "country": "United States",
    "longitude": "-122.7900557",
    "latitude": "45.4709556",
    "tags": []
  },
  {
    "id": "cooper-mountain-ale-works",
    "name": "Cooper Mountain Ale Works",
    "brewery_type": "micro",
    "street": "15855 SW Kestrel Ct",
    "city": "Beaverton",
    "state": "Oregon",
    "postal_code": "97007-9200",
    "website_url": "http://www.coopermountainaleworks.com",
    "phone": "5035807175",
    "created_at": "2018-07-24 01:34:05.556109",
    "updated_at": "2018-08-24 15:46:15.449805",
    "country": "United States",
    "longitude": "-122.840033324208",
    "latitude": "45.4314259",
    "tags": []
  },
  {
    "id": "little-beast-brewing",
    "name": "Little Beast Brewing",
    "brewery_type": "micro",
    "street": "3800 SW Cedar Hills Blvd Ste 300E",
    "city": "Beaverton",
    "state": "Oregon",
    "postal_code": "97005-2037",
    "website_url": "http://www.littlebeastbrewing.com/",
    "phone": "5033295107",
    "created_at": "2018-07-24 01:34:06.46323",
    "updated_at": "2018-08-11 21:39:14.936412",
    "country": "United States",
    "longitude": "",
    "latitude": "",
    "tags": []
  },
  {
    "id": "mcmenamins-cedar-hills",
    "name": "McMenamins - Cedar Hills",
    "brewery_type": "brewpub",
    "street": "2885 SW Cedar Hills Blvd",
    "city": "Beaverton",
    "state": "Oregon",
    "postal_code": "97005-1343",
    "website_url": "",
    "phone": "5036410151",
    "created_at": "2018-07-24 01:34:06.630888",
    "updated_at": "2018-08-24 16:02:53.223691",
    "country": "United States",
    "longitude": "-122.8058983",
    "latitude": "45.5013601",
    "tags": []
  },
  {
    "id": "mcmenamins-murray-and-allen",
    "name": "McMenamins Murray & Allen",
    "brewery_type": "brewpub",
    "street": "6179 SW Murray Blvd",
    "city": "Beaverton",
    "state": "Oregon",
    "postal_code": "97008-4421",
    "website_url": "http://www.mcmenamins.com",
    "phone": "5035269618",
    "created_at": "2018-07-24 01:34:06.793784",
    "updated_at": "2018-08-24 16:03:11.078694",
    "country": "United States",
    "longitude": "-122.826453698962",
    "latitude": "45.4750792",
    "tags": []
  }
]