[
  {
    "id": "block-15-brewery-and-tap-room",
    "name": "Block 15 Brewery & Tap Room",
    "brewery_type": "brewpub",
    "street": "3415 SW Deschutes St",
    "city": "Corvallis",
    "state": "Oregon",
    "postal_code": "97333-9283",
    "website_url": "http://www.block15.com",
    "phone": "5417522337",
    "created_at": "2018-07-24 01:34:04.938179",
    "updated_at": "2018-08-24 15:46:00.338546",
    "country": "United States",
    "longitude": "-123.26904899802",
    "latitude": "44.5305284",
    "tags": []
  },
  {
    "id": "mcmenamins-on-monroe",
    "name": "McMenamins on Monroe",
    "brewery_type": "brewpub",
    "street": "2001 NW Monroe Ave Ste 106",
    "city": "Corvallis",
    "state": "Oregon",
    "postal_code": "97330-5567",
    "website_url": "",
    "phone": "5417580880",
    "created_at": "2018-07-24 01:34:06.847678",
    "updated_at": "2018-08-11 21:39:15.994981",
    "country": "United States",
    "longitude": "",
    "latitude": "",
    "tags": []
  },
  {
    "id": "block-15",
    "name": "Block 15",
    "brewery_type": "brewpub",
    "street": "300 SW Jefferson Ave",
    "city": "Corvallis",
    "state": "Oregon",
    "postal_code": "97333-4607",
    "website_url": "",
    "phone": "5417582077",
    "created_at": "2018-07-24 01:34:04.925859",
    "updated_at": "2018-08-24 15:45:59.894281",
    "country": "United States",
    "longitude": "-123.262222",
    "latitude": "44.5622701",
    "tags": []
  },
  {
    "id": "dirt-road-brewing",
    "name": "Dirt Road Brewing",
    "brewery_type": "planning",
    "street": "",
    "city": "Corvallis",
    "state": "Oregon",
    "postal_code": "97330-3005",
    "website_url": "http://dirtroadbrewing.com",
    "phone": "5415984221",
    "created_at": "2018-07-24 01:34:05.757467",
    "updated_at": "2018-08-11 21:39:13.052993",
    "country": "United States",
    "longitude": "",
    "latitude": "",
    "tags": []
  },
  {
    "id": "flat-tail-brewing-co",
    "name": "Flat Tail Brewing Co",
    "brewery_type": "brewpub",
    "street": "202 SW 1st St",
    "city": "Corvallis",
    "state": "Oregon",
    "postal_code": "97333-4727",
    "website_url": "http://www.flattailcorvallis.com",
    "phone": "5417582229",
    "created_at": "2018-07-24 01:34:05.926798",
    "updated_at": "2018-08-24 16:01:38.155722",
    "country": "United States",
    "longitude": "-123.259877505224",
    "latitude": "44.5619623733513",
    "tags": []
  },
  {
    "id": "mazama-brewing-co",
    "name": "Mazama Brewing Co",
    "brewery_type": "micro",
    "street": "33930 SE Eastgate Cir Unit A",
    "city": "Corvallis",
    "state": "Oregon",
    "postal_code": "97333-2272",
    "website_url": "http://www.mazamabrewing.com",
    "phone": "15412301810",
    "created_at": "2018-07-24 01:34:06.605423",
    "updated_at": "2018-08-11 21:39:15.290312",
    "country": "United States",
    "longitude": "",
    "latitude": "",
    "tags": []
  },
  {
    "id": "oregon-trail-brewery",
    "name": "Oregon Trail Brewery",
    "brewery_type": "micro",
    "street": "341 SW 2nd St",
    "city": "Corvallis",
    "state": "Oregon",
    "postal_code": "97333-4640",
    "website_url": "http://www.oregontrailbrewery.com",
    "phone": "5417583527",
    "created_at": "2018-07-24 01:34:07.238328",
    "updated_at": "2018-08-24 16:03:55.712734",
    "country": "United States",
    "longitude": "-123.2608445",
    "latitude": "44.5612822",
    "tags": []
  },
  {
    "id": "splintercat-brewing",
    "name": "Splintercat Brewing",
    "brewery_type": "planning",
    "street": "",
    "city": "Corvallis",
    "state": "Oregon",
    "postal_code": "97330-1348",
    "website_url": "",
    "phone": "",
    "created_at": "2018-07-24 01:34:07.895396",
    "updated_at": "2018-08-11 21:39:19.37054",
    "country": "United States",
    "longitude": "",
    "latitude": "",
    "tags": []
  },
  {
    "id": "sky-high-brewing",
    "name": "Sky High Brewing",
    "brewery_type": "brewpub",
    "street": "160 NW Jackson Ave",
    "city": "Corvallis",
    "state": "Oregon",
    "postal_code": "97330-4827",
    "website_url": "http://www.skyhighbrewing.com",
    "phone": "5412073277",
    "created_at": "2018-07-24 01:34:07.845551",
    "updated_at": "2018-08-24 16:04:57.991777",
    "country": "United States",
    "longitude": "-123.2590342",
    "latitude": "44.5648291",
    "tags": []
  }
]