[
  {
    "id": "coldfire-brewing",
    "name": "Coldfire Brewing",
    "brewery_type": "micro",
    "street": "263 Mill St",
    "city": "Eugene",
    "state": "Oregon",
    "postal_code": "97401-2410",
    "website_url": "http://www.coldfirebrewing.com",
    "phone": "5415569374",
    "created_at": "2018-07-24 01:34:05.490556",
    "updated_at": "2018-08-24 15:46:13.160298",
    "country": "United States",
    "longitude": "-123.086497632653",
    "latitude": "44.0567465714286",
    "tags": []
  },
  {
    "id": "mckenzie-brewing-company",
    "name": "McKenzie Brewing Company",
    "brewery_type": "brewpub",
    "street": "199 E 5th Ave",
    "city": "Eugene",
    "state": "Oregon",
    "postal_code": "97401-8715",
    "website_url": "http://www.steelheadbrewery.com",
    "phone": "5416862739",
    "created_at": "2018-07-24 01:34:06.617987",
    "updated_at": "2018-08-24 16:02:51.699246",
    "country": "United States",
    "longitude": "-123.089843",
    "latitude": "44.054404",
    "tags": []
  },
  {
    "id": "agrarian-ales-llc",
    "name": "Agrarian Ales, LLC",
    "brewery_type": "micro",
    "street": "31115 W Crossroads Ln",
    "city": "Eugene",
    "state": "Oregon",
    "postal_code": "97408-9220",
    "website_url": "http://www.agales.com",
    "phone": "5416323803",
    "created_at": "2018-07-24 01:34:04.527205",
    "updated_at": "2018-08-11 21:39:09.620345",
    "country": "United States",
    "longitude": "",
    "latitude": "",
    "tags": []
  },
  {
    "id": "alesong-brewing-and-blending",
    "name": "Alesong Brewing and Blending",
    "brewery_type": "micro",
    "street": "1000 Conger St Ste C",
    "city": "Eugene",
    "state": "Oregon",
    "postal_code": "97402-2950",
    "website_url": "http://www.alesongbrewing.com",
    "phone": "5419723303",
    "created_at": "2018-07-24 01:34:04.565757",
    "updated_at": "2018-08-11 21:39:09.70256",
    "country": "United States",
    "longitude": "",
    "latitude": "",
    "tags": []
  },
  {
    "id": "alesong-brewing-and-tasting-room",
    "name": "Alesong Brewing and Tasting Room",
    "brewery_type": "micro",
    "street": "1000 Conger Unit C",
    "city": "Eugene",
    "state": "Oregon",
    "postal_code": "97402",
    "website_url": "http://www.alesongbrewing.com",
    "phone": "5419723303",
    "created_at": "2018-07-24 01:34:04.580253",
    "updated_at": "2018-08-11 21:39:09.731523",
    "country": "United States",
    "longitude": "",
    "latitude": "",
    "tags": []
  },
  {
    "id": "brewery-in-planning-eugene",
    "name": "Brewery In Planning - Eugene",
    "brewery_type": "planning",
    "street": "",
    "city": "Eugene",
    "state": "Oregon",
    "postal_code": "97401-7004",
    "website_url": "",
    "phone": "",
    "created_at": "2018-07-24 01:34:05.171997",
    "updated_at": "2018-08-11 21:39:11.494108",
    "country": "United States",
    "longitude": "",
    "latitude": "",
    "tags": []
  },
  {
    "id": "brewery-in-planning-eugene",
    "name": "Brewery in Planning - Eugene",
    "brewery_type": "planning",
    "street": "",
    "city": "Eugene",
    "state": "Oregon",
    "postal_code": "97401-5318",
    "website_url": "",
    "phone": "",
    "created_at": "2018-07-24 01:34:05.186262",
    "updated_at": "2018-08-11 21:39:11.522154",
    "country": "United States",
    "longitude": "",
    "latitude": "",
    "tags": []
  },
  {
    "id": "claim-52-brewing",
    "name": "Claim 52 Brewing",
    "brewery_type": "micro",
    "street": "1030 Tyinn St Ste 1",
    "city": "Eugene",
    "state": "Oregon",
    "postal_code": "97402-6933",
    "website_url": "",
    "phone": "5415546786",
    "created_at": "2018-07-24 01:34:05.436616",
    "updated_at": "2018-08-11 21:39:12.102351",
    "country": "United States",
    "longitude": "",
    "latitude": "",
    "tags": []
  },
  {
    "id": "elk-horn-brewery",
    "name": "Elk Horn Brewery",
    "brewery_type": "brewpub",
    "street": "686 E Broadway",
    "city": "Eugene",
    "state": "Oregon",
    "postal_code": "97401-3340",
    "website_url": "http://www.elkhornbrewery.com",
    "phone": "5415058356",
    "created_at": "2018-07-24 01:34:05.835331",
    "updated_at": "2018-08-11 21:39:13.252752",
    "country": "United States",
    "longitude": "",
    "latitude": "",
    "tags": []
  },
  {
    "id": "falling-sky-brewing",
    "name": "Falling Sky Brewing",
    "brewery_type": "brewpub",
    "street": "1334 Oak Aly",
    "city": "Eugene",
    "state": "Oregon",
    "postal_code": "97401-3190",
    "website_url": "http://www.fallingskybrewing.com",
    "phone": "5415057096",
    "created_at": "2018-07-24 01:34:05.87367",
    "updated_at": "2018-08-11 21:39:13.358146",
    "country": "United States",
    "longitude": "",
    "latitude": "",
    "tags": []
  },
  {
    "id": "hop-valley-brewing-co",
    "name": "Hop Valley Brewing Co",
    "brewery_type": "large",
    "street": "990 W 1st Ave",
    "city": "Eugene",
    "state": "Oregon",
    "postal_code": "97402-4904",
    "website_url": "",
    "phone": "",
    "created_at": "2018-07-24 01:34:06.270972",
    "updated_at": "2018-08-24 16:02:13.389466",
    "country": "United States",
    "longitude": "-123.107450623016",
    "latitude": "44.05820645",
    "tags": []
  },
  {
    "id": "manifest-beer-company",
    "name": "Manifest Beer Company",
    "brewery_type": "micro",
    "street": "740 Willamette St",
    "city": "Eugene",
    "state": "Oregon",
    "postal_code": "97401-2934",
    "website_url": "http://www.manifestbeer.com",
    "phone": "5412067232",
    "created_at": "2018-07-24 01:34:06.577377",
    "updated_at": "2018-08-24 16:02:46.571121",
    "country": "United States",
    "longitude": "-123.092850664492",
    "latitude": "44.0517483327816",
    "tags": []
  },
  {
    "id": "mcmenamins-high-street-brewery",
    "name": "McMenamins High Street Brewery",
    "brewery_type": "brewpub",
    "street": "1243 High St",
    "city": "Eugene",
    "state": "Oregon",
    "postal_code": "97401-3207",
    "website_url": "http://www.mcmenamins.com",
    "phone": "5413454913",
    "created_at": "2018-07-24 01:34:06.722013",
    "updated_at": "2018-08-24 16:03:03.502759",
    "country": "United States",
    "longitude": "-123.087913357788",
    "latitude": "44.0461346",
    "tags": []
  },
  {
    "id": "oakshire-brewing",
    "name": "Oakshire Brewing",
    "brewery_type": "micro",
    "street": "1055 Madera St",
    "city": "Eugene",
    "state": "Oregon",
    "postal_code": "97402-2019",
    "website_url": "http://www.oakbrew.com",
    "phone": "5416884555",
    "created_at": "2018-07-24 01:34:07.100145",
    "updated_at": "2018-08-24 16:03:42.32408",
    "country": "United States",
    "longitude": "-123.141024138695",
    "latitude": "44.0729935509725",
    "tags": []
  },
  {
    "id": "sam-bonds-brewing-co",
    "name": "Sam Bond's Brewing Co",
    "brewery_type": "brewpub",
    "street": "540 E 8th Ave",
    "city": "Eugene",
    "state": "Oregon",
    "postal_code": "97401-3344",
    "website_url": "http://www.sambondsbrewing.com",
    "phone": "5412468162",
    "created_at": "2018-07-24 01:34:07.667503",
    "updated_at": "2018-08-24 16:04:41.595074",
    "country": "United States",
    "longitude": "-123.084330714218",
    "latitude": "44.0509361107309",
    "tags": []
  },
  {
    "id": "the-viking-braggot-company",
    "name": "The Viking Braggot Company",
    "brewery_type": "micro",
    "street": "520 Commercial St Unit F",
    "city": "Eugene",
    "state": "Oregon",
    "postal_code": "97402-5347",
    "website_url": "http://www.drinkviking.com",
    "phone": "5416538371",
    "created_at": "2018-07-24 01:34:08.073781",
    "updated_at": "2018-08-11 21:39:19.803615",
    "country": "United States",
    "longitude": "",
    "latitude": "",
    "tags": []
  },
  {
    "id": "ninkasi-brewing-co",
    "name": "Ninkasi Brewing Co",
    "brewery_type": "regional",
    "street": "155 Blair Blvd",
    "city": "Eugene",
    "state": "Oregon",
    "postal_code": "97402-4146",
    "website_url": "http://www.ninkasibrewing.com",
    "phone": "5413442739",
    "created_at": "2018-07-24 01:34:07.059805",
    "updated_at": "2018-08-24 16:03:40.853347",
    "country": "United States",
    "longitude": "-123.110889136509",
    "latitude": "44.0573432630607",
    "tags": []
  }
]