[
  {
    "id": "climate-city-brewing-co",
    "name": "Climate City Brewing Co.",
    "brewery_type": "brewpub",
    "street": "509 SW G St",
    "city": "Grants Pass",
    "state": "Oregon",
    "postal_code": "97526-2472",
    "website_url": "http://www.climatecitybrewing.com",
    "phone": "5414793725",
    "created_at": "2018-07-24 01:34:05.449068",
    "updated_at": "2018-08-24 15:46:11.781232",
    "country": "United States",
    "longitude": "-123.3313287",
    "latitude": "42.4401171",
    "tags": []
  },
  {
    "id": "conner-fields-brewing",
    "name": "Conner Fields Brewing",
    "brewery_type": "brewpub",
    "street": "121 SW H St",
    "city": "Grants Pass",
    "state": "Oregon",
    "postal_code": "97526-2505",
    "website_url": "http://www.connerfields.com",
    "phone": "5415082337",
    "created_at": "2018-07-24 01:34:05.530648",
    "updated_at": "2018-08-24 15:46:14.527616",
    "country": "United States",
    "longitude": "-123.328492120766",
    "latitude": "42.438424006117",
    "tags": []
  },
  {
    "id": "jds-sports-pub-and-brewery",
    "name": "JD's Sports Pub and Brewery",
    "brewery_type": "brewpub",
    "street": "690 Redwood Hwy",
    "city": "Grants Pass",
    "state": "Oregon",
    "postal_code": "97527-5582",
    "website_url": "http://www.jdssportsbarandbrewery.com",
    "phone": "5414710383",
    "created_at": "2018-07-24 01:34:06.323213",
    "updated_at": "2018-08-24 16:02:19.410847",
    "country": "United States",
    "longitude": "-123.342051549296",
    "latitude": "42.4231906197183",
    "tags": []
  },
  {
    "id": "wild-river-brewing-and-pizza-co-grants-pass",
    "name": "Wild River Brewing and Pizza Co - Grants Pass",
    "brewery_type": "brewpub",
    "street": "595 NE E St",
    "city": "Grants Pass",
    "state": "Oregon",
    "postal_code": "97526-2356",
    "website_url": "http://www.wildriverbrewing.com",
    "phone": "5414717487",
    "created_at": "2018-07-24 01:34:08.396716",
    "updated_at": "2018-08-24 16:05:48.955204",
    "country": "United States",
    "longitude": "-123.319000015728",
    "latitude": "42.4392751152982",
    "tags": []
  },
  {
    "id": "mountain-view-brewing",
    "name": "Mountain View Brewing",
    "brewery_type": "micro",
    "street": "161 Mountain View Pl",
    "city": "Grants Pass",
    "state": "Oregon",
    "postal_code": "97527-4607",
    "website_url": "",
    "phone": "5414410314",
    "created_at": "2018-07-24 01:34:07.017949",
    "updated_at": "2018-08-11 21:39:16.538415",
    "country": "United States",
    "longitude": "",
    "latitude": "",
    "tags": []
  }
]