[
  {
    "id": "mcmenamins-highland-pub-and-brewery",
    "name": "McMenamins Highland Pub and Brewery",
    "brewery_type": "brewpub",
    "street": "4225 SE 182nd Ave",
    "city": "Gresham",
    "state": "Oregon",
    "postal_code": "97030-5082",
    "website_url": "http://www.mcmenamins.com",
    "phone": "5036653015",
    "created_at": "2018-07-24 01:34:06.734969",
    "updated_at": "2018-08-24 16:03:04.947869",
    "country": "United States",
    "longitude": "-122.475814964173",
    "latitude": "45.4915603",
    "tags": []
  },
  {
    "id": "barley-sprouts-brewery",
    "name": "Barley Sprouts Brewery",
    "brewery_type": "brewpub",
    "street": "639 SE 223rd Ave",
    "city": "Gresham",
    "state": "Oregon",
    "postal_code": "97030-2509",
    "website_url": "http://www.capturedbyporches.com",
    "phone": "5037586464",
    "created_at": "2018-07-24 01:34:04.765255",
    "updated_at": "2018-08-24 15:45:54.226673",
    "country": "United States",
    "longitude": "-122.433903852349",
    "latitude": "45.5180508657718",
    "tags": []
  },
  {
    "id": "krauskis-brewskis-/-the-hoppy-brewer",
    "name": "Krauski's Brewskis / The Hoppy Brewer",
    "brewery_type": "micro",
    "street": "328 N Main Ave",
    "city": "Gresham",
    "state": "Oregon",
    "postal_code": "97030-7210",
    "website_url": "http://www.oregonshoppyplace.com",
    "phone": "5033288474",
    "created_at": "2018-07-24 01:34:06.387422",
    "updated_at": "2018-08-24 16:02:26.967559",
    "country": "United States",
    "longitude": "-122.430839",
    "latitude": "45.4999224285714",
    "tags": []
  },
  {
    "id": "the-hop-haus",
    "name": "The Hop Haus",
    "brewery_type": "micro",
    "street": "2568 SW Orchard Ct",
    "city": "Gresham",
    "state": "Oregon",
    "postal_code": "97080-9532",
    "website_url": "",
    "phone": "5033108113",
    "created_at": "2018-07-24 01:34:08.058328",
    "updated_at": "2018-08-24 16:05:19.092399",
    "country": "United States",
    "longitude": "-122.449773554501",
    "latitude": "45.4787523",
    "tags": []
  }
]