[
  {
    "id": "ambacht-brewing",
    "name": "Ambacht Brewing",
    "brewery_type": "micro",
    "street": "1060 NE 25th Ave Ste B",
    "city": "Hillsboro",
    "state": "Oregon",
    "postal_code": "97124-4903",
    "website_url": "http://www.ambacht.us",
    "phone": "5038281400",
    "created_at": "2018-07-24 01:34:04.606291",
    "updated_at": "2018-08-11 21:39:09.78623",
    "country": "United States",
    "longitude": "",
    "latitude": "",
    "tags": []
  },
  {
    "id": "deep-space-brewing-/-out-of-this-world-pizza",
    "name": "Deep Space Brewing / Out of This World Pizza",
    "brewery_type": "brewpub",
    "street": "6255 NE Century Blvd",
    "city": "Hillsboro",
    "state": "Oregon",
    "postal_code": "97124-8621",
    "website_url": "",
    "phone": "5036298700",
    "created_at": "2018-07-24 01:34:05.680111",
    "updated_at": "2018-08-24 16:01:15.743353",
    "country": "United States",
    "longitude": "-122.912049",
    "latitude": "45.564963",
    "tags": []
  },
  {
    "id": "mcmenamins-cornelius-pass-roadhouse",
    "name": "McMenamins Cornelius Pass Roadhouse",
    "brewery_type": "brewpub",
    "street": "4045 NE Cornelius Pass Rd",
    "city": "Hillsboro",
    "state": "Oregon",
    "postal_code": "97124-9367",
    "website_url": "http://www.mcmenamins.com",
    "phone": "5036406174",
    "created_at": "2018-07-24 01:34:06.669798",
    "updated_at": "2018-08-24 16:02:57.633656",
    "country": "United States",
    "longitude": "-122.9009845",
    "latitude": "45.5490862",
    "tags": []
  },
  {
    "id": "vertigo-brewing",
    "name": "Vertigo Brewing",
    "brewery_type": "micro",
    "street": "21420 NW Nicholas Ct Ste D-7",
    "city": "Hillsboro",
    "state": "Oregon",
    "postal_code": "97124-6633",
    "website_url": "http://www.vertigobrew.com",
    "phone": "5036456644",
    "created_at": "2018-07-24 01:34:08.242583",
    "updated_at": "2018-08-11 21:39:20.617699",
    "country": "United States",
    "longitude": "",
    "latitude": "",
    "tags": []
  },
  {
    "id": "three-mugs-brewing-company",
    "name": "Three Mugs Brewing Company",
    "brewery_type": "micro",
    "street": "2020 NE Aloclek Dr Ste 108",
    "city": "Hillsboro",
    "state": "Oregon",
    "postal_code": "97124-8053",
    "website_url": "http://threemugsbrewing.com",
    "phone": "9713220232",
    "created_at": "2018-07-24 01:34:08.118334",
    "updated_at": "2018-08-24 16:05:23.5931",
    "country": "United States",
    "longitude": "-122.8989637571",
    "latitude": "45.5346924222001",
    "tags": []
  }
]