[
  {
    "id": "big-horse-brewpub",
    "name": "Big Horse Brewpub",
    "brewery_type": "brewpub",
    "street": "115 State St",
    "city": "Hood River",
    "state": "Oregon",
    "postal_code": "97031-2315",
    "website_url": "http://www.bighorsebrewpub.com",
    "phone": "5413864411",
    "created_at": "2018-07-24 01:34:04.890045",
    "updated_at": "2018-08-24 15:45:58.471254",
    "country": "United States",
    "longitude": "-121.5120956",
    "latitude": "45.7079528",
    "tags": []
  },
  {
    "id": "double-mountain-brewery",
    "name": "Double Mountain Brewery",
    "brewery_type": "micro",
    "street": "8 4th St Ste 204",
    "city": "Hood River",
    "state": "Oregon",
    "postal_code": "97031-2123",
    "website_url": "http://www.doublemountainbrewery.com",
    "phone": "5413870042",
    "created_at": "2018-07-24 01:34:05.771488",
    "updated_at": "2018-08-11 21:39:13.100866",
    "country": "United States",
    "longitude": "",
    "latitude": "",
    "tags": []
  },
  {
    "id": "full-sail-brewing-co",
    "name": "Full Sail Brewing Co",
    "brewery_type": "regional",
    "street": "506 Columbia St",
    "city": "Hood River",
    "state": "Oregon",
    "postal_code": "97031-2000",
    "website_url": "http://www.fullsailbrewing.com",
    "phone": "5413862281",
    "created_at": "2018-07-24 01:34:05.996669",
    "updated_at": "2018-08-24 16:01:45.633892",
    "country": "United States",
    "longitude": "-121.516530136046",
    "latitude": "45.7103609080879",
    "tags": []
  },
  {
    "id": "logsdon-farmhouse-ales",
    "name": "Logsdon Farmhouse Ales",
    "brewery_type": "micro",
    "street": "4785 Booth Hill Rd",
    "city": "Hood River",
    "state": "Oregon",
    "postal_code": "97031-7411",
    "website_url": "http://www.farmhousebeer.com",
    "phone": "5414909161",
    "created_at": "2018-07-24 01:34:06.47599",
    "updated_at": "2018-08-24 16:02:35.957199",
    "country": "United States",
    "longitude": "-121.537583702572",
    "latitude": "45.5876398471728",
    "tags": []
  },
  {
    "id": "pfriem-family-brewers",
    "name": "PFriem Family Brewers",
    "brewery_type": "regional",
    "street": "707 Portway Ave Ste 101",
    "city": "Hood River",
    "state": "Oregon",
    "postal_code": "97031-1218",
    "website_url": "http://www.pfriembeer.com",
    "phone": "5413210490",
    "created_at": "2018-07-24 01:34:07.302494",
    "updated_at": "2018-08-24 16:04:03.219137",
    "country": "United States",
    "longitude": "-121.51797",
    "latitude": "45.714751",
    "tags": []
  }
]