[
  {
    "id": "allegory-brewing",
    "name": "Allegory Brewing",
    "brewery_type": "micro",
    "street": "777 NE 4th St",
    "city": "McMinnville",
    "state": "Oregon",
    "postal_code": "97128-4502",
    "website_url": "http://www.allegorybrewing.com",
    "phone": "9713731253",
    "created_at": "2018-07-24 01:34:04.592793",
    "updated_at": "2018-08-24 15:45:48.550524",
    "country": "United States",
    "longitude": "-123.191780632618",
    "latitude": "45.2108191743635",
    "tags": []
  },
  {
    "id": "evasion-brewing-production-facility",
    "name": "Evasion Brewing - Production Facility",
    "brewery_type": "micro",
    "street": "4230 NE Riverside Dr",
    "city": "McMinnville",
    "state": "Oregon",
    "postal_code": "97128-8403",
    "website_url": "http://www.evasionbrewing.com",
    "phone": "5038355322",
    "created_at": "2018-07-24 01:34:05.847764",
    "updated_at": "2018-08-24 16:01:30.658577",
    "country": "United States",
    "longitude": "-123.151961860307",
    "latitude": "45.2289999485343",
    "tags": []
  },
  {
    "id": "grain-station-brew-works",
    "name": "Grain Station Brew Works",
    "brewery_type": "brewpub",
    "street": "755 NE Alpine Ave Ste 200",
    "city": "McMinnville",
    "state": "Oregon",
    "postal_code": "97128-4102",
    "website_url": "http://www.grainstation.com",
    "phone": "5036872739",
    "created_at": "2018-07-24 01:34:06.133651",
    "updated_at": "2018-08-11 21:39:14.056307",
    "country": "United States",
    "longitude": "",
    "latitude": "",
    "tags": []
  },
  {
    "id": "golden-valley-brewery-and-pub",
    "name": "Golden Valley Brewery and Pub",
    "brewery_type": "brewpub",
    "street": "980 NE 4th St",
    "city": "McMinnville",
    "state": "Oregon",
    "postal_code": "97128-4308",
    "website_url": "",
    "phone": "",
    "created_at": "2018-07-24 01:34:06.092746",
    "updated_at": "2018-08-24 16:01:56.192011",
    "country": "United States",
    "longitude": "-123.189492489758",
    "latitude": "45.2106571311035",
    "tags": []
  },
  {
    "id": "heater-allen-brewery",
    "name": "Heater Allen Brewery",
    "brewery_type": "micro",
    "street": "907 NE 10th Ave",
    "city": "McMinnville",
    "state": "Oregon",
    "postal_code": "97128-4003",
    "website_url": "http://www.heaterallen.com",
    "phone": "5034724898",
    "created_at": "2018-07-24 01:34:06.214729",
    "updated_at": "2018-08-24 16:02:08.539421",
    "country": "United States",
    "longitude": "-123.187972797883",
    "latitude": "45.2140723442996",
    "tags": []
  }
]