[
  {
    "id": "portal-brewing-co",
    "name": "Portal Brewing Co",
    "brewery_type": "brewpub",
    "street": "100 E 6th St",
    "city": "Medford",
    "state": "Oregon",
    "postal_code": "97501-5902",
    "website_url": "http://www.portalbrewingco.com",
    "phone": "5419410240",
    "created_at": "2018-07-24 01:34:07.354379",
    "updated_at": "2018-08-24 16:04:09.68055",
    "country": "United States",
    "longitude": "-122.873661",
    "latitude": "42.326944",
    "tags": []
  },
  {
    "id": "table-rock-brewing-llc",
    "name": "Table Rock Brewing LLC",
    "brewery_type": "micro",
    "street": "825 Dakota Ave",
    "city": "Medford",
    "state": "Oregon",
    "postal_code": "97501-3443",
    "website_url": "",
    "phone": "5419440829",
    "created_at": "2018-07-24 01:34:08.003545",
    "updated_at": "2018-08-24 16:05:13.070755",
    "country": "United States",
    "longitude": "-122.880767947368",
    "latitude": "42.316445631579",
    "tags": []
  },
  {
    "id": "common-block-brewing-company",
    "name": "Common Block Brewing Company",
    "brewery_type": "contract",
    "street": "315 E 5th Street",
    "city": "Medford",
    "state": "Oregon",
    "postal_code": "97501",
    "website_url": "http://www.commonblockbrewing.com",
    "phone": "5413262277",
    "created_at": "2018-07-24 01:34:05.517393",
    "updated_at": "2018-08-24 15:46:14.085351",
    "country": "United States",
    "longitude": "-122.872489",
    "latitude": "42.3289615454545",
    "tags": []
  },
  {
    "id": "bricktowne-brewing-co",
    "name": "Bricktowne Brewing Co",
    "brewery_type": "brewpub",
    "street": "111 E 8th St",
    "city": "Medford",
    "state": "Oregon",
    "postal_code": "97501-7201",
    "website_url": "http://www.bricktownebeer.com",
    "phone": "5419732377",
    "created_at": "2018-07-24 01:34:05.226228",
    "updated_at": "2018-08-24 15:46:04.746173",
    "country": "United States",
    "longitude": "-122.872152530612",
    "latitude": "42.3254454081633",
    "tags": []
  },
  {
    "id": "opposition-brewing-company",
    "name": "Opposition Brewing Company",
    "brewery_type": "micro",
    "street": "545 Rossanley Dr Ste 106",
    "city": "Medford",
    "state": "Oregon",
    "postal_code": "97501-1771",
    "website_url": "http://www.oppositionbrewing.com",
    "phone": "5412108550",
    "created_at": "2018-07-24 01:34:07.197171",
    "updated_at": "2018-08-24 16:03:52.772103",
    "country": "United States",
    "longitude": "-122.895928035714",
    "latitude": "42.3406442857143",
    "tags": []
  },
  {
    "id": "osmos-alehouse",
    "name": "Osmo's Alehouse",
    "brewery_type": "micro",
    "street": "522 S Central Ave",
    "city": "Medford",
    "state": "Oregon",
    "postal_code": "97501-7246",
    "website_url": "",
    "phone": "5418420557",
    "created_at": "2018-07-24 01:34:07.250698",
    "updated_at": "2018-08-24 16:03:57.19732",
    "country": "United States",
    "longitude": "-122.868327674699",
    "latitude": "42.32230437751",
    "tags": []
  },
  {
    "id": "ram-restaurant-and-brewery-medford",
    "name": "RAM Restaurant and Brewery - Medford",
    "brewery_type": "brewpub",
    "street": "165 Rossanley Dr",
    "city": "Medford",
    "state": "Oregon",
    "postal_code": "97501-1777",
    "website_url": "",
    "phone": "4582259816",
    "created_at": "2018-07-24 01:34:07.435024",
    "updated_at": "2018-08-24 16:04:18.722594",
    "country": "United States",
    "longitude": "-122.8832971",
    "latitude": "42.343116",
    "tags": []
  },
  {
    "id": "walkabout-brewing-co",
    "name": "Walkabout Brewing Co",
    "brewery_type": "micro",
    "street": "921 Mason Way",
    "city": "Medford",
    "state": "Oregon",
    "postal_code": "97501",
    "website_url": "",
    "phone": "5417344677",
    "created_at": "2018-07-24 01:34:08.286033",
    "updated_at": "2018-08-11 21:39:20.77817",
    "country": "United States",
    "longitude": "",
    "latitude": "",
    "tags": []
  }
]