[
  {
    "id": "bent-shovel-brewing",
    "name": "Bent Shovel Brewing",
    "brewery_type": "micro",
    "street": "21678 S Latourette Rd",
    "city": "Oregon City",
    "state": "Oregon",
    "postal_code": "97045-9453",
    "website_url": "http://www.bentshovelbrewing.com",
    "phone": "5038980220",
    "created_at": "2018-07-24 01:34:04.840087",
    "updated_at": "2018-08-11 21:39:10.81334",
    "country": "United States",
    "longitude": "",
    "latitude": "",
    "tags": []
  },
  {
    "id": "coin-toss-brewing-co",
    "name": "Coin Toss Brewing Co",
    "brewery_type": "micro",
    "street": "14214 Fir St Ste H",
    "city": "Oregon City",
    "state": "Oregon",
    "postal_code": "97045-6837",
    "website_url": "http://www.cointossbrewing.com",
    "phone": "5033056220",
    "created_at": "2018-07-24 01:34:05.475837",
    "updated_at": "2018-08-11 21:39:12.256357",
    "country": "United States",
    "longitude": "",
    "latitude": "",
    "tags": []
  },
  {
    "id": "feckin-brewery",
    "name": "Feckin Brewery",
    "brewery_type": "micro",
    "street": "415 S McLoughlin Blvd",
    "city": "Oregon City",
    "state": "Oregon",
    "postal_code": "97045-3101",
    "website_url": "http://www.fecknbrew.com",
    "phone": "5038805608",
    "created_at": "2018-07-24 01:34:05.900847",
    "updated_at": "2018-08-24 16:01:35.180242",
    "country": "United States",
    "longitude": "-122.621790935111",
    "latitude": "45.3474038",
    "tags": []
  },
  {
    "id": "oregon-city-brewing-company",
    "name": "Oregon City Brewing Company",
    "brewery_type": "brewpub",
    "street": "1401 Washington St",
    "city": "Oregon City",
    "state": "Oregon",
    "postal_code": "97045-1650",
    "website_url": "http://www.ocbeerco.com",
    "phone": "5039081948",
    "created_at": "2018-07-24 01:34:07.225526",
    "updated_at": "2018-08-24 16:03:54.244751",
    "country": "United States",
    "longitude": "-122.600148250406",
    "latitude": "45.3617756",
    "tags": []
  }
]