[
  {
    "id": "arlington-club",
    "name": "Arlington Club",
    "brewery_type": "micro",
    "street": "811 SW Salmon St",
    "city": "Portland",
    "state": "Oregon",
    "postal_code": "97205-3094",
    "website_url": "http://www.thearlingtonclub.com",
    "phone": "5032234141",
    "created_at": "2018-07-24 01:34:04.653457",
    "updated_at": "2018-08-24 15:45:50.469081",
    "country": "United States",
    "longitude": "-122.681859641942",
    "latitude": "45.51786855",
    "tags": []
  },
  {
    "id": "cascade-brewing-barrel-house",
    "name": "Cascade Brewing Barrel House",
    "brewery_type": "micro",
    "street": "939 SE Belmont St",
    "city": "Portland",
    "state": "Oregon",
    "postal_code": "97214-2519",
    "website_url": "http://www.cascadebrewing.com",
    "phone": "5032658603",
    "created_at": "2018-07-24 01:34:05.354019",
    "updated_at": "2018-08-24 15:46:08.535167",
    "country": "United States",
    "longitude": "-122.656005749976",
    "latitude": "45.5167536",
    "tags": []
  },
  {
    "id": "scout-beer",
    "name": "Scout Beer",
    "brewery_type": "micro",
    "street": "1516 SE 10th Ave",
    "city": "Portland",
    "state": "Oregon",
    "postal_code": "97214-3585",
    "website_url": "http://www.scoutpdx.com",
    "phone": "5032064735",
    "created_at": "2018-07-24 01:34:07.722783",
    "updated_at": "2018-08-24 15:47:12.443175",
    "country": "United States",
    "longitude": "-122.655590489796",
    "latitude": "45.5120189183673",
    "tags": []
  },
  {
    "id": "full-sail-brewery-riverplace",
    "name": "Full Sail Brewery - Riverplace",
    "brewery_type": "micro",
    "street": "0307 SW Montgomery St",
    "city": "Portland",
    "state": "Oregon",
    "postal_code": "97201-5125",
    "website_url": "http://www.fullsailbrewing.com",
    "phone": "5032225343",
    "created_at": "2018-07-24 01:34:05.982286",
    "updated_at": "2018-08-24 16:01:44.12711",
    "country": "United States",
    "longitude": "-122.673521447995",
    "latitude": "45.50957205",
    "tags": []
  },
  {
    "id": "laurelwood-public-house-and-brewery-se-portland",
    "name": "Laurelwood Public House & Brewery - SE Portland",
    "brewery_type": "brewpub",
    "street": "6716 SE Milwaukie Ave",
    "city": "Portland",
    "state": "Oregon",
    "postal_code": "97202-5618",
    "website_url": "",
    "phone": "5039436157",
    "created_at": "2018-07-24 01:34:06.412167",
    "updated_at": "2018-08-24 16:02:29.973656",
    "country": "United States",
    "longitude": "-122.64849505",
    "latitude": "45.47415655",
    "tags": []
  },
  {
    "id": "mcmenamins-oak-hills-brewery",
    "name": "McMenamins Oak Hills Brewery",
    "brewery_type": "micro",
    "street": "14740 NW Cornell Rd Ste 80",
    "city": "Portland",
    "state": "Oregon",
    "postal_code": "97229-5400",
    "website_url": "http://www.mcmenamins.com",
    "phone": "5036450117",
    "created_at": "2018-07-24 01:34:06.806241",
    "updated_at": "2018-08-24 16:03:12.648219",
    "country": "United States",
    "longitude": "-122.7105079",
    "latitude": "45.5330425",
    "tags": []
  },
  {
    "id": "vanport-brewing-company",
    "name": "Vanport Brewing Company",
    "brewery_type": "planning",
    "street": "",
    "city": "Portland",
    "state": "Oregon",
    "postal_code": "97211-2907",
    "website_url": "",
    "phone": "5032670219",
    "created_at": "2018-07-24 01:34:08.227791",
    "updated_at": "2018-08-11 21:39:20.562474",
    "country": "United States",
    "longitude": "",
    "latitude": "",
    "tags": []
  },
  {
    "id": "great-notion-brewing-nw",
    "name": "Great Notion Brewing NW",
    "brewery_type": "micro",
    "street": "2444 NW 28th Ave",
    "city": "Portland",
    "state": "Oregon",
    "postal_code": "97210",
    "website_url": "",
    "phone": "5035484491",
    "created_at": "2018-07-24 01:34:06.16101",
    "updated_at": "2018-08-24 16:02:02.284407",
    "country": "United States",
    "longitude": "-122.708959927223",
    "latitude": "45.5400197466401",
    "tags": []
  },
  {
    "id": "stormbreaker-brewing",
    "name": "StormBreaker Brewing",
    "brewery_type": "brewpub",
    "street": "832 N Beech St",
    "city": "Portland",
    "state": "Oregon",
    "postal_code": "97227-1215",
    "website_url": "",
    "phone": "",
    "created_at": "2018-07-24 01:34:07.947593",
    "updated_at": "2018-08-24 16:05:08.555748",
    "country": "United States",
    "longitude": "-122.675157299793",
    "latitude": "45.54943475",
    "tags": []
  },
  {
    "id": "10-barrel-brewing-co",
    "name": "10 Barrel Brewing Co",
    "brewery_type": "large",
    "street": "1411 NW Flanders St",
    "city": "Portland",
    "state": "Oregon",
    "postal_code": "97209-2620",
    "website_url": "http://www.10barrel.com",
    "phone": "5032241700",
    "created_at": "2018-07-24 01:34:04.440704",
    "updated_at": "2018-08-24 15:45:43.287265",
    "country": "United States",
    "longitude": "-122.685505575334",
    "latitude": "45.5259786",
    "tags": []
  },
  {
    "id": "13-virtues-brewing-co",
    "name": "13 Virtues Brewing Co",
    "brewery_type": "brewpub",
    "street": "6410 SE Milwaukie Ave",
    "city": "Portland",
    "state": "Oregon",
    "postal_code": "97202-5518",
    "website_url": "http://www.13virtuesbrewing.com",
    "phone": "5032393831",
    "created_at": "2018-07-24 01:34:04.489482",
    "updated_at": "2018-08-24 15:45:45.17839",
    "country": "United States",
    "longitude": "-122.648753114062",
    "latitude": "45.4762536",
    "tags": []
  },
  {
    "id": "alameda-brewing-co",
    "name": "Alameda Brewing Co",
    "brewery_type": "micro",
    "street": "4736 SE 24th Ave",
    "city": "Portland",
    "state": "Oregon",
    "postal_code": "97202-4787",
    "website_url": "",
    "phone": "5034609025",
    "created_at": "2018-07-24 01:34:04.553007",
    "updated_at": "2018-08-24 15:45:47.141344",
    "country": "United States",
    "longitude": "-122.641249469587",
    "latitude": "45.48882655",
    "tags": []
  },
  {
    "id": "assembly-brewing",
    "name": "Assembly brewing",
    "brewery_type": "planning",
    "street": "",
    "city": "Portland",
    "state": "Oregon",
    "postal_code": "97206-3739",
    "website_url": "http://www.assemblybrewingco.com",
    "phone": "5037299080",
    "created_at": "2018-07-24 01:34:04.666937",
    "updated_at": "2018-08-11 21:39:09.967653",
    "country": "United States",
    "longitude": "",
    "latitude": "",
    "tags": []
  },
  {
    "id": "brewery-26",
    "name": "Brewery 26",
    "brewery_type": "micro",
    "street": "",
    "city": "Portland",
    "state": "Oregon",
    "postal_code": "97218-2175",
    "website_url": "http://www.brewery26.com",
    "phone": "5037542250",
    "created_at": "2018-07-24 01:34:05.144447",
    "updated_at": "2018-08-11 21:39:11.435969",
    "country": "United States",
    "longitude": "",
    "latitude": "",
    "tags": []
  },
  {
    "id": "brewery-in-planning-portland",
    "name": "Brewery In Planning - Portland",
    "brewery_type": "planning",
    "street": "",
    "city": "Portland",
    "state": "Oregon",
    "postal_code": "97213",
    "website_url": "",
    "phone": "",
    "created_at": "2018-07-24 01:34:05.212945",
    "updated_at": "2018-08-11 21:39:11.596121",
    "country": "United States",
    "longitude": "",
    "latitude": "",
    "tags": []
  },
  {
    "id": "back-pedal-brewing-company",
    "name": "Back Pedal Brewing Company",
    "brewery_type": "micro",
    "street": "1425 NW Flanders St",
    "city": "Portland",
    "state": "Oregon",
    "postal_code": "97209-2620",
    "website_url": "http://backpedalbrewing.com",
    "phone": "9714005950",
    "created_at": "2018-07-24 01:34:04.692587",
    "updated_at": "2018-08-24 15:45:51.400026",
    "country": "United States",
    "longitude": "-122.68565615",
    "latitude": "45.52597595",
    "tags": []
  },
  {
    "id": "baerlic-brewing-co",
    "name": "Baerlic Brewing Co",
    "brewery_type": "micro",
    "street": "2235 SE 11th Ave",
    "city": "Portland",
    "state": "Oregon",
    "postal_code": "97214-5303",
    "website_url": "http://www.baerlicbrewing.com",
    "phone": "5034779418",
    "created_at": "2018-07-24 01:34:04.716489",
    "updated_at": "2018-08-24 15:45:52.324012",
    "country": "United States",
    "longitude": "-122.655082764836",
    "latitude": "45.50680595",
    "tags": []
  },
  {
    "id": "base-camp-brewing-co",
    "name": "Base Camp Brewing Co",
    "brewery_type": "micro",
    "street": "930 SE Oak St",
    "city": "Portland",
    "state": "Oregon",
    "postal_code": "97214-1307",
    "website_url": "http://www.basecampbrewingco.com",
    "phone": "5034777479",
    "created_at": "2018-07-24 01:34:04.790102",
    "updated_at": "2018-08-24 15:45:55.193558",
    "country": "United States",
    "longitude": "-122.65611084313",
    "latitude": "45.5198818",
    "tags": []
  },
  {
    "id": "breakside-brewery",
    "name": "Breakside Brewery",
    "brewery_type": "brewpub",
    "street": "820 NE Dekum St",
    "city": "Portland",
    "state": "Oregon",
    "postal_code": "97211-3630",
    "website_url": "http://www.breakside.com",
    "phone": "5037196475",
    "created_at": "2018-07-24 01:34:04.992341",
    "updated_at": "2018-08-24 15:46:02.35129",
    "country": "United States",
    "longitude": "-122.657116959184",
    "latitude": "45.5716937959184",
    "tags": []
  },
  {
    "id": "breakside-brewery-slabtown",
    "name": "Breakside Brewery Slabtown",
    "brewery_type": "brewpub",
    "street": "1570 NW 22nd Ave",
    "city": "Portland",
    "state": "Oregon",
    "postal_code": "97210-2369",
    "website_url": "http://breakside.com",
    "phone": "5034447597",
    "created_at": "2018-07-24 01:34:05.046316",
    "updated_at": "2018-08-24 15:46:03.333198",
    "country": "United States",
    "longitude": "-122.696613142857",
    "latitude": "45.5338498571429",
    "tags": []
  },
  {
    "id": "brewed-by-gnomes",
    "name": "Brewed By Gnomes",
    "brewery_type": "contract",
    "street": "1735 SE 33rd Ave",
    "city": "Portland",
    "state": "Oregon",
    "postal_code": "97214-5024",
    "website_url": "",
    "phone": "",
    "created_at": "2018-07-24 01:34:05.059004",
    "updated_at": "2018-08-24 15:46:03.800823",
    "country": "United States",
    "longitude": "-122.63085305",
    "latitude": "45.51021595",
    "tags": []
  },
  {
    "id": "bridgeport-brewing-co",
    "name": "BridgePort Brewing Co",
    "brewery_type": "regional",
    "street": "1318 NW Northrup St",
    "city": "Portland",
    "state": "Oregon",
    "postal_code": "97209-2808",
    "website_url": "http://www.bridgeportbrew.com",
    "phone": "5032417179",
    "created_at": "2018-07-24 01:34:05.253268",
    "updated_at": "2018-08-24 15:46:05.7152",
    "country": "United States",
    "longitude": "-122.684860125652",
    "latitude": "45.53133335",
    "tags": []
  },
  {
    "id": "burnside-brewing-co",
    "name": "Burnside Brewing Co",
    "brewery_type": "micro",
    "street": "701 E Burnside St",
    "city": "Portland",
    "state": "Oregon",
    "postal_code": "97214-1218",
    "website_url": "http://www.burnsidebrewco.com",
    "phone": "5032083476",
    "created_at": "2018-07-24 01:34:05.296048",
    "updated_at": "2018-08-24 15:46:06.642482",
    "country": "United States",
    "longitude": "-122.6584695",
    "latitude": "45.5233261",
    "tags": []
  },
  {
    "id": "cascade-brewing",
    "name": "Cascade Brewing",
    "brewery_type": "brewpub",
    "street": "7424 SW Beaverton Hillsdale Hwy",
    "city": "Portland",
    "state": "Oregon",
    "postal_code": "97225-2149",
    "website_url": "http://www.cascadebrewing.com",
    "phone": "5032960110",
    "created_at": "2018-07-24 01:34:05.339715",
    "updated_at": "2018-08-24 15:46:08.053402",
    "country": "United States",
    "longitude": "-122.699417",
    "latitude": "45.478513",
    "tags": []
  },
  {
    "id": "coalition-brewing-co",
    "name": "Coalition Brewing Co",
    "brewery_type": "micro",
    "street": "2705 SE Ankeny St Ste C",
    "city": "Portland",
    "state": "Oregon",
    "postal_code": "97214-1817",
    "website_url": "http://www.coalitionbrewing.com",
    "phone": "5038948080",
    "created_at": "2018-07-24 01:34:05.462827",
    "updated_at": "2018-08-11 21:39:12.222229",
    "country": "United States",
    "longitude": "",
    "latitude": "",
    "tags": []
  },
  {
    "id": "culmination-brewing-co",
    "name": "Culmination Brewing Co",
    "brewery_type": "micro",
    "street": "2117 NE Oregon St Ste 600",
    "city": "Portland",
    "state": "Oregon",
    "postal_code": "97232-2796",
    "website_url": "http://www.culminationbrewing.com",
    "phone": "9712549114",
    "created_at": "2018-07-24 01:34:05.624501",
    "updated_at": "2018-08-11 21:39:12.676886",
    "country": "United States",
    "longitude": "",
    "latitude": "",
    "tags": []
  },
  {
    "id": "ecliptic-brewing",
    "name": "Ecliptic Brewing",
    "brewery_type": "micro",
    "street": "825 N Cook St",
    "city": "Portland",
    "state": "Oregon",
    "postal_code": "97227-1503",
    "website_url": "http://www.eclipticbrewing.com",
    "phone": "5032658002",
    "created_at": "2018-07-24 01:34:05.822865",
    "updated_at": "2018-08-24 16:01:29.190077",
    "country": "United States",
    "longitude": "-122.675118549414",
    "latitude": "45.54737005",
    "tags": []
  },
  {
    "id": "ex-novo-brewing-co",
    "name": "Ex Novo Brewing Co",
    "brewery_type": "micro",
    "street": "2326 N Flint Ave",
    "city": "Portland",
    "state": "Oregon",
    "postal_code": "97227-1905",
    "website_url": "http://www.exnovobrew.com",
    "phone": "5038948251",
    "created_at": "2018-07-24 01:34:05.860353",
    "updated_at": "2018-08-24 16:01:32.154642",
    "country": "United States",
    "longitude": "-122.66841465",
    "latitude": "45.54002045",
    "tags": []
  },
  {
    "id": "fire-on-the-mountain-brewing-co",
    "name": "Fire On the Mountain Brewing Co",
    "brewery_type": "brewpub",
    "street": "3443 NE 57th Ave",
    "city": "Portland",
    "state": "Oregon",
    "postal_code": "97213-3351",
    "website_url": "http://www.portlandwings.com",
    "phone": "5038948973",
    "created_at": "2018-07-24 01:34:05.914173",
    "updated_at": "2018-08-24 16:01:36.686471",
    "country": "United States",
    "longitude": "-122.6049402",
    "latitude": "45.5480432",
    "tags": []
  },
  {
    "id": "funhouse-brews",
    "name": "Funhouse Brews",
    "brewery_type": "micro",
    "street": "7717 N Emerald Ave Unit A",
    "city": "Portland",
    "state": "Oregon",
    "postal_code": "97217-6111",
    "website_url": "http://www.funhousebrews.com",
    "phone": "3147532669",
    "created_at": "2018-07-24 01:34:06.013044",
    "updated_at": "2018-08-11 21:39:13.73048",
    "country": "United States",
    "longitude": "",
    "latitude": "",
    "tags": []
  },
  {
    "id": "great-notion-brewing",
    "name": "Great Notion Brewing",
    "brewery_type": "brewpub",
    "street": "2204 NE Alberta St Ste 101",
    "city": "Portland",
    "state": "Oregon",
    "postal_code": "97211-5885",
    "website_url": "http://www.greatnotionpdx.com",
    "phone": "5035484491",
    "created_at": "2018-07-24 01:34:06.14744",
    "updated_at": "2018-08-11 21:39:14.103958",
    "country": "United States",
    "longitude": "",
    "latitude": "",
    "tags": []
  },
  {
    "id": "gateway-brewing-inc",
    "name": "Gateway Brewing, Inc",
    "brewery_type": "micro",
    "street": "114 NE 133rd Ave",
    "city": "Portland",
    "state": "Oregon",
    "postal_code": "97230-2528",
    "website_url": "http://gatewaybrewingpdx.com",
    "phone": "5039759103",
    "created_at": "2018-07-24 01:34:06.038992",
    "updated_at": "2018-08-24 16:01:50.054876",
    "country": "United States",
    "longitude": "-122.5257352",
    "latitude": "45.5239106",
    "tags": []
  },
  {
    "id": "gigantic-brewing-co",
    "name": "Gigantic Brewing Co",
    "brewery_type": "micro",
    "street": "5224 SE 26th Ave",
    "city": "Portland",
    "state": "Oregon",
    "postal_code": "97202-4627",
    "website_url": "http://www.giganticbrewing.com",
    "phone": "5032083416",
    "created_at": "2018-07-24 01:34:06.065747",
    "updated_at": "2018-08-24 16:01:53.132208",
    "country": "United States",
    "longitude": "-122.639209160382",
    "latitude": "45.48500105",
    "tags": []
  },
  {
    "id": "ground-breaker-brewing",
    "name": "Ground Breaker Brewing",
    "brewery_type": "brewpub",
    "street": "715 SE Lincoln St",
    "city": "Portland",
    "state": "Oregon",
    "postal_code": "97214-4600",
    "website_url": "http://www.harvesterbrewing.com",
    "phone": "5039284195",
    "created_at": "2018-07-24 01:34:06.186239",
    "updated_at": "2018-08-24 16:02:05.391645",
    "country": "United States",
    "longitude": "-122.658369725108",
    "latitude": "45.50809545",
    "tags": []
  },
  {
    "id": "hair-of-the-dog-brewing-co",
    "name": "Hair of the Dog Brewing Co",
    "brewery_type": "brewpub",
    "street": "61 SE Yamhill St",
    "city": "Portland",
    "state": "Oregon",
    "postal_code": "97214-2134",
    "website_url": "http://www.hairofthedog.com",
    "phone": "5032326585",
    "created_at": "2018-07-24 01:34:06.199028",
    "updated_at": "2018-08-24 16:02:07.044583",
    "country": "United States",
    "longitude": "-122.6655236",
    "latitude": "45.5160413",
    "tags": []
  },
  {
    "id": "hopworks-urban-brewery",
    "name": "Hopworks Urban Brewery",
    "brewery_type": "micro",
    "street": "2944 SE Powell Blvd",
    "city": "Portland",
    "state": "Oregon",
    "postal_code": "97202-2054",
    "website_url": "http://www.hopworksbeer.com",
    "phone": "5032324677",
    "created_at": "2018-07-24 01:34:06.297115",
    "updated_at": "2018-08-24 16:02:16.406927",
    "country": "United States",
    "longitude": "-122.634827",
    "latitude": "45.4968753",
    "tags": []
  },
  {
    "id": "kells-brew-pub",
    "name": "Kells Brew Pub",
    "brewery_type": "brewpub",
    "street": "210 NW 21st Ave",
    "city": "Portland",
    "state": "Oregon",
    "postal_code": "97209-1004",
    "website_url": "http://Kellsbrewpub.com",
    "phone": "5037197175",
    "created_at": "2018-07-24 01:34:06.347331",
    "updated_at": "2018-08-24 16:02:22.379835",
    "country": "United States",
    "longitude": "-122.6941546",
    "latitude": "45.52447285",
    "tags": []
  },
  {
    "id": "labrewatory",
    "name": "LABrewatory",
    "brewery_type": "micro",
    "street": "670 N Russell St",
    "city": "Portland",
    "state": "Oregon",
    "postal_code": "97227-1728",
    "website_url": "http://www.thelabrewatory.com",
    "phone": "9712718151",
    "created_at": "2018-07-24 01:34:06.399417",
    "updated_at": "2018-08-24 16:02:28.515904",
    "country": "United States",
    "longitude": "-122.673082571429",
    "latitude": "45.5409227142857",
    "tags": []
  },
  {
    "id": "laurelwood-public-house-and-brewery-ne",
    "name": "Laurelwood Public House and Brewery - NE",
    "brewery_type": "micro",
    "street": "5115 NE Sandy Blvd",
    "city": "Portland",
    "state": "Oregon",
    "postal_code": "97213-2525",
    "website_url": "http://laurelwoodbrewingco.com",
    "phone": "5032820622",
    "created_at": "2018-07-24 01:34:06.425524",
    "updated_at": "2018-08-24 16:02:31.517946",
    "country": "United States",
    "longitude": "-122.61067265665",
    "latitude": "45.54014675",
    "tags": []
  },
  {
    "id": "level-beer",
    "name": "Level Beer",
    "brewery_type": "micro",
    "street": "5211 NE 148th Ave",
    "city": "Portland",
    "state": "Oregon",
    "postal_code": "97230-3434",
    "website_url": "http://www.levelbeer.com",
    "phone": "5037141222",
    "created_at": "2018-07-24 01:34:06.450791",
    "updated_at": "2018-08-24 16:02:32.997867",
    "country": "United States",
    "longitude": "-122.511027517544",
    "latitude": "45.560506",
    "tags": []
  },
  {
    "id": "look-long-brewing-company",
    "name": "Look Long Brewing Company",
    "brewery_type": "micro",
    "street": "6550 N Interstate Ave",
    "city": "Portland",
    "state": "Oregon",
    "postal_code": "97217-4836",
    "website_url": "http://www.looklongbrewingcompany.com",
    "phone": "5032860343",
    "created_at": "2018-07-24 01:34:06.514893",
    "updated_at": "2018-08-24 16:02:39.003187",
    "country": "United States",
    "longitude": "-122.6818062",
    "latitude": "45.57066185",
    "tags": []
  },
  {
    "id": "lucky-labrador-beer-hall",
    "name": "Lucky Labrador Beer Hall",
    "brewery_type": "brewpub",
    "street": "1945 NW Quimby St",
    "city": "Portland",
    "state": "Oregon",
    "postal_code": "97209-1712",
    "website_url": "http://www.luckylab.com",
    "phone": "5035174352",
    "created_at": "2018-07-24 01:34:06.539486",
    "updated_at": "2018-08-24 16:02:41.92179",
    "country": "United States",
    "longitude": "-122.691736156892",
    "latitude": "45.53370375",
    "tags": []
  },
  {
    "id": "lucky-labrador-brewpub",
    "name": "Lucky Labrador Brewpub",
    "brewery_type": "micro",
    "street": "915 SE Hawthorne Blvd",
    "city": "Portland",
    "state": "Oregon",
    "postal_code": "97214-3545",
    "website_url": "http://www.luckylab.com",
    "phone": "5032363555",
    "created_at": "2018-07-24 01:34:06.551782",
    "updated_at": "2018-08-24 16:02:43.430419",
    "country": "United States",
    "longitude": "-122.656414863274",
    "latitude": "45.51247125",
    "tags": []
  },
  {
    "id": "madcow-brewing-co",
    "name": "Madcow Brewing Co.",
    "brewery_type": "micro",
    "street": "206 SE 166th Ave",
    "city": "Portland",
    "state": "Oregon",
    "postal_code": "97233-4202",
    "website_url": "http://www.madcowbrewing.com",
    "phone": "",
    "created_at": "2018-07-24 01:34:06.564408",
    "updated_at": "2018-08-24 16:02:44.908",
    "country": "United States",
    "longitude": "-122.4924064",
    "latitude": "45.5034238",
    "tags": []
  },
  {
    "id": "maxs-fanno-creek-brew-pub",
    "name": "Max's Fanno Creek Brew Pub",
    "brewery_type": "brewpub",
    "street": "12562 SW Main St",
    "city": "Portland",
    "state": "Oregon",
    "postal_code": "97223-6195",
    "website_url": "http://www.maxsfannocreek.com",
    "phone": "5036249400",
    "created_at": "2018-07-24 01:34:06.590117",
    "updated_at": "2018-08-24 16:02:48.56444",
    "country": "United States",
    "longitude": "-122.6771146",
    "latitude": "45.5156226",
    "tags": []
  },
  {
    "id": "migration-brewing-co",
    "name": "Migration Brewing Co",
    "brewery_type": "brewpub",
    "street": "2828 NE Gilsan St",
    "city": "Portland",
    "state": "Oregon",
    "postal_code": "97232",
    "website_url": "http://www.migrationbrewing.com",
    "phone": "5032065221",
    "created_at": "2018-07-24 01:34:06.912929",
    "updated_at": "2018-08-11 21:39:16.187815",
    "country": "United States",
    "longitude": "",
    "latitude": "",
    "tags": []
  },
  {
    "id": "migration-brewing-co",
    "name": "Migration Brewing Co",
    "brewery_type": "micro",
    "street": "1818 NE Wilkes Rd",
    "city": "Portland",
    "state": "Oregon",
    "postal_code": "97230",
    "website_url": "",
    "phone": "",
    "created_at": "2018-07-24 01:34:06.925354",
    "updated_at": "2018-08-11 21:39:16.224015",
    "country": "United States",
    "longitude": "",
    "latitude": "",
    "tags": []
  },
  {
    "id": "occidental-brewing",
    "name": "Occidental Brewing",
    "brewery_type": "micro",
    "street": "6635 N Baltimore Ave Ste 100",
    "city": "Portland",
    "state": "Oregon",
    "postal_code": "97203-5465",
    "website_url": "http://www.occidentalbrewing.com",
    "phone": "5037197102",
    "created_at": "2018-07-24 01:34:07.12519",
    "updated_at": "2018-08-11 21:39:16.897502",
    "country": "United States",
    "longitude": "",
    "latitude": "",
    "tags": []
  },
  {
    "id": "old-town-brewing",
    "name": "Old Town Brewing",
    "brewery_type": "brewpub",
    "street": "5201 NE M L King Blvd",
    "city": "Portland",
    "state": "Oregon",
    "postal_code": "97211-3235",
    "website_url": "http://www.otbrewing.com",
    "phone": "5032005988",
    "created_at": "2018-07-24 01:34:07.183762",
    "updated_at": "2018-08-11 21:39:17.090695",
    "country": "United States",
    "longitude": "",
    "latitude": "",
    "tags": []
  },
  {
    "id": "mcmenamins-breweries",
    "name": "McMenamins Breweries",
    "brewery_type": "micro",
    "street": "430 N Killingsworth St",
    "city": "Portland",
    "state": "Oregon",
    "postal_code": "97217-2441",
    "website_url": "http://www.mcmenamins.com",
    "phone": "5032230109",
    "created_at": "2018-07-24 01:34:06.643679",
    "updated_at": "2018-08-24 16:02:54.688405",
    "country": "United States",
    "longitude": "-122.6708111765",
    "latitude": "45.5624447",
    "tags": []
  },
  {
    "id": "mcmenamins-concordia-brewery-at-kennedy-school",
    "name": "McMenamins Concordia Brewery at Kennedy School",
    "brewery_type": "brewpub",
    "street": "5736 NE 33rd Ave",
    "city": "Portland",
    "state": "Oregon",
    "postal_code": "97211-7302",
    "website_url": "http://www.mcmenamins.com",
    "phone": "5032881937",
    "created_at": "2018-07-24 01:34:06.6568",
    "updated_at": "2018-08-24 16:02:56.161059",
    "country": "United States",
    "longitude": "-122.629969421269",
    "latitude": "45.56447065",
    "tags": []
  },
  {
    "id": "mcmenamins-crystal-ballroom-brewery",
    "name": "McMenamins Crystal Ballroom Brewery",
    "brewery_type": "brewpub",
    "street": "1332 W Burnside St",
    "city": "Portland",
    "state": "Oregon",
    "postal_code": "97209-2612",
    "website_url": "http://www.mcmenamins.com",
    "phone": "5037785625",
    "created_at": "2018-07-24 01:34:06.682973",
    "updated_at": "2018-08-24 16:02:59.092821",
    "country": "United States",
    "longitude": "-122.6850673",
    "latitude": "45.5228146",
    "tags": []
  },
  {
    "id": "mcmenamins-fulton-pub-and-brewery",
    "name": "McMenamins Fulton Pub and Brewery",
    "brewery_type": "micro",
    "street": "0618 SW Nebraska St",
    "city": "Portland",
    "state": "Oregon",
    "postal_code": "97239-3556",
    "website_url": "http://www.mcmenamins.com",
    "phone": "5032464363",
    "created_at": "2018-07-24 01:34:06.708862",
    "updated_at": "2018-08-24 16:03:02.051768",
    "country": "United States",
    "longitude": "-122.672622265963",
    "latitude": "45.47711805",
    "tags": []
  },
  {
    "id": "mcmenamins-hillsdale-brewery-and-public-house",
    "name": "McMenamins Hillsdale Brewery and Public House",
    "brewery_type": "micro",
    "street": "1505 SW Sunset Blvd",
    "city": "Portland",
    "state": "Oregon",
    "postal_code": "97239-2625",
    "website_url": "http://www.mcmenamins.com",
    "phone": "5032931753",
    "created_at": "2018-07-24 01:34:06.750632",
    "updated_at": "2018-08-24 16:03:06.453403",
    "country": "United States",
    "longitude": "-122.6936922",
    "latitude": "45.4792439",
    "tags": []
  },
  {
    "id": "modern-times-the-belmont-fermentorium",
    "name": "Modern Times - The Belmont Fermentorium",
    "brewery_type": "brewpub",
    "street": "630 SE Belmont St",
    "city": "Portland",
    "state": "Oregon",
    "postal_code": "97214-2372",
    "website_url": "",
    "phone": "",
    "created_at": "2018-07-24 01:34:06.950421",
    "updated_at": "2018-08-24 16:03:28.994345",
    "country": "United States",
    "longitude": "-122.6590469",
    "latitude": "45.516294",
    "tags": []
  },
  {
    "id": "moonshrimp-brewing",
    "name": "Moonshrimp Brewing",
    "brewery_type": "micro",
    "street": "8428 SW 22nd Ave",
    "city": "Portland",
    "state": "Oregon",
    "postal_code": "97219-2856",
    "website_url": "http://www.moonshrimpbrewing.com",
    "phone": "5039702234",
    "created_at": "2018-07-24 01:34:06.990559",
    "updated_at": "2018-08-24 16:03:33.495675",
    "country": "United States",
    "longitude": "-122.700080917205",
    "latitude": "45.4637206",
    "tags": []
  },
  {
    "id": "old-market-pub-and-brewery",
    "name": "Old Market Pub and Brewery",
    "brewery_type": "brewpub",
    "street": "6959 SW Multnomah Blvd",
    "city": "Portland",
    "state": "Oregon",
    "postal_code": "97223-3439",
    "website_url": "http://www.drinkbeerhere.com",
    "phone": "5032440450",
    "created_at": "2018-07-24 01:34:07.169655",
    "updated_at": "2018-08-24 16:03:49.788638",
    "country": "United States",
    "longitude": "-122.748671455558",
    "latitude": "45.46603555",
    "tags": []
  },
  {
    "id": "pints-brewing-company-and-urban-taproom",
    "name": "PINTS Brewing Company and Urban Taproom",
    "brewery_type": "micro",
    "street": "412 NW 5th Ave Suite 200",
    "city": "Portland",
    "state": "Oregon",
    "postal_code": "97209-3893",
    "website_url": "http://www.pintsbrewing.com",
    "phone": "5035642739",
    "created_at": "2018-07-24 01:34:07.315134",
    "updated_at": "2018-08-11 21:39:17.533917",
    "country": "United States",
    "longitude": "",
    "latitude": "",
    "tags": []
  },
  {
    "id": "royale-brewing-company",
    "name": "Royale Brewing Company",
    "brewery_type": "micro",
    "street": "55 NE Farragut St Ste 6",
    "city": "Portland",
    "state": "Oregon",
    "postal_code": "97211-2245",
    "website_url": "http://www.royalebeer.com",
    "phone": "9712795587",
    "created_at": "2018-07-24 01:34:07.5908",
    "updated_at": "2018-08-11 21:39:18.318632",
    "country": "United States",
    "longitude": "",
    "latitude": "",
    "tags": []
  },
  {
    "id": "pono-brewing-company",
    "name": "Pono Brewing Company",
    "brewery_type": "contract",
    "street": "5716 SE 92nd Ave",
    "city": "Portland",
    "state": "Oregon",
    "postal_code": "97266-4659",
    "website_url": "http://www.ponobrewing.com",
    "phone": "5034328400",
    "created_at": "2018-07-24 01:34:07.341116",
    "updated_at": "2018-08-24 16:04:08.1289",
    "country": "United States",
    "longitude": "-122.5679347",
    "latitude": "45.4808905",
    "tags": []
  },
  {
    "id": "portland-brewing/north-american-breweries",
    "name": "Portland Brewing/North American Breweries",
    "brewery_type": "regional",
    "street": "2730 NW 31st Ave",
    "city": "Portland",
    "state": "Oregon",
    "postal_code": "97210-1718",
    "website_url": "http://www.portlandbrewing.com",
    "phone": "5032267623",
    "created_at": "2018-07-24 01:34:07.367377",
    "updated_at": "2018-08-24 16:04:11.269601",
    "country": "United States",
    "longitude": "-122.713089007345",
    "latitude": "45.54176525",
    "tags": []
  },
  {
    "id": "portland-u-brew-and-pub",
    "name": "Portland U-Brew & Pub",
    "brewery_type": "brewpub",
    "street": "6237 SE Milwaukie Ave",
    "city": "Portland",
    "state": "Oregon",
    "postal_code": "97202-",
    "website_url": "http://www.portlandubrewandpub.com",
    "phone": "5039432727",
    "created_at": "2018-07-24 01:34:07.381504",
    "updated_at": "2018-08-24 16:04:12.800115",
    "country": "United States",
    "longitude": "-122.649392986749",
    "latitude": "45.47740515",
    "tags": []
  },
  {
    "id": "rock-bottom-brewery-portland",
    "name": "Rock Bottom Brewery - Portland",
    "brewery_type": "brewpub",
    "street": "206 SW Morrison St",
    "city": "Portland",
    "state": "Oregon",
    "postal_code": "97204-3107",
    "website_url": "http://www.rockbottom.com",
    "phone": "5037962739",
    "created_at": "2018-07-24 01:34:07.531582",
    "updated_at": "2018-08-24 16:04:27.85941",
    "country": "United States",
    "longitude": "-122.6749783",
    "latitude": "45.5178662",
    "tags": []
  },
  {
    "id": "rogue-east-side-pub-and-pilot-brewery",
    "name": "Rogue East Side Pub & Pilot Brewery",
    "brewery_type": "micro",
    "street": "909 SE Yamhill St",
    "city": "Portland",
    "state": "Oregon",
    "postal_code": "97214-2533",
    "website_url": "http://www.buckmanbrewing.com",
    "phone": "5032413800",
    "created_at": "2018-07-24 01:34:07.560642",
    "updated_at": "2018-08-24 16:04:30.880835",
    "country": "United States",
    "longitude": "-122.656467040816",
    "latitude": "45.5158688367347",
    "tags": []
  },
  {
    "id": "rosenstadt-brewery-llc",
    "name": "Rosenstadt Brewery LLC",
    "brewery_type": "micro",
    "street": "4110 SE Hawthorne Blvd # 735",
    "city": "Portland",
    "state": "Oregon",
    "postal_code": "97214-5246",
    "website_url": "http://www.rosenstadtbrewery.com",
    "phone": "",
    "created_at": "2018-07-24 01:34:07.577916",
    "updated_at": "2018-08-24 16:04:32.436248",
    "country": "United States",
    "longitude": "-122.6199320937",
    "latitude": "45.5118679",
    "tags": []
  },
  {
    "id": "ruse-brewing-llc",
    "name": "Ruse Brewing, LLC.",
    "brewery_type": "proprietor",
    "street": "4784 SE 17th Ave",
    "city": "Portland",
    "state": "Oregon",
    "postal_code": "97202",
    "website_url": "http://www.rusebrewing.com",
    "phone": "5036628325",
    "created_at": "2018-07-24 01:34:07.618413",
    "updated_at": "2018-08-24 16:04:37.029131",
    "country": "United States",
    "longitude": "-122.6470059",
    "latitude": "45.4593922",
    "tags": []
  },
  {
    "id": "sasquatch-brewery",
    "name": "Sasquatch Brewery",
    "brewery_type": "micro",
    "street": "2531 NW 30th Ave",
    "city": "Portland",
    "state": "Oregon",
    "postal_code": "97210-2015",
    "website_url": "http://www.sasquatchbrewery.com",
    "phone": "5038415687",
    "created_at": "2018-07-24 01:34:07.694372",
    "updated_at": "2018-08-24 16:04:44.584861",
    "country": "United States",
    "longitude": "-122.712570924623",
    "latitude": "45.5400892211055",
    "tags": []
  },
  {
    "id": "sasquatch-pub",
    "name": "Sasquatch Pub",
    "brewery_type": "brewpub",
    "street": "6440 SW Capitol Hwy.",
    "city": "Portland",
    "state": "Oregon",
    "postal_code": "97239",
    "website_url": "",
    "phone": "5038415687",
    "created_at": "2018-07-24 01:34:07.707443",
    "updated_at": "2018-08-24 16:04:46.081205",
    "country": "United States",
    "longitude": "-122.698813209433",
    "latitude": "45.4776303",
    "tags": []
  },
  {
    "id": "second-profession-brewing-company",
    "name": "Second Profession Brewing Company",
    "brewery_type": "brewpub",
    "street": "5846 NE Sandy Blvd",
    "city": "Portland",
    "state": "Oregon",
    "postal_code": "97213-3436",
    "website_url": "http://www.secondprofessionbrewing.com",
    "phone": "5032885882",
    "created_at": "2018-07-24 01:34:07.751142",
    "updated_at": "2018-08-24 16:04:49.153109",
    "country": "United States",
    "longitude": "-122.498321",
    "latitude": "45.5499485",
    "tags": []
  },
  {
    "id": "super-brewing-company-llc",
    "name": "Super Brewing Company LLC",
    "brewery_type": "planning",
    "street": "",
    "city": "Portland",
    "state": "Oregon",
    "postal_code": "97202",
    "website_url": "",
    "phone": "5037193435",
    "created_at": "2018-07-24 01:34:07.987442",
    "updated_at": "2018-08-11 21:39:19.606286",
    "country": "United States",
    "longitude": "",
    "latitude": "",
    "tags": []
  },
  {
    "id": "upright-brewing-co",
    "name": "Upright Brewing Co",
    "brewery_type": "micro",
    "street": "240 N Broadway Ste 2",
    "city": "Portland",
    "state": "Oregon",
    "postal_code": "97227-1880",
    "website_url": "http://www.uprightbrewing.com",
    "phone": "",
    "created_at": "2018-07-24 01:34:08.172837",
    "updated_at": "2018-08-11 21:39:20.014152",
    "country": "United States",
    "longitude": "",
    "latitude": "",
    "tags": []
  },
  {
    "id": "von-ebert-brewing",
    "name": "Von Ebert Brewing",
    "brewery_type": "planning",
    "street": "",
    "city": "Portland",
    "state": "Oregon",
    "postal_code": "97230",
    "website_url": "",
    "phone": "",
    "created_at": "2018-07-24 01:34:08.270815",
    "updated_at": "2018-08-11 21:39:20.738367",
    "country": "United States",
    "longitude": "",
    "latitude": "",
    "tags": []
  },
  {
    "id": "uptown-market-brewing",
    "name": "Uptown Market Brewing",
    "brewery_type": "micro",
    "street": "6620 SW Scholls Ferry Rd",
    "city": "Portland",
    "state": "Oregon",
    "postal_code": "97223-7166",
    "website_url": "http://www.uptownmarketpdx.com",
    "phone": "5033364783",
    "created_at": "2018-07-24 01:34:08.186505",
    "updated_at": "2018-08-24 16:05:31.177952",
    "country": "United States",
    "longitude": "-122.7423002",
    "latitude": "45.4958797",
    "tags": []
  },
  {
    "id": "von-ebert-brewing",
    "name": "Von Ebert Brewing",
    "brewery_type": "brewpub",
    "street": "131 NW 13th Ave",
    "city": "Portland",
    "state": "Oregon",
    "postal_code": "97209-4110",
    "website_url": "http://vonebertbrewing.com",
    "phone": "5038207721",
    "created_at": "2018-07-24 01:34:08.257769",
    "updated_at": "2018-08-24 16:05:37.128192",
    "country": "United States",
    "longitude": "-122.684305755102",
    "latitude": "45.5238972653061",
    "tags": []
  },
  {
    "id": "wayfinder-beer",
    "name": "Wayfinder Beer",
    "brewery_type": "brewpub",
    "street": "304 SE 2nd Ave",
    "city": "Portland",
    "state": "Oregon",
    "postal_code": "97214-1008",
    "website_url": "http://www.wayfinder.beer",
    "phone": "5037182337",
    "created_at": "2018-07-24 01:34:08.31366",
    "updated_at": "2018-08-24 16:05:40.037122",
    "country": "United States",
    "longitude": "-122.663488099778",
    "latitude": "45.5208914",
    "tags": []
  },
  {
    "id": "widmer-brothers-brewing",
    "name": "Widmer Brothers Brewing",
    "brewery_type": "regional",
    "street": "929 N Russell St",
    "city": "Portland",
    "state": "Oregon",
    "postal_code": "97227-1733",
    "website_url": "",
    "phone": "5032812437",
    "created_at": "2018-07-24 01:34:08.355375",
    "updated_at": "2018-08-24 16:05:44.516781",
    "country": "United States",
    "longitude": "-122.676298285714",
    "latitude": "45.5410952857143",
    "tags": []
  },
  {
    "id": "zoiglhaus-brewing-company",
    "name": "Zoiglhaus Brewing Company",
    "brewery_type": "brewpub",
    "street": "5716 SE 92nd Ave",
    "city": "Portland",
    "state": "Oregon",
    "postal_code": "97266-4659",
    "website_url": "http://www.zoiglhaus.com",
    "phone": "9713392374",
    "created_at": "2018-07-24 01:34:08.513419",
    "updated_at": "2018-08-24 16:05:57.716839",
    "country": "United States",
    "longitude": "-122.5679347",
    "latitude": "45.4808905",
    "tags": []
  },
  {
    "id": "grixsen-brewing-co",
    "name": "Grixsen Brewing Co",
    "brewery_type": "micro",
    "street": "1001 SE Division St Ste 1",
    "city": "Portland",
    "state": "Oregon",
    "postal_code": "97202-1076",
    "website_url": "http://www.grixsen.com",
    "phone": "9713473100",
    "created_at": "2018-07-24 01:34:06.173446",
    "updated_at": "2018-08-11 21:39:14.190569",
    "country": "United States",
    "longitude": "",
    "latitude": "",
    "tags": []
  },
  {
    "id": "lompoc-brewing-llc/-the-5th-quadrant",
    "name": "Lompoc Brewing, LLC/ The 5th Quadrant",
    "brewery_type": "brewpub",
    "street": "3901 N Williams Ave Ste B",
    "city": "Portland",
    "state": "Oregon",
    "postal_code": "97227-1465",
    "website_url": "http://www.newoldlompoc.com/5thquadranthome.html",
    "phone": "5032883996",
    "created_at": "2018-07-24 01:34:06.489313",
    "updated_at": "2018-08-11 21:39:14.998122",
    "country": "United States",
    "longitude": "",
    "latitude": "",
    "tags": []
  },
  {
    "id": "alameda-brewing-co",
    "name": "Alameda Brewing Co",
    "brewery_type": "micro",
    "street": "4765 NE Fremont St",
    "city": "Portland",
    "state": "Oregon",
    "postal_code": "97213-1724",
    "website_url": "http://www.alamedabrewing.com",
    "phone": "5034609025",
    "created_at": "2018-07-24 01:34:04.539772",
    "updated_at": "2018-08-24 15:45:46.71551",
    "country": "United States",
    "longitude": "-122.613620946786",
    "latitude": "45.54849565",
    "tags": []
  },
  {
    "id": "columbia-river-brewing-co",
    "name": "Columbia River Brewing Co",
    "brewery_type": "brewpub",
    "street": "1728 NE 40th Ave",
    "city": "Portland",
    "state": "Oregon",
    "postal_code": "97212-5306",
    "website_url": "http://www.columbiariverbrewpub.com",
    "phone": "5039436157",
    "created_at": "2018-07-24 01:34:05.504303",
    "updated_at": "2018-08-24 15:46:13.613781",
    "country": "United States",
    "longitude": "-122.6217524",
    "latitude": "45.5357321",
    "tags": []
  },
  {
    "id": "deschutes-brewery-and-public-house",
    "name": "Deschutes Brewery & Public House",
    "brewery_type": "brewpub",
    "street": "210 NW 11th Ave",
    "city": "Portland",
    "state": "Oregon",
    "postal_code": "97209-2929",
    "website_url": "http://www.deschutesbrewery.com",
    "phone": "5032964906",
    "created_at": "2018-07-24 01:34:05.744833",
    "updated_at": "2018-08-24 16:01:21.754685",
    "country": "United States",
    "longitude": "-122.681880808861",
    "latitude": "45.52468",
    "tags": []
  },
  {
    "id": "montavilla-brew-works",
    "name": "Montavilla Brew Works",
    "brewery_type": "micro",
    "street": "7805 SE Stark St",
    "city": "Portland",
    "state": "Oregon",
    "postal_code": "97215-2339",
    "website_url": "http://www.montavillabrew.com",
    "phone": "5039543440",
    "created_at": "2018-07-24 01:34:06.976739",
    "updated_at": "2018-08-24 16:03:32.011697",
    "country": "United States",
    "longitude": "-122.58335572513",
    "latitude": "45.5193212",
    "tags": []
  },
  {
    "id": "mt-tabor-brewing-co",
    "name": "Mt Tabor Brewing Co",
    "brewery_type": "micro",
    "street": "124 SE 11th Ave",
    "city": "Portland",
    "state": "Oregon",
    "postal_code": "97214-1354",
    "website_url": "http://www.mttaborbrewing.com",
    "phone": "3605678199",
    "created_at": "2018-07-24 01:34:07.031411",
    "updated_at": "2018-08-24 16:03:37.915053",
    "country": "United States",
    "longitude": "-122.654188025389",
    "latitude": "45.52171275",
    "tags": []
  },
  {
    "id": "natian-brewery",
    "name": "Natian Brewery",
    "brewery_type": "micro",
    "street": "1321 NE Couch St",
    "city": "Portland",
    "state": "Oregon",
    "postal_code": "97232-3007",
    "website_url": "http://www.natianbrewery.com",
    "phone": "9716787116",
    "created_at": "2018-07-24 01:34:07.045597",
    "updated_at": "2018-08-24 16:03:39.389065",
    "country": "United States",
    "longitude": "-122.652973345472",
    "latitude": "45.5249032",
    "tags": []
  },
  {
    "id": "stormbreaker-brewing-st-johns",
    "name": "StormBreaker Brewing St. Johns",
    "brewery_type": "brewpub",
    "street": "8409 N Lombard St",
    "city": "Portland",
    "state": "Oregon",
    "postal_code": "97203",
    "website_url": "http://www.stormbreakerbrewing.com",
    "phone": "9712551481",
    "created_at": "2018-07-24 01:34:07.960768",
    "updated_at": "2018-08-24 16:05:10.161862",
    "country": "United States",
    "longitude": "-122.753038",
    "latitude": "45.58988575",
    "tags": []
  }
]