[
  {
    "id": "wild-ride-brewing",
    "name": "Wild Ride Brewing",
    "brewery_type": "micro",
    "street": "332 SW 5th St",
    "city": "Redmond",
    "state": "Oregon",
    "postal_code": "97756-2103",
    "website_url": "http://www.wildridebrew.com",
    "phone": "5415168544",
    "created_at": "2018-07-24 01:34:08.369217",
    "updated_at": "2018-08-24 16:05:46.014254",
    "country": "United States",
    "longitude": "-121.173076419679",
    "latitude": "44.2739129418471",
    "tags": []
  },
  {
    "id": "cascade-lakes-brewing-co",
    "name": "Cascade Lakes Brewing Co",
    "brewery_type": "micro",
    "street": "2141 SW 1st St",
    "city": "Redmond",
    "state": "Oregon",
    "postal_code": "97756-7131",
    "website_url": "http://www.cascadelakes.com",
    "phone": "5419233110",
    "created_at": "2018-07-24 01:34:05.381834",
    "updated_at": "2018-08-11 21:39:11.971284",
    "country": "United States",
    "longitude": "",
    "latitude": "",
    "tags": []
  },
  {
    "id": "geist-beerworks",
    "name": "Geist Beerworks",
    "brewery_type": "micro",
    "street": "736 SW Umatilla Ave Suite F",
    "city": "Redmond",
    "state": "Oregon",
    "postal_code": "97756",
    "website_url": "",
    "phone": "5417288663",
    "created_at": "2018-07-24 01:34:06.05191",
    "updated_at": "2018-08-11 21:39:13.82115",
    "country": "United States",
    "longitude": "",
    "latitude": "",
    "tags": []
  },
  {
    "id": "kobold-brewing",
    "name": "Kobold Brewing",
    "brewery_type": "micro",
    "street": "245 SW 6th St",
    "city": "Redmond",
    "state": "Oregon",
    "postal_code": "97756-2108",
    "website_url": "http://www.koboldbrewing.com",
    "phone": "5416783884",
    "created_at": "2018-07-24 01:34:06.374236",
    "updated_at": "2018-08-24 16:02:25.411865",
    "country": "United States",
    "longitude": "-121.174408562221",
    "latitude": "44.2749960408258",
    "tags": []
  },
  {
    "id": "silver-moon-brewing",
    "name": "Silver Moon Brewing",
    "brewery_type": "micro",
    "street": "2095 SW Badger Ave",
    "city": "Redmond",
    "state": "Oregon",
    "postal_code": "97756-8164",
    "website_url": "http://www.SilverMoonBrewing.com",
    "phone": "5413888331",
    "created_at": "2018-07-24 01:34:07.816716",
    "updated_at": "2018-08-24 16:04:55.040698",
    "country": "United States",
    "longitude": "-121.192157",
    "latitude": "44.2375883",
    "tags": []
  },
  {
    "id": "smith-rock-brewing",
    "name": "Smith Rock Brewing",
    "brewery_type": "brewpub",
    "street": "546 NW 7th St",
    "city": "Redmond",
    "state": "Oregon",
    "postal_code": "97756-1628",
    "website_url": "http://www.smithrockbrewing.com",
    "phone": "5412797005",
    "created_at": "2018-07-24 01:34:07.858095",
    "updated_at": "2018-08-24 16:04:59.558025",
    "country": "United States",
    "longitude": "-121.175239",
    "latitude": "44.2805630159867",
    "tags": []
  }
]