[
  {
    "id": "backside-brewing-co",
    "name": "Backside Brewing Co",
    "brewery_type": "brewpub",
    "street": "1640 NE Odell Ave",
    "city": "Roseburg",
    "state": "Oregon",
    "postal_code": "97470-3320",
    "website_url": "http://www.backsidebrewingco.com",
    "phone": "5415801906",
    "created_at": "2018-07-24 01:34:04.704403",
    "updated_at": "2018-08-24 15:45:51.872149",
    "country": "United States",
    "longitude": "-123.337788095084",
    "latitude": "43.2144983853367",
    "tags": []
  },
  {
    "id": "draper-brewing",
    "name": "Draper Brewing",
    "brewery_type": "micro",
    "street": "640 SE Jackson St",
    "city": "Roseburg",
    "state": "Oregon",
    "postal_code": "97470",
    "website_url": "http://www.draperbrewing.com",
    "phone": "5415805585",
    "created_at": "2018-07-24 01:34:05.79756",
    "updated_at": "2018-08-24 16:01:26.213103",
    "country": "United States",
    "longitude": "-123.3445979",
    "latitude": "43.2084738",
    "tags": []
  },
  {
    "id": "north-forty-beer-company",
    "name": "North Forty Beer Company",
    "brewery_type": "planning",
    "street": "",
    "city": "Roseburg",
    "state": "Oregon",
    "postal_code": "97470-4945",
    "website_url": "http://www.northfortybeer.com",
    "phone": "5413216636",
    "created_at": "2018-07-24 01:34:07.072985",
    "updated_at": "2018-08-11 21:39:16.718537",
    "country": "United States",
    "longitude": "",
    "latitude": "",
    "tags": []
  },
  {
    "id": "old-99-brewing-co",
    "name": "Old 99 Brewing Co",
    "brewery_type": "micro",
    "street": "3750 Hooker Rd Ste A",
    "city": "Roseburg",
    "state": "Oregon",
    "postal_code": "97470-4501",
    "website_url": "http://www.old99brewing.com",
    "phone": "5417848012",
    "created_at": "2018-07-24 01:34:07.153814",
    "updated_at": "2018-08-11 21:39:16.992174",
    "country": "United States",
    "longitude": "",
    "latitude": "",
    "tags": []
  },
  {
    "id": "mcmenamins-roseburg-station-brewery",
    "name": "McMenamins Roseburg Station Brewery",
    "brewery_type": "micro",
    "street": "700 SE Sheridan St",
    "city": "Roseburg",
    "state": "Oregon",
    "postal_code": "97470-3470",
    "website_url": "http://www.mcmenamins.com",
    "phone": "5416721934",
    "created_at": "2018-07-24 01:34:06.860475",
    "updated_at": "2018-08-24 16:03:18.618168",
    "country": "United States",
    "longitude": "-123.349051",
    "latitude": "43.208554",
    "tags": []
  },
  {
    "id": "two-shy-brewing",
    "name": "Two-Shy Brewing",
    "brewery_type": "micro",
    "street": "1308 NW Park St Ste 100",
    "city": "Roseburg",
    "state": "Oregon",
    "postal_code": "97470-2058",
    "website_url": "http://www.twoshybrewing.com",
    "phone": "5412362055",
    "created_at": "2018-07-24 01:34:08.157968",
    "updated_at": "2018-08-11 21:39:19.98492",
    "country": "United States",
    "longitude": "",
    "latitude": "",
    "tags": []
  }
]