[
  {
    "id": "bine-valley-brewing",
    "name": "Bine Valley Brewing",
    "brewery_type": "micro",
    "street": "2027 25th St SE",
    "city": "Salem",
    "state": "Oregon",
    "postal_code": "97302-1130",
    "website_url": "http://www.binebrews.com",
    "phone": "7602249889",
    "created_at": "2018-07-24 01:34:04.913652",
    "updated_at": "2018-08-24 15:45:59.437115",
    "country": "United States",
    "longitude": "-123.010424806815",
    "latitude": "44.9208396400313",
    "tags": []
  },
  {
    "id": "gilgamesh-brewing-co",
    "name": "Gilgamesh Brewing Co",
    "brewery_type": "micro",
    "street": "2065 Madrona Ave SE",
    "city": "Salem",
    "state": "Oregon",
    "postal_code": "97302-1010",
    "website_url": "http://gilgameshbrewing.com",
    "phone": "9702014409",
    "created_at": "2018-07-24 01:34:06.07896",
    "updated_at": "2018-08-24 16:01:54.700075",
    "country": "United States",
    "longitude": "-123.019117754681",
    "latitude": "44.9050457598775",
    "tags": []
  },
  {
    "id": "mcmenamins-thompson-brewery",
    "name": "McMenamins Thompson Brewery",
    "brewery_type": "micro",
    "street": "3575 Liberty Rd S",
    "city": "Salem",
    "state": "Oregon",
    "postal_code": "97302-5621",
    "website_url": "http://www.mcmenamins.com",
    "phone": "5033712945",
    "created_at": "2018-07-24 01:34:06.873455",
    "updated_at": "2018-08-24 16:03:20.077486",
    "country": "United States",
    "longitude": "-123.051309",
    "latitude": "44.904043",
    "tags": []
  },
  {
    "id": "ram-restaurant-and-brewery-salem",
    "name": "RAM Restaurant and Brewery - Salem",
    "brewery_type": "brewpub",
    "street": "515 12th St SE",
    "city": "Salem",
    "state": "Oregon",
    "postal_code": "97301-4034",
    "website_url": "http://www.theram.com",
    "phone": "5033631904",
    "created_at": "2018-07-24 01:34:07.449475",
    "updated_at": "2018-08-24 16:04:20.342866",
    "country": "United States",
    "longitude": "-123.0292121",
    "latitude": "44.932777",
    "tags": []
  },
  {
    "id": "ratchet-brewery",
    "name": "Ratchet Brewery",
    "brewery_type": "brewpub",
    "street": "2701 22nd St SE",
    "city": "Salem",
    "state": "Oregon",
    "postal_code": "97302-1553",
    "website_url": "",
    "phone": "5035809864",
    "created_at": "2018-07-24 01:34:07.464793",
    "updated_at": "2018-08-24 16:04:21.876691",
    "country": "United States",
    "longitude": "-123.017376175452",
    "latitude": "44.9141815841739",
    "tags": []
  },
  {
    "id": "salem-ale-works",
    "name": "Salem Ale Works",
    "brewery_type": "micro",
    "street": "2315 25th St SE",
    "city": "Salem",
    "state": "Oregon",
    "postal_code": "97302-1145",
    "website_url": "http://www.aleinsalem.com",
    "phone": "5039908486",
    "created_at": "2018-07-24 01:34:07.651006",
    "updated_at": "2018-08-24 16:04:40.078105",
    "country": "United States",
    "longitude": "-123.010396800691",
    "latitude": "44.9199888811689",
    "tags": []
  },
  {
    "id": "vagabond-brewing",
    "name": "Vagabond Brewing",
    "brewery_type": "brewpub",
    "street": "2195 Hyacinth St NE Ste 172",
    "city": "Salem",
    "state": "Oregon",
    "postal_code": "97301-3118",
    "website_url": "http://www.vagabondbrewing.com",
    "phone": "5035129007",
    "created_at": "2018-07-24 01:34:08.199861",
    "updated_at": "2018-08-11 21:39:20.464381",
    "country": "United States",
    "longitude": "",
    "latitude": "",
    "tags": []
  },
  {
    "id": "xicha-brewing-co",
    "name": "Xicha Brewing Co.",
    "brewery_type": "brewpub",
    "street": "576 Patterson Street NW, Suite 140",
    "city": "Salem",
    "state": "Oregon",
    "postal_code": "97304",
    "website_url": "https://www.xichabrewing.com",
    "phone": "5039908292",
    "created_at": "2018-07-24 01:34:08.484322",
    "updated_at": "2018-08-11 21:39:21.376319",
    "country": "United States",
    "longitude": "",
    "latitude": "",
    "tags": []
  },
  {
    "id": "santiam-brewing-co",
    "name": "Santiam Brewing Co",
    "brewery_type": "micro",
    "street": "2544 19th St SE",
    "city": "Salem",
    "state": "Oregon",
    "postal_code": "97302-1501",
    "website_url": "http://www.santiambrewing.com",
    "phone": "5035075257",
    "created_at": "2018-07-24 01:34:07.681608",
    "updated_at": "2018-08-24 16:04:43.101117",
    "country": "United States",
    "longitude": "-123.020908362525",
    "latitude": "44.9164466517722",
    "tags": []
  }
]