[
  {
    "id": "white-elm-brewing-co",
    "name": "White Elm Brewing Co",
    "brewery_type": "micro",
    "street": "720 Van Dorn St",
    "city": "Lincoln",
    "state": "Nebraska",
    "postal_code": "68502-3353",
    "website_url": "http://www.whiteelmbrewing.com",
    "phone": "4022616078",
    "created_at": "2018-07-24 01:33:44.106036",
    "updated_at": "2018-08-24 00:47:52.147503",
    "country": "United States",
    "longitude": "-96.7167126",
    "latitude": "40.7856925",
    "tags": []
  },
  {
    "id": "backswing-brewing-co",
    "name": "Backswing Brewing Co.",
    "brewery_type": "micro",
    "street": "500 W South St Ste 8",
    "city": "Lincoln",
    "state": "Nebraska",
    "postal_code": "68522-1744",
    "website_url": "http://www.backswingbrewing.com",
    "phone": "4025154263",
    "created_at": "2018-07-24 01:33:43.339941",
    "updated_at": "2018-08-11 21:38:14.2585",
    "country": "United States",
    "longitude": "",
    "latitude": "",
    "tags": []
  },
  {
    "id": "boiler-brewing-company",
    "name": "Boiler Brewing Company",
    "brewery_type": "micro",
    "street": "129 N 10th St Ste 8",
    "city": "Lincoln",
    "state": "Nebraska",
    "postal_code": "68508-3633",
    "website_url": "http://www.boilerbrewingcompany.com",
    "phone": "4022618775",
    "created_at": "2018-07-24 01:33:43.395472",
    "updated_at": "2018-08-11 21:38:14.448928",
    "country": "United States",
    "longitude": "",
    "latitude": "",
    "tags": []
  },
  {
    "id": "cosmic-eye-brewing",
    "name": "Cosmic Eye Brewing",
    "brewery_type": "planning",
    "street": "",
    "city": "Lincoln",
    "state": "Nebraska",
    "postal_code": "68505-2463",
    "website_url": "http://www.cosmiceye.beer",
    "phone": "4027308807",
    "created_at": "2018-07-24 01:33:43.519446",
    "updated_at": "2018-08-11 21:38:14.864736",
    "country": "United States",
    "longitude": "",
    "latitude": "",
    "tags": []
  },
  {
    "id": "red-iron-brewing-company",
    "name": "Red Iron Brewing Company",
    "brewery_type": "planning",
    "street": "",
    "city": "Lincoln",
    "state": "Nebraska",
    "postal_code": "68502",
    "website_url": "http://www.RedIronBrewing.com",
    "phone": "4028126242",
    "created_at": "2018-07-24 01:33:43.972056",
    "updated_at": "2018-08-11 21:38:16.099559",
    "country": "United States",
    "longitude": "",
    "latitude": "",
    "tags": []
  },
  {
    "id": "blue-blood-brewing-company",
    "name": "Blue Blood Brewing Company",
    "brewery_type": "brewpub",
    "street": "925 Robbers Cave Rd",
    "city": "Lincoln",
    "state": "Nebraska",
    "postal_code": "68502",
    "website_url": "http://www.bluebloodbrewing.com",
    "phone": "4024772337",
    "created_at": "2018-07-24 01:33:43.382605",
    "updated_at": "2018-08-24 00:47:32.761758",
    "country": "United States",
    "longitude": "-96.707013755102",
    "latitude": "40.7799960204082",
    "tags": []
  },
  {
    "id": "code-beer-co",
    "name": "Code Beer Co.",
    "brewery_type": "micro",
    "street": "200 S Antelope Valley Pkwy",
    "city": "Lincoln",
    "state": "Nebraska",
    "postal_code": "68510-1016",
    "website_url": "http://www.codebeer.co",
    "phone": "4023185888",
    "created_at": "2018-07-24 01:33:43.506941",
    "updated_at": "2018-08-24 00:47:35.964144",
    "country": "United States",
    "longitude": "-96.6934442234685",
    "latitude": "40.8123075",
    "tags": []
  },
  {
    "id": "empyrean-brewing-co",
    "name": "Empyrean Brewing Co",
    "brewery_type": "micro",
    "street": "729 Q St",
    "city": "Lincoln",
    "state": "Nebraska",
    "postal_code": "68508-1536",
    "website_url": "http://www.empyreanbrewingco.com",
    "phone": "4024345970",
    "created_at": "2018-07-24 01:33:43.543394",
    "updated_at": "2018-08-24 00:47:36.916718",
    "country": "United States",
    "longitude": "-96.7105429",
    "latitude": "40.8155873",
    "tags": []
  },
  {
    "id": "granite-city-food-and-brewery-#7",
    "name": "Granite City Food & Brewery (#7)",
    "brewery_type": "brewpub",
    "street": "6200 O St",
    "city": "Lincoln",
    "state": "Nebraska",
    "postal_code": "68510-2240",
    "website_url": "http://www.gcfb.net",
    "phone": "4024661900",
    "created_at": "2018-07-24 01:33:43.646388",
    "updated_at": "2018-08-24 00:47:39.951156",
    "country": "United States",
    "longitude": "-96.6872327",
    "latitude": "40.8135885",
    "tags": []
  },
  {
    "id": "green-flash-brewing-co",
    "name": "Green Flash Brewing Co",
    "brewery_type": "brewpub",
    "street": "1630 P St",
    "city": "Lincoln",
    "state": "Nebraska",
    "postal_code": "68508-1644",
    "website_url": "",
    "phone": "",
    "created_at": "2018-07-24 01:33:43.66285",
    "updated_at": "2018-08-24 00:47:40.436917",
    "country": "United States",
    "longitude": "-96.6976802244898",
    "latitude": "40.8148111632653",
    "tags": []
  },
  {
    "id": "lazlos-brewery-and-grill-haymarket",
    "name": "Lazlo's Brewery & Grill - Haymarket",
    "brewery_type": "brewpub",
    "street": "210 N 7th St",
    "city": "Lincoln",
    "state": "Nebraska",
    "postal_code": "68508-1301",
    "website_url": "",
    "phone": "4024345636",
    "created_at": "2018-07-24 01:33:43.805592",
    "updated_at": "2018-08-24 00:47:44.132613",
    "country": "United States",
    "longitude": "-96.7108844897959",
    "latitude": "40.8149737346939",
    "tags": []
  },
  {
    "id": "zipline-brewing-co",
    "name": "Zipline Brewing Co",
    "brewery_type": "micro",
    "street": "2100 Magnum Cir Ste 1",
    "city": "Lincoln",
    "state": "Nebraska",
    "postal_code": "68522-1027",
    "website_url": "http://www.ziplinebrewing.com",
    "phone": "4024751001",
    "created_at": "2018-07-24 01:33:44.119312",
    "updated_at": "2018-08-11 21:38:16.408089",
    "country": "United States",
    "longitude": "",
    "latitude": "",
    "tags": []
  }
]