[
  {
    "id": "benson-brewery",
    "name": "Benson Brewery",
    "brewery_type": "brewpub",
    "street": "6059 Maple St",
    "city": "Omaha",
    "state": "Nebraska",
    "postal_code": "68104-4050",
    "website_url": "http://www.bensonbrewery.com",
    "phone": "4029348668",
    "created_at": "2018-07-24 01:33:43.367541",
    "updated_at": "2018-08-24 00:47:32.331138",
    "country": "United States",
    "longitude": "-96.0063451111111",
    "latitude": "41.2848975555556",
    "tags": []
  },
  {
    "id": "brickway-brewery-and-distillery",
    "name": "Brickway Brewery and Distillery",
    "brewery_type": "micro",
    "street": "1116 Jackson St",
    "city": "Omaha",
    "state": "Nebraska",
    "postal_code": "68102-2825",
    "website_url": "http://www.drinkbrickway.com",
    "phone": "4029332613",
    "created_at": "2018-07-24 01:33:43.479284",
    "updated_at": "2018-08-24 00:47:35.050424",
    "country": "United States",
    "longitude": "-95.930905244898",
    "latitude": "41.2544908163265",
    "tags": []
  },
  {
    "id": "farnam-house-brewing-company",
    "name": "Farnam House Brewing Company",
    "brewery_type": "brewpub",
    "street": "3558 Farnam St",
    "city": "Omaha",
    "state": "Nebraska",
    "postal_code": "68131-3304",
    "website_url": "http://www.farnamhousebrewing.com",
    "phone": "4024016086",
    "created_at": "2018-07-24 01:33:43.56902",
    "updated_at": "2018-08-24 00:47:37.85362",
    "country": "United States",
    "longitude": "-95.9658017764832",
    "latitude": "41.2578153029739",
    "tags": []
  },
  {
    "id": "granite-city-food-and-brewery-#16",
    "name": "Granite City Food & Brewery (#16)",
    "brewery_type": "brewpub",
    "street": "1001 N 102nd St",
    "city": "Omaha",
    "state": "Nebraska",
    "postal_code": "68114-2155",
    "website_url": "http://www.gcfb.net",
    "phone": "4023935000",
    "created_at": "2018-07-24 01:33:43.629656",
    "updated_at": "2018-08-24 00:47:39.392112",
    "country": "United States",
    "longitude": "-96.071539",
    "latitude": "41.268008",
    "tags": []
  },
  {
    "id": "barley-boys-brewery",
    "name": "Barley Boys Brewery",
    "brewery_type": "planning",
    "street": "",
    "city": "Omaha",
    "state": "Nebraska",
    "postal_code": "68144-1922",
    "website_url": "http://www.barleyboysbrewery.com",
    "phone": "4025986096",
    "created_at": "2018-07-24 01:33:43.354014",
    "updated_at": "2018-08-11 21:38:14.31289",
    "country": "United States",
    "longitude": "",
    "latitude": "",
    "tags": []
  },
  {
    "id": "brewery-in-planning-omaha",
    "name": "Brewery In Planning - Omaha",
    "brewery_type": "planning",
    "street": "",
    "city": "Omaha",
    "state": "Nebraska",
    "postal_code": "68102",
    "website_url": "",
    "phone": "",
    "created_at": "2018-07-24 01:33:43.465836",
    "updated_at": "2018-08-11 21:38:14.685476",
    "country": "United States",
    "longitude": "",
    "latitude": "",
    "tags": []
  },
  {
    "id": "jgr-enterprises-inc",
    "name": "JGR Enterprises Inc",
    "brewery_type": "planning",
    "street": "",
    "city": "Omaha",
    "state": "Nebraska",
    "postal_code": "68135-6215",
    "website_url": "",
    "phone": "4028610174",
    "created_at": "2018-07-24 01:33:43.736354",
    "updated_at": "2018-08-11 21:38:15.512737",
    "country": "United States",
    "longitude": "",
    "latitude": "",
    "tags": []
  },
  {
    "id": "scriptown-brewing-company",
    "name": "Scriptown Brewing Company",
    "brewery_type": "micro",
    "street": "3922 Farnam St Blackstone District",
    "city": "Omaha",
    "state": "Nebraska",
    "postal_code": "68131-3014",
    "website_url": "http://www.scriptownbrewing.com",
    "phone": "4029910506",
    "created_at": "2018-07-24 01:33:44.018396",
    "updated_at": "2018-08-11 21:38:16.198511",
    "country": "United States",
    "longitude": "",
    "latitude": "",
    "tags": []
  },
  {
    "id": "infusion-brewing-company",
    "name": "Infusion Brewing Company",
    "brewery_type": "micro",
    "street": "6115 Maple St",
    "city": "Omaha",
    "state": "Nebraska",
    "postal_code": "68104-4043",
    "website_url": "http://www.infusionbrewing.com",
    "phone": "4029342064",
    "created_at": "2018-07-24 01:33:43.694908",
    "updated_at": "2018-08-24 00:47:41.327315",
    "country": "United States",
    "longitude": "-96.007724",
    "latitude": "41.284907",
    "tags": []
  },
  {
    "id": "jaipur-restaurant-and-brewpub",
    "name": "Jaipur Restaurant and Brewpub",
    "brewery_type": "brewpub",
    "street": "10922 Elm St",
    "city": "Omaha",
    "state": "Nebraska",
    "postal_code": "68144-4822",
    "website_url": "http://www.jaipurbrewhouse.com",
    "phone": "4023927331",
    "created_at": "2018-07-24 01:33:43.72311",
    "updated_at": "2018-08-24 00:47:42.192535",
    "country": "United States",
    "longitude": "-96.0823939681767",
    "latitude": "41.2328376834949",
    "tags": []
  },
  {
    "id": "upstream-brewing-co-#1",
    "name": "Upstream Brewing Co (#1)",
    "brewery_type": "brewpub",
    "street": "514 S 11th St",
    "city": "Omaha",
    "state": "Nebraska",
    "postal_code": "68102-2808",
    "website_url": "http://www.upstreambrewing.com",
    "phone": "4023440200",
    "created_at": "2018-07-24 01:33:44.079485",
    "updated_at": "2018-08-24 00:47:51.19369",
    "country": "United States",
    "longitude": "-95.9308408",
    "latitude": "41.2547107",
    "tags": []
  },
  {
    "id": "vis-major-brewing-co",
    "name": "Vis Major Brewing Co",
    "brewery_type": "brewpub",
    "street": "3501 Center St",
    "city": "Omaha",
    "state": "Nebraska",
    "postal_code": "68105-2423",
    "website_url": "http://www.vismajorbrewing.com",
    "phone": "4028844082",
    "created_at": "2018-07-24 01:33:44.092851",
    "updated_at": "2018-08-24 00:47:51.643057",
    "country": "United States",
    "longitude": "-95.964461",
    "latitude": "41.241419",
    "tags": []
  },
  {
    "id": "infusion-brewing-company",
    "name": "Infusion Brewing Company",
    "brewery_type": "micro",
    "street": "6271 S 118th St",
    "city": "Omaha",
    "state": "Nebraska",
    "postal_code": "68137-3574",
    "website_url": "http://www.infusionbrewing.com",
    "phone": "4029342064",
    "created_at": "2018-07-24 01:33:43.708677",
    "updated_at": "2018-08-24 00:47:41.766986",
    "country": "United States",
    "longitude": "-96.0980711",
    "latitude": "41.2077948",
    "tags": []
  }
]