[
  {
    "id": "deadwood-brewery-/-boston-bowl",
    "name": "Deadwood Brewery / Boston Bowl",
    "brewery_type": "brewpub",
    "street": "820 William T Morrissey Blvd",
    "city": "Boston",
    "state": "Massachusetts",
    "postal_code": "02122-3404",
    "website_url": "http://www.deadwoodbrewery.com",
    "phone": "6177401440",
    "created_at": "2018-07-24 01:33:30.852745",
    "updated_at": "2018-08-24 00:41:15.440932",
    "country": "United States",
    "longitude": "-71.047997482376",
    "latitude": "42.2948560502166",
    "tags": []
  },
  {
    "id": "slesar-bros-brewing-co-boston-beer-works",
    "name": "Slesar Bros Brewing Co - Boston Beer Works",
    "brewery_type": "brewpub",
    "street": "112 Canal St",
    "city": "Boston",
    "state": "Massachusetts",
    "postal_code": "02114-1805",
    "website_url": "http://www.beerworks.net",
    "phone": "6178962337",
    "created_at": "2018-07-24 01:33:31.966141",
    "updated_at": "2018-08-24 00:41:47.343583",
    "country": "United States",
    "longitude": "-71.0603412",
    "latitude": "42.364473",
    "tags": []
  },
  {
    "id": "backlash-beer-co",
    "name": "Backlash Beer Co",
    "brewery_type": "contract",
    "street": "",
    "city": "Boston",
    "state": "Massachusetts",
    "postal_code": "2215",
    "website_url": "http://backlashbeer.com/",
    "phone": "",
    "created_at": "2018-07-24 01:33:30.116609",
    "updated_at": "2018-08-11 21:37:38.486156",
    "country": "United States",
    "longitude": "",
    "latitude": "",
    "tags": []
  },
  {
    "id": "boston-beer-co",
    "name": "Boston Beer Co",
    "brewery_type": "micro",
    "street": "1 Design Center Pl Ste 850",
    "city": "Boston",
    "state": "Massachusetts",
    "postal_code": "02210-2300",
    "website_url": "",
    "phone": "6173685000",
    "created_at": "2018-07-24 01:33:30.335772",
    "updated_at": "2018-08-11 21:37:38.969329",
    "country": "United States",
    "longitude": "",
    "latitude": "",
    "tags": []
  },
  {
    "id": "cheeky-monkey-brewing-co-/-lucky-strike-jillians",
    "name": "Cheeky Monkey Brewing Co / Lucky Strike Jillians",
    "brewery_type": "brewpub",
    "street": "3 Lansdowne St",
    "city": "Boston",
    "state": "Massachusetts",
    "postal_code": "02215-3412",
    "website_url": "http://www.cheekymonkeyboston.com",
    "phone": "6178590030",
    "created_at": "2018-07-24 01:33:30.758145",
    "updated_at": "2018-08-24 00:41:13.247512",
    "country": "United States",
    "longitude": "-71.0946215",
    "latitude": "42.34729",
    "tags": []
  },
  {
    "id": "democracy-brewing",
    "name": "Democracy Brewing",
    "brewery_type": "brewpub",
    "street": "35 Temple Pl",
    "city": "Boston",
    "state": "Massachusetts",
    "postal_code": "02111",
    "website_url": "http://www.democracybrewing.com",
    "phone": "8572172739",
    "created_at": "2018-07-24 01:33:30.87399",
    "updated_at": "2018-08-24 00:41:15.98947",
    "country": "United States",
    "longitude": "-71.0623157813541",
    "latitude": "42.3552962282976",
    "tags": []
  },
  {
    "id": "night-shift-brewing",
    "name": "Night Shift Brewing",
    "brewery_type": "planning",
    "street": "",
    "city": "Boston",
    "state": "Massachusetts",
    "postal_code": "02114",
    "website_url": "",
    "phone": "",
    "created_at": "2018-07-24 01:33:31.571664",
    "updated_at": "2018-08-11 21:37:42.6344",
    "country": "United States",
    "longitude": "",
    "latitude": "",
    "tags": []
  },
  {
    "id": "harpoon-brewery",
    "name": "Harpoon Brewery",
    "brewery_type": "regional",
    "street": "306 Northern Ave Ste 2",
    "city": "Boston",
    "state": "Massachusetts",
    "postal_code": "02210-2367",
    "website_url": "http://www.harpoonbrewery.com",
    "phone": "6175749551",
    "created_at": "2018-07-24 01:33:31.076706",
    "updated_at": "2018-08-24 00:41:22.031971",
    "country": "United States",
    "longitude": "-71.0348293",
    "latitude": "42.3465637",
    "tags": []
  },
  {
    "id": "mighty-squirrel",
    "name": "Mighty Squirrel",
    "brewery_type": "contract",
    "street": "745 Atlantic Ave",
    "city": "Boston",
    "state": "Massachusetts",
    "postal_code": "02111-2735",
    "website_url": "http://www.mightysquirrel.com",
    "phone": "7602120802",
    "created_at": "2018-07-24 01:33:31.460349",
    "updated_at": "2018-08-24 00:41:32.100226",
    "country": "United States",
    "longitude": "-71.0569929",
    "latitude": "42.3502282",
    "tags": []
  },
  {
    "id": "slesar-bros-brewing-co-boston-beer-works",
    "name": "Slesar Bros Brewing Co - Boston Beer Works",
    "brewery_type": "brewpub",
    "street": "61 Brookline Ave",
    "city": "Boston",
    "state": "Massachusetts",
    "postal_code": "02215-3406",
    "website_url": "http://www.beerworks.net",
    "phone": "6175362337",
    "created_at": "2018-07-24 01:33:31.978305",
    "updated_at": "2018-08-24 00:41:47.788778",
    "country": "United States",
    "longitude": "-71.1077246938776",
    "latitude": "42.3388300816327",
    "tags": []
  },
  {
    "id": "boston-beer-co",
    "name": "Boston Beer Co",
    "brewery_type": "micro",
    "street": "30 Germania St Ste 1",
    "city": "Boston",
    "state": "Massachusetts",
    "postal_code": "02130-2312",
    "website_url": "http://www.samueladams.com",
    "phone": "6173685000",
    "created_at": "2018-07-24 01:33:30.351609",
    "updated_at": "2018-08-11 21:37:39.002163",
    "country": "United States",
    "longitude": "",
    "latitude": "",
    "tags": []
  }
]