[
  {
    "id": "bear-and-bramble-brewing-company",
    "name": "Bear and Bramble Brewing Company",
    "brewery_type": "micro",
    "street": "10 Payson Ave # 1",
    "city": "Easthampton",
    "state": "Massachusetts",
    "postal_code": "01027-2207",
    "website_url": "",
    "phone": "",
    "created_at": "2018-07-24 01:33:30.221394",
    "updated_at": "2018-08-11 21:37:38.716261",
    "country": "United States",
    "longitude": "",
    "latitude": "",
    "tags": []
  },
  {
    "id": "new-city-brewery",
    "name": "New City Brewery",
    "brewery_type": "micro",
    "street": "180 Pleasant St Ste 2",
    "city": "Easthampton",
    "state": "Massachusetts",
    "postal_code": "01027-1297",
    "website_url": "",
    "phone": "4135292000",
    "created_at": "2018-07-24 01:33:31.547156",
    "updated_at": "2018-08-11 21:37:42.552132",
    "country": "United States",
    "longitude": "",
    "latitude": "",
    "tags": []
  },
  {
    "id": "fort-hill-brewery",
    "name": "Fort Hill Brewery",
    "brewery_type": "micro",
    "street": "30 Fort Hill Rd",
    "city": "Easthampton",
    "state": "Massachusetts",
    "postal_code": "01027-1268",
    "website_url": "http://www.forthillbrewery.com",
    "phone": "4132035754",
    "created_at": "2018-07-24 01:33:31.007637",
    "updated_at": "2018-08-24 00:41:20.144595",
    "country": "United States",
    "longitude": "-72.6414309757094",
    "latitude": "42.2850315371962",
    "tags": []
  },
  {
    "id": "opa-opa-brewery",
    "name": "Opa Opa Brewery",
    "brewery_type": "contract",
    "street": "19 Wemelco Way",
    "city": "Easthampton",
    "state": "Massachusetts",
    "postal_code": "01027",
    "website_url": "http://www.opaopasteakhousebrewery.com",
    "phone": "4135270808",
    "created_at": "2018-07-24 01:33:31.686041",
    "updated_at": "2018-08-24 00:41:38.968666",
    "country": "United States",
    "longitude": "-72.6919129873619",
    "latitude": "42.2546704774428",
    "tags": []
  },
  {
    "id": "abandoned-building-brewery",
    "name": "Abandoned Building Brewery",
    "brewery_type": "micro",
    "street": "142 Pleasant St Unit 103A",
    "city": "Easthampton",
    "state": "Massachusetts",
    "postal_code": "01027-2805",
    "website_url": "http://www.abandonedbuildingbrewery.com",
    "phone": "4132827062",
    "created_at": "2018-07-24 01:33:29.982808",
    "updated_at": "2018-08-11 21:37:38.259151",
    "country": "United States",
    "longitude": "",
    "latitude": "",
    "tags": []
  }
]