[
  {
    "id": "plymouth-beer-company-/-dirty-water-distillery",
    "name": "Plymouth Beer Company / Dirty Water Distillery",
    "brewery_type": "micro",
    "street": "10 Water St",
    "city": "Plymouth",
    "state": "Massachusetts",
    "postal_code": "02360-3349",
    "website_url": "http://www.plymouthbeer.rocks",
    "phone": "5085910589",
    "created_at": "2018-07-24 01:33:31.75011",
    "updated_at": "2018-08-24 00:41:40.77548",
    "country": "United States",
    "longitude": "-70.6620267",
    "latitude": "41.9549491",
    "tags": []
  },
  {
    "id": "second-wind-brewing-company",
    "name": "Second Wind Brewing Company",
    "brewery_type": "micro",
    "street": "7 Howland St",
    "city": "Plymouth",
    "state": "Massachusetts",
    "postal_code": "02360-3810",
    "website_url": "http://www.secondwindbrewing.com",
    "phone": "5085915915",
    "created_at": "2018-07-24 01:33:31.916694",
    "updated_at": "2018-08-24 00:41:45.584037",
    "country": "United States",
    "longitude": "-70.6665477965761",
    "latitude": "41.9585551017836",
    "tags": []
  },
  {
    "id": "independent-fermentations-brewing",
    "name": "Independent Fermentations Brewing",
    "brewery_type": "micro",
    "street": "127 Camelot Dr Ste 3",
    "city": "Plymouth",
    "state": "Massachusetts",
    "postal_code": "02360-3039",
    "website_url": "http://www.independentfermentations.com",
    "phone": "5087464634",
    "created_at": "2018-07-24 01:33:31.200855",
    "updated_at": "2018-08-11 21:37:41.880084",
    "country": "United States",
    "longitude": "",
    "latitude": "",
    "tags": []
  },
  {
    "id": "mayflower-brewing-co",
    "name": "Mayflower Brewing Co",
    "brewery_type": "micro",
    "street": "12 Resnik Rd",
    "city": "Plymouth",
    "state": "Massachusetts",
    "postal_code": "02360-7245",
    "website_url": "http://www.mayflowerbrewing.com",
    "phone": "5087462674",
    "created_at": "2018-07-24 01:33:31.406801",
    "updated_at": "2018-08-24 00:41:30.767987",
    "country": "United States",
    "longitude": "-70.7125549568343",
    "latitude": "41.9492602441054",
    "tags": []
  }
]