[
  {
    "id": "aeronaut-brewing-company",
    "name": "Aeronaut Brewing Company",
    "brewery_type": "micro",
    "street": "14 Tyler St",
    "city": "Somerville",
    "state": "Massachusetts",
    "postal_code": "02143-3224",
    "website_url": "http://www.aeronautbrewing.com",
    "phone": "6179874236",
    "created_at": "2018-07-24 01:33:29.995322",
    "updated_at": "2018-08-24 00:40:57.942731",
    "country": "United States",
    "longitude": "-71.1062676",
    "latitude": "42.3819723",
    "tags": []
  },
  {
    "id": "remnant-brewing",
    "name": "Remnant Brewing",
    "brewery_type": "micro",
    "street": "2 Bow Market Way",
    "city": "Somerville",
    "state": "Massachusetts",
    "postal_code": "02143",
    "website_url": "http://www.remnantsomerville.com",
    "phone": "",
    "created_at": "2018-07-24 01:33:31.813795",
    "updated_at": "2018-08-11 21:37:43.288949",
    "country": "United States",
    "longitude": "",
    "latitude": "",
    "tags": []
  },
  {
    "id": "somerville-brewing-company",
    "name": "Somerville Brewing Company",
    "brewery_type": "micro",
    "street": "15 Ward St",
    "city": "Somerville",
    "state": "Massachusetts",
    "postal_code": "02143-4228",
    "website_url": "http://www.slumbrew.com",
    "phone": "8004281150",
    "created_at": "2018-07-24 01:33:31.990713",
    "updated_at": "2018-08-24 00:41:48.231103",
    "country": "United States",
    "longitude": "-71.0890345",
    "latitude": "42.3749103",
    "tags": []
  },
  {
    "id": "winter-hill-brewing-company",
    "name": "Winter Hill Brewing Company",
    "brewery_type": "brewpub",
    "street": "328 Broadway",
    "city": "Somerville",
    "state": "Massachusetts",
    "postal_code": "02145-2803",
    "website_url": "http://www.winterhillbrewing.com",
    "phone": "6177182337",
    "created_at": "2018-07-24 01:33:32.34958",
    "updated_at": "2018-08-11 21:37:44.478416",
    "country": "United States",
    "longitude": "",
    "latitude": "",
    "tags": []
  }
]