[
  {
    "id": "3cross-fermentation-cooperative",
    "name": "3cross Fermentation Cooperative",
    "brewery_type": "micro",
    "street": "4 Knowlton Ave",
    "city": "Worcester",
    "state": "Massachusetts",
    "postal_code": "01603",
    "website_url": "http://www.3cross.coop",
    "phone": "5086158195",
    "created_at": "2018-07-24 01:33:29.957597",
    "updated_at": "2018-08-24 00:40:56.595037",
    "country": "United States",
    "longitude": "-71.8305759340224",
    "latitude": "42.2436487455576",
    "tags": []
  },
  {
    "id": "flying-dreams-brewing-co",
    "name": "Flying Dreams Brewing Co.",
    "brewery_type": "micro",
    "street": "455B Park Ave",
    "city": "Worcester",
    "state": "Massachusetts",
    "postal_code": "01610",
    "website_url": "http://www.flyingdreamsbrewing.com",
    "phone": "5089268251",
    "created_at": "2018-07-24 01:33:30.993567",
    "updated_at": "2018-08-24 00:41:19.667359",
    "country": "United States",
    "longitude": "-71.8261885714286",
    "latitude": "42.2541995714286",
    "tags": []
  },
  {
    "id": "greater-good-imperial-brew-co",
    "name": "Greater Good Imperial Brew Co",
    "brewery_type": "brewpub",
    "street": "55 Millbrook St",
    "city": "Worcester",
    "state": "Massachusetts",
    "postal_code": "01606",
    "website_url": "http://www.greatergoodimperials.com",
    "phone": "",
    "created_at": "2018-07-24 01:33:31.060791",
    "updated_at": "2018-08-24 00:41:21.561723",
    "country": "United States",
    "longitude": "-71.8035550289181",
    "latitude": "42.2891295038281",
    "tags": []
  },
  {
    "id": "wormtown-brewery",
    "name": "Wormtown Brewery",
    "brewery_type": "micro",
    "street": "72 Shrewsbury St",
    "city": "Worcester",
    "state": "Massachusetts",
    "postal_code": "01604-4625",
    "website_url": "http://www.wormtownbrewery.com",
    "phone": "7742391555",
    "created_at": "2018-07-24 01:33:32.365592",
    "updated_at": "2018-08-24 00:41:57.429666",
    "country": "United States",
    "longitude": "-71.7912262",
    "latitude": "42.2634992",
    "tags": []
  },
  {
    "id": "brewery-in-planning-watertown",
    "name": "Brewery In Planning - Watertown",
    "brewery_type": "planning",
    "street": "",
    "city": "Worcester",
    "state": "Massachusetts",
    "postal_code": "01608-2064",
    "website_url": "http://www.redemptionrock.beer",
    "phone": "9786605526",
    "created_at": "2018-07-24 01:33:30.498942",
    "updated_at": "2018-08-11 21:37:39.416794",
    "country": "United States",
    "longitude": "",
    "latitude": "",
    "tags": []
  }
]