[
  {
    "id": "simple-roots-brewing-co",
    "name": "Simple Roots Brewing Co",
    "brewery_type": "micro",
    "street": "1127 North Ave Ste 8",
    "city": "Burlington",
    "state": "Vermont",
    "postal_code": "05408-2756",
    "website_url": "",
    "phone": "",
    "created_at": "2018-07-24 01:34:23.69056",
    "updated_at": "2018-08-11 21:40:00.638596",
    "country": "United States",
    "longitude": "",
    "latitude": "",
    "tags": []
  },
  {
    "id": "foam-brewers",
    "name": "Foam Brewers",
    "brewery_type": "micro",
    "street": "112 Lake St",
    "city": "Burlington",
    "state": "Vermont",
    "postal_code": "05401-5284",
    "website_url": "http://www.foambrewers.com",
    "phone": "8023992511",
    "created_at": "2018-07-24 01:34:23.238918",
    "updated_at": "2018-08-24 16:25:41.783724",
    "country": "United States",
    "longitude": "-73.2200287",
    "latitude": "44.4793121",
    "tags": []
  },
  {
    "id": "queen-city-brewery-llc",
    "name": "Queen City Brewery, LLC",
    "brewery_type": "micro",
    "street": "703 Pine St",
    "city": "Burlington",
    "state": "Vermont",
    "postal_code": "05401-4921",
    "website_url": "http://www.queencitybrewery.com",
    "phone": "8025400280",
    "created_at": "2018-07-24 01:34:23.626553",
    "updated_at": "2018-08-24 16:26:22.375117",
    "country": "United States",
    "longitude": "-73.2148327517794",
    "latitude": "44.4594977",
    "tags": []
  },
  {
    "id": "switchback-brewing-co",
    "name": "Switchback Brewing Co",
    "brewery_type": "regional",
    "street": "160 Flynn Ave",
    "city": "Burlington",
    "state": "Vermont",
    "postal_code": "05401-5400",
    "website_url": "http://www.switchbackvt.com",
    "phone": "8026514114",
    "created_at": "2018-07-24 01:34:23.719026",
    "updated_at": "2018-08-24 16:26:32.664544",
    "country": "United States",
    "longitude": "-73.2206807506227",
    "latitude": "44.45680085",
    "tags": []
  },
  {
    "id": "zero-gravity-craft-brewery",
    "name": "Zero Gravity Craft Brewery",
    "brewery_type": "micro",
    "street": "716 Pinte Street",
    "city": "Burlington",
    "state": "Vermont",
    "postal_code": "05401",
    "website_url": "",
    "phone": "8024970054",
    "created_at": "2018-07-24 01:34:23.838067",
    "updated_at": "2018-08-11 21:40:01.035496",
    "country": "United States",
    "longitude": "",
    "latitude": "",
    "tags": []
  },
  {
    "id": "vermont-pub-and-brewery",
    "name": "Vermont Pub and Brewery",
    "brewery_type": "brewpub",
    "street": "144 College St",
    "city": "Burlington",
    "state": "Vermont",
    "postal_code": "05401-8416",
    "website_url": "http://www.vermontbrewery.com",
    "phone": "8028650500",
    "created_at": "2018-07-24 01:34:23.785697",
    "updated_at": "2018-08-24 16:26:38.641451",
    "country": "United States",
    "longitude": "-73.2143746",
    "latitude": "44.4772683",
    "tags": []
  },
  {
    "id": "zero-gravity-craft-brewery",
    "name": "Zero Gravity Craft Brewery",
    "brewery_type": "brewpub",
    "street": "716 Pine St",
    "city": "Burlington",
    "state": "Vermont",
    "postal_code": "05401-4922",
    "website_url": "http://www.zerogravitybeer.com",
    "phone": "8024970054",
    "created_at": "2018-07-24 01:34:23.824102",
    "updated_at": "2018-08-24 16:26:43.138158",
    "country": "United States",
    "longitude": "-73.2140363",
    "latitude": "44.4595462",
    "tags": []
  }
]