[
  {
    "id": "bjs-restaurant-and-brewery-chandler",
    "name": "BJs Restaurant & Brewery - Chandler",
    "brewery_type": "brewpub",
    "street": "3155 W Chandler Blvd",
    "city": "Chandler",
    "state": "Arizona",
    "postal_code": "85226-5175",
    "website_url": "http://www.bjsrestaurants.com",
    "phone": "4809170631",
    "created_at": "2018-07-24 01:32:48.716584",
    "updated_at": "2018-08-23 23:21:21.165735",
    "country": "United States",
    "longitude": "-111.911126",
    "latitude": "33.3053455",
    "tags": []
  },
  {
    "id": "santan-brewing-co",
    "name": "SanTan Brewing Co",
    "brewery_type": "regional",
    "street": "8 S San Marcos Pl",
    "city": "Chandler",
    "state": "Arizona",
    "postal_code": "85225-7862",
    "website_url": "http://www.santanbrewing.com",
    "phone": "4809178700",
    "created_at": "2018-07-24 01:32:49.861557",
    "updated_at": "2018-08-23 23:22:33.482457",
    "country": "United States",
    "longitude": "-111.8423459",
    "latitude": "33.3032436",
    "tags": []
  },
  {
    "id": "roadrunner-abbey-brewing",
    "name": "Roadrunner Abbey Brewing",
    "brewery_type": "planning",
    "street": "",
    "city": "Chandler",
    "state": "Arizona",
    "postal_code": "85249-4724",
    "website_url": "",
    "phone": "4805708283",
    "created_at": "2018-07-24 01:32:49.823011",
    "updated_at": "2018-08-23 23:22:30.774438",
    "country": "United States",
    "longitude": "-111.8408489",
    "latitude": "33.3067132",
    "tags": []
  },
  {
    "id": "santan-brewing-co-uptown-chandler",
    "name": "SanTan Brewing Co - Uptown Chandler",
    "brewery_type": "micro",
    "street": "495 E. Warner Rd.",
    "city": "Chandler",
    "state": "Arizona",
    "postal_code": "85225",
    "website_url": "",
    "phone": "4809178700",
    "created_at": "2018-07-24 01:32:49.885781",
    "updated_at": "2018-08-23 23:22:34.914363",
    "country": "United States",
    "longitude": "-111.8384052",
    "latitude": "33.3352048",
    "tags": []
  },
  {
    "id": "the-perch-pub-and-brewery",
    "name": "The Perch Pub & Brewery",
    "brewery_type": "brewpub",
    "street": "232 S Wall St",
    "city": "Chandler",
    "state": "Arizona",
    "postal_code": "85225-9528",
    "website_url": "http://www.perchpubbrewery.com",
    "phone": "4805808044",
    "created_at": "2018-07-24 01:32:50.121131",
    "updated_at": "2018-08-23 23:22:47.524328",
    "country": "United States",
    "longitude": "-111.8424808",
    "latitude": "33.3000878",
    "tags": []
  },
  {
    "id": "hop-central-brewery-and-taproom",
    "name": "HOP Central Brewery and Taproom",
    "brewery_type": "micro",
    "street": "5055 W Ray Rd Ste 2",
    "city": "Chandler",
    "state": "Arizona",
    "postal_code": "85226-6111",
    "website_url": "http://www.hopcentraltaproom.com",
    "phone": "6026971494",
    "created_at": "2018-07-24 01:32:49.341916",
    "updated_at": "2018-08-11 21:35:48.211554",
    "country": "United States",
    "longitude": "",
    "latitude": "",
    "tags": []
  }
]