[
  {
    "id": "beaver-street-brewery",
    "name": "Beaver Street Brewery",
    "brewery_type": "brewpub",
    "street": "11 S Beaver St Ste 1",
    "city": "Flagstaff",
    "state": "Arizona",
    "postal_code": "86001-5500",
    "website_url": "http://www.beaverstreetbrewery.com",
    "phone": "9287790079",
    "created_at": "2018-07-24 01:32:48.689615",
    "updated_at": "2018-08-11 21:35:46.628021",
    "country": "United States",
    "longitude": "",
    "latitude": "",
    "tags": []
  },
  {
    "id": "dark-sky-brewing-co",
    "name": "Dark Sky Brewing Co.",
    "brewery_type": "micro",
    "street": "117 N Beaver St Ste A",
    "city": "Flagstaff",
    "state": "Arizona",
    "postal_code": "86001-5677",
    "website_url": "http://www.darkskybrewing.com",
    "phone": "9282354525",
    "created_at": "2018-07-24 01:32:48.964141",
    "updated_at": "2018-08-11 21:35:47.238395",
    "country": "United States",
    "longitude": "",
    "latitude": "",
    "tags": []
  },
  {
    "id": "flagstaff-brewing-co",
    "name": "Flagstaff Brewing Co",
    "brewery_type": "brewpub",
    "street": "16 E Route 66",
    "city": "Flagstaff",
    "state": "Arizona",
    "postal_code": "86001-5792",
    "website_url": "http://www.flagbrew.com",
    "phone": "9287731442",
    "created_at": "2018-07-24 01:32:49.113119",
    "updated_at": "2018-08-23 23:21:44.320763",
    "country": "United States",
    "longitude": "-111.523296",
    "latitude": "35.2109064",
    "tags": []
  },
  {
    "id": "historic-brewing-company",
    "name": "Historic Brewing Company",
    "brewery_type": "micro",
    "street": "4366 E Huntington Dr Bldg 2",
    "city": "Flagstaff",
    "state": "Arizona",
    "postal_code": "86004-9400",
    "website_url": "http://www.historicbrewingcompany.com",
    "phone": "8554844677",
    "created_at": "2018-07-24 01:32:49.329348",
    "updated_at": "2018-08-11 21:35:48.186054",
    "country": "United States",
    "longitude": "",
    "latitude": "",
    "tags": []
  },
  {
    "id": "mother-road-brewery-and-taproom",
    "name": "Mother Road Brewery and Taproom",
    "brewery_type": "micro",
    "street": "1300 East Butler Ave Ste 200",
    "city": "Flagstaff",
    "state": "Arizona",
    "postal_code": "86001",
    "website_url": "http://www.motherroadbeer.com/butler-brewery",
    "phone": "9287740492",
    "created_at": "2018-07-24 01:32:49.520672",
    "updated_at": "2018-08-11 21:35:48.720397",
    "country": "United States",
    "longitude": "",
    "latitude": "",
    "tags": []
  },
  {
    "id": "lumberyard-brewing-co-taproom-and-grille",
    "name": "Lumberyard Brewing Co Taproom and Grille",
    "brewery_type": "micro",
    "street": "5 S San Francisco St",
    "city": "Flagstaff",
    "state": "Arizona",
    "postal_code": "86001-5736",
    "website_url": "http://www.lumberyardbrewingcompany.com",
    "phone": "9287792739",
    "created_at": "2018-07-24 01:32:49.458129",
    "updated_at": "2018-08-23 23:22:06.213621",
    "country": "United States",
    "longitude": "-111.648578",
    "latitude": "35.1964377",
    "tags": []
  },
  {
    "id": "mother-road-brewing-co",
    "name": "Mother Road Brewing Co",
    "brewery_type": "micro",
    "street": "7 S Mikes Pike",
    "city": "Flagstaff",
    "state": "Arizona",
    "postal_code": "86001-5589",
    "website_url": "http://www.motherroadbeer.com",
    "phone": "9287749139",
    "created_at": "2018-07-24 01:32:49.533654",
    "updated_at": "2018-08-23 23:22:11.676255",
    "country": "United States",
    "longitude": "-111.6524478",
    "latitude": "35.196928",
    "tags": []
  },
  {
    "id": "trail-crest-brewing-company",
    "name": "Trail Crest Brewing Company",
    "brewery_type": "brewpub",
    "street": "1800 S Milton Rd Ste 11",
    "city": "Flagstaff",
    "state": "Arizona",
    "postal_code": "86001",
    "website_url": "http://www.trailcrestbrewing.com",
    "phone": "9284405085",
    "created_at": "2018-07-24 01:32:50.198202",
    "updated_at": "2018-08-11 21:35:50.765848",
    "country": "United States",
    "longitude": "",
    "latitude": "",
    "tags": []
  },
  {
    "id": "wanderlust-brewing-company",
    "name": "Wanderlust Brewing Company",
    "brewery_type": "micro",
    "street": "1519 N Main St Ste 102",
    "city": "Flagstaff",
    "state": "Arizona",
    "postal_code": "86004-4970",
    "website_url": "http://www.wanderlustbrewing.com",
    "phone": "9283517952",
    "created_at": "2018-07-24 01:32:50.263743",
    "updated_at": "2018-08-11 21:35:50.936733",
    "country": "United States",
    "longitude": "",
    "latitude": "",
    "tags": []
  }
]