[
  {
    "id": "12-west-brewing-company",
    "name": "12 West Brewing Company",
    "brewery_type": "micro",
    "street": "3000 E Ray Rd Bldg 6",
    "city": "Gilbert",
    "state": "Arizona",
    "postal_code": "85296-7832",
    "website_url": "http://www.12westbrewing.com",
    "phone": "6023395014",
    "created_at": "2018-07-24 01:32:48.548804",
    "updated_at": "2018-08-11 21:35:46.300707",
    "country": "United States",
    "longitude": "",
    "latitude": "",
    "tags": []
  },
  {
    "id": "arizona-wilderness-brewing",
    "name": "Arizona Wilderness Brewing",
    "brewery_type": "brewpub",
    "street": "721 N Arizona Ave",
    "city": "Gilbert",
    "state": "Arizona",
    "postal_code": "85233-3405",
    "website_url": "http://Azwbeer.com",
    "phone": "4804972739",
    "created_at": "2018-07-24 01:32:48.623605",
    "updated_at": "2018-08-11 21:35:46.458233",
    "country": "United States",
    "longitude": "",
    "latitude": "",
    "tags": []
  },
  {
    "id": "desert-monks-brewing-co",
    "name": "Desert Monks Brewing Co.",
    "brewery_type": "planning",
    "street": "",
    "city": "Gilbert",
    "state": "Arizona",
    "postal_code": "85296-3480",
    "website_url": "https://www.desertmonksbrewing.com/",
    "phone": "4805257444",
    "created_at": "2018-07-24 01:32:49.010376",
    "updated_at": "2018-08-23 23:21:38.615751",
    "country": "United States",
    "longitude": "-111.7890239",
    "latitude": "33.3528259",
    "tags": []
  },
  {
    "id": "flying-basset-brewing",
    "name": "Flying Basset Brewing",
    "brewery_type": "brewpub",
    "street": "720 W Ray Rd",
    "city": "Gilbert",
    "state": "Arizona",
    "postal_code": "85233",
    "website_url": "http://www.flyingbassetbrewing.com",
    "phone": "4804261373",
    "created_at": "2018-07-24 01:32:49.126025",
    "updated_at": "2018-08-23 23:21:44.805728",
    "country": "United States",
    "longitude": "-111.805438886076",
    "latitude": "33.3209814810127",
    "tags": []
  },
  {
    "id": "ohso-brewery-gilbert",
    "name": "O.H.S.O. Brewery - Gilbert",
    "brewery_type": "brewpub",
    "street": "335 N Gilbert Rd",
    "city": "Gilbert",
    "state": "Arizona",
    "postal_code": "85234-5766",
    "website_url": "",
    "phone": "6029009004",
    "created_at": "2018-07-24 01:32:49.588348",
    "updated_at": "2018-08-23 23:22:15.286071",
    "country": "United States",
    "longitude": "-111.7896117",
    "latitude": "33.3508552",
    "tags": []
  }
]