[
  {
    "id": "12-west-brewing-company-production-facility",
    "name": "12 West Brewing Company - Production Facility",
    "brewery_type": "micro",
    "street": "",
    "city": "Mesa",
    "state": "Arizona",
    "postal_code": "85207",
    "website_url": "",
    "phone": "",
    "created_at": "2018-07-24 01:32:48.563818",
    "updated_at": "2018-08-23 23:21:09.992617",
    "country": "United States",
    "longitude": "-111.586066176293",
    "latitude": "33.436188",
    "tags": []
  },
  {
    "id": "beer-research-institute-the",
    "name": "Beer Research Institute, The",
    "brewery_type": "brewpub",
    "street": "1641 S Stateley Dr Ste 104",
    "city": "Mesa",
    "state": "Arizona",
    "postal_code": "85204",
    "website_url": "http://www.bri.beer",
    "phone": "4808922020",
    "created_at": "2018-07-24 01:32:48.70178",
    "updated_at": "2018-08-11 21:35:46.659023",
    "country": "United States",
    "longitude": "",
    "latitude": "",
    "tags": []
  },
  {
    "id": "desert-eagle-brewing-company",
    "name": "Desert Eagle Brewing Company",
    "brewery_type": "micro",
    "street": "150 W Main St",
    "city": "Mesa",
    "state": "Arizona",
    "postal_code": "85201-7310",
    "website_url": "http://www.deserteaglebrewing.com",
    "phone": "4806562662",
    "created_at": "2018-07-24 01:32:48.994343",
    "updated_at": "2018-08-23 23:21:38.208423",
    "country": "United States",
    "longitude": "-111.8568311",
    "latitude": "33.4148261",
    "tags": []
  },
  {
    "id": "oro-brewing-company",
    "name": "Oro Brewing Company",
    "brewery_type": "micro",
    "street": "210 W Main St",
    "city": "Mesa",
    "state": "Arizona",
    "postal_code": "85201-7312",
    "website_url": "http://www.orobrewing.com",
    "phone": "4803988247",
    "created_at": "2018-07-24 01:32:49.666755",
    "updated_at": "2018-08-23 23:22:20.588885",
    "country": "United States",
    "longitude": "-111.837050306223",
    "latitude": "33.4151998242077",
    "tags": []
  },
  {
    "id": "lochiel-brewing",
    "name": "Lochiel Brewing",
    "brewery_type": "micro",
    "street": "7143 E Southern Ave Ste 131",
    "city": "Mesa",
    "state": "Arizona",
    "postal_code": "85209-2657",
    "website_url": "http://lochielbrewing.com",
    "phone": "4806660915",
    "created_at": "2018-07-24 01:32:49.416701",
    "updated_at": "2018-08-11 21:35:48.387888",
    "country": "United States",
    "longitude": "",
    "latitude": "",
    "tags": []
  }
]