[
  {
    "id": "wren-house-brewing-company",
    "name": "Wren House Brewing Company",
    "brewery_type": "micro",
    "street": "2125 N 24th St",
    "city": "Phoenix",
    "state": "Arizona",
    "postal_code": "85008-2713",
    "website_url": "http://www.wrenhousebrewing.com",
    "phone": "6022449184",
    "created_at": "2018-07-24 01:32:50.299074",
    "updated_at": "2018-08-23 23:22:59.255061",
    "country": "United States",
    "longitude": "-112.0301125",
    "latitude": "33.516633",
    "tags": []
  },
  {
    "id": "deep-roots-brewing",
    "name": "Deep Roots Brewing",
    "brewery_type": "planning",
    "street": "",
    "city": "Phoenix",
    "state": "Arizona",
    "postal_code": "85007-3115",
    "website_url": "http://www.deeprootsbrewing.com",
    "phone": "6023306790",
    "created_at": "2018-07-24 01:32:48.978892",
    "updated_at": "2018-08-23 23:21:36.726729",
    "country": "United States",
    "longitude": "-112.0773456",
    "latitude": "33.4485866",
    "tags": []
  },
  {
    "id": "greenwood-brewing-llc",
    "name": "Greenwood Brewing LLC",
    "brewery_type": "contract",
    "street": "600 N 4th St Apt 210",
    "city": "Phoenix",
    "state": "Arizona",
    "postal_code": "85004-4489",
    "website_url": "http://www.greenwoodbrews.com",
    "phone": "4802089500",
    "created_at": "2018-07-24 01:32:49.290003",
    "updated_at": "2018-08-11 21:35:48.095353",
    "country": "United States",
    "longitude": "",
    "latitude": "",
    "tags": []
  },
  {
    "id": "ohso-brewery",
    "name": "O.H.S.O. Brewery",
    "brewery_type": "brewpub",
    "street": "10810 N Tatum Blvd Ste 126",
    "city": "Phoenix",
    "state": "Arizona",
    "postal_code": "85028-6057",
    "website_url": "http://www.ohsobrewery.com",
    "phone": "6029009003",
    "created_at": "2018-07-24 01:32:49.571431",
    "updated_at": "2018-08-11 21:35:48.834668",
    "country": "United States",
    "longitude": "",
    "latitude": "",
    "tags": []
  },
  {
    "id": "helio-basin-brewing-company",
    "name": "Helio Basin Brewing Company",
    "brewery_type": "brewpub",
    "street": "3935 E Thomas Rd",
    "city": "Phoenix",
    "state": "Arizona",
    "postal_code": "85018-7511",
    "website_url": "http://www.heliobasinbrewing.com",
    "phone": "6023543525",
    "created_at": "2018-07-24 01:32:49.303106",
    "updated_at": "2018-08-23 23:21:56.677594",
    "country": "United States",
    "longitude": "-112.0028173",
    "latitude": "33.4804619",
    "tags": []
  },
  {
    "id": "helton-brewing-company",
    "name": "Helton Brewing Company",
    "brewery_type": "brewpub",
    "street": "2144 E Indian School Rd",
    "city": "Phoenix",
    "state": "Arizona",
    "postal_code": "85016-6130",
    "website_url": "",
    "phone": "",
    "created_at": "2018-07-24 01:32:49.316623",
    "updated_at": "2018-08-23 23:21:57.74034",
    "country": "United States",
    "longitude": "-111.9805956",
    "latitude": "33.4946865",
    "tags": []
  },
  {
    "id": "mother-bunch-brewing-inc",
    "name": "Mother Bunch Brewing, Inc.",
    "brewery_type": "micro",
    "street": "825 N 7th St",
    "city": "Phoenix",
    "state": "Arizona",
    "postal_code": "85006-3793",
    "website_url": "http://www.motherbunchbrew.com",
    "phone": "6023683580",
    "created_at": "2018-07-24 01:32:49.507958",
    "updated_at": "2018-08-23 23:22:09.888861",
    "country": "United States",
    "longitude": "-112.0649987",
    "latitude": "33.4572674",
    "tags": []
  },
  {
    "id": "north-mountain-brewing-co",
    "name": "North Mountain Brewing Co",
    "brewery_type": "brewpub",
    "street": "522 E Dunlap Ave",
    "city": "Phoenix",
    "state": "Arizona",
    "postal_code": "85020-2916",
    "website_url": "http://www.northmountainbrewing.com",
    "phone": "6028615999",
    "created_at": "2018-07-24 01:32:49.559279",
    "updated_at": "2018-08-23 23:22:13.416951",
    "country": "United States",
    "longitude": "-112.066091857742",
    "latitude": "33.5678786503786",
    "tags": []
  },
  {
    "id": "ohso-eatery-nanobrewery",
    "name": "O.H.S.O. Eatery + NanoBrewery",
    "brewery_type": "brewpub",
    "street": "4900 E Indian School Rd",
    "city": "Phoenix",
    "state": "Arizona",
    "postal_code": "85018-5554",
    "website_url": "http://www.ohsobrewery.com",
    "phone": "6029550358",
    "created_at": "2018-07-24 01:32:49.601519",
    "updated_at": "2018-08-23 23:22:16.170122",
    "country": "United States",
    "longitude": "-111.975830991319",
    "latitude": "33.49501715",
    "tags": []
  },
  {
    "id": "uncle-bears-brewery",
    "name": "Uncle Bear's Brewery",
    "brewery_type": "brewpub",
    "street": "4921 E Ray Rd Ste 103",
    "city": "Phoenix",
    "state": "Arizona",
    "postal_code": "85044-6495",
    "website_url": "http://www.unclebearsaz.com",
    "phone": "4802770765",
    "created_at": "2018-07-24 01:32:50.224658",
    "updated_at": "2018-08-11 21:35:50.84589",
    "country": "United States",
    "longitude": "",
    "latitude": "",
    "tags": []
  },
  {
    "id": "santan-brewing-co",
    "name": "SanTan Brewing Co",
    "brewery_type": "planning",
    "street": "",
    "city": "Phoenix",
    "state": "Arizona",
    "postal_code": "85014-2435",
    "website_url": "",
    "phone": "",
    "created_at": "2018-07-24 01:32:49.873684",
    "updated_at": "2018-08-23 23:22:33.922513",
    "country": "United States",
    "longitude": "-112.0773456",
    "latitude": "33.4485866",
    "tags": []
  },
  {
    "id": "science",
    "name": "Science",
    "brewery_type": "planning",
    "street": "",
    "city": "Phoenix",
    "state": "Arizona",
    "postal_code": "85020-5620",
    "website_url": "",
    "phone": "",
    "created_at": "2018-07-24 01:32:49.897688",
    "updated_at": "2018-08-23 23:22:35.383858",
    "country": "United States",
    "longitude": "-112.0773456",
    "latitude": "33.4485866",
    "tags": []
  },
  {
    "id": "sonoran-brewing",
    "name": "Sonoran Brewing",
    "brewery_type": "contract",
    "street": "3002 E Washington St",
    "city": "Phoenix",
    "state": "Arizona",
    "postal_code": "85034-1518",
    "website_url": "http://www.sonoranbrewing.com",
    "phone": "6025108996",
    "created_at": "2018-07-24 01:32:49.957249",
    "updated_at": "2018-08-23 23:22:39.673067",
    "country": "United States",
    "longitude": "-111.9805737",
    "latitude": "33.4475332",
    "tags": []
  },
  {
    "id": "state-48-brewery",
    "name": "State 48 Brewery",
    "brewery_type": "planning",
    "street": "",
    "city": "Phoenix",
    "state": "Arizona",
    "postal_code": "85003-1626",
    "website_url": "",
    "phone": "",
    "created_at": "2018-07-24 01:32:49.981734",
    "updated_at": "2018-08-23 23:22:40.558081",
    "country": "United States",
    "longitude": "-112.0773456",
    "latitude": "33.4485866",
    "tags": []
  },
  {
    "id": "sun-up-brewing-co",
    "name": "Sun Up Brewing Co.",
    "brewery_type": "brewpub",
    "street": "322 E Camelback Rd",
    "city": "Phoenix",
    "state": "Arizona",
    "postal_code": "85012-1614",
    "website_url": "http://sunup.beer",
    "phone": "6026708924",
    "created_at": "2018-07-24 01:32:50.036585",
    "updated_at": "2018-08-23 23:22:42.395824",
    "country": "United States",
    "longitude": "-112.068777346556",
    "latitude": "33.50950925",
    "tags": []
  },
  {
    "id": "sun-up-brewing-company-330",
    "name": "Sun Up Brewing Company 330",
    "brewery_type": "planning",
    "street": "",
    "city": "Phoenix",
    "state": "Arizona",
    "postal_code": "85012",
    "website_url": "",
    "phone": "",
    "created_at": "2018-07-24 01:32:50.050018",
    "updated_at": "2018-08-23 23:22:42.843965",
    "country": "United States",
    "longitude": "-112.0773456",
    "latitude": "33.4485866",
    "tags": []
  },
  {
    "id": "the-phoenix-ale-brewery",
    "name": "The Phoenix Ale Brewery",
    "brewery_type": "micro",
    "street": "3002 E Washington St # 3002",
    "city": "Phoenix",
    "state": "Arizona",
    "postal_code": "85034-1518",
    "website_url": "http://phoenixale.com",
    "phone": "6022755049",
    "created_at": "2018-07-24 01:32:50.134623",
    "updated_at": "2018-08-23 23:22:48.626636",
    "country": "United States",
    "longitude": "-111.9642922",
    "latitude": "33.4457883",
    "tags": []
  },
  {
    "id": "walter-station-brewery",
    "name": "Walter Station Brewery",
    "brewery_type": "planning",
    "street": "",
    "city": "Phoenix",
    "state": "Arizona",
    "postal_code": "85034-1820",
    "website_url": "http://www.walterstation.beer",
    "phone": "2674216316",
    "created_at": "2018-07-24 01:32:50.250644",
    "updated_at": "2018-08-23 23:22:56.28019",
    "country": "United States",
    "longitude": "-112.0773456",
    "latitude": "33.4485866",
    "tags": []
  }
]