[
  {
    "id": "coppertop-alehouse-and-still-works",
    "name": "Coppertop Alehouse and Still Works",
    "brewery_type": "brewpub",
    "street": "220 S Montezuma St",
    "city": "Prescott",
    "state": "Arizona",
    "postal_code": "86303-4720",
    "website_url": "http://www.coppertopalehouse.com",
    "phone": "9283517712",
    "created_at": "2018-07-24 01:32:48.902192",
    "updated_at": "2018-08-23 23:21:32.310294",
    "country": "United States",
    "longitude": "-112.470303973229",
    "latitude": "34.5385194418589",
    "tags": []
  },
  {
    "id": "prescott-brewing-co",
    "name": "Prescott Brewing Co",
    "brewery_type": "brewpub",
    "street": "130 W Gurley St Ste A",
    "city": "Prescott",
    "state": "Arizona",
    "postal_code": "86301-3603",
    "website_url": "http://www.prescottbrewingcompany.com",
    "phone": "9287712795",
    "created_at": "2018-07-24 01:32:49.732371",
    "updated_at": "2018-08-11 21:35:49.220388",
    "country": "United States",
    "longitude": "",
    "latitude": "",
    "tags": []
  },
  {
    "id": "granite-mountain-brewing",
    "name": "Granite Mountain Brewing",
    "brewery_type": "micro",
    "street": "123 N Cortez St",
    "city": "Prescott",
    "state": "Arizona",
    "postal_code": "86302-1109",
    "website_url": "http://www.granitemountainbrewing.com",
    "phone": "9287785535",
    "created_at": "2018-07-24 01:32:49.264319",
    "updated_at": "2018-08-23 23:21:54.265233",
    "country": "United States",
    "longitude": "-112.468601799769",
    "latitude": "34.54238481217",
    "tags": []
  },
  {
    "id": "lazyg-brewhouse",
    "name": "LazyG Brewhouse",
    "brewery_type": "planning",
    "street": "",
    "city": "Prescott",
    "state": "Arizona",
    "postal_code": "86303-4270",
    "website_url": "",
    "phone": "4806951218",
    "created_at": "2018-07-24 01:32:49.402637",
    "updated_at": "2018-08-23 23:22:02.614143",
    "country": "United States",
    "longitude": "-112.469518",
    "latitude": "34.5402813",
    "tags": []
  },
  {
    "id": "prescott-brewing-co-production-facility",
    "name": "Prescott Brewing Co - Production Facility",
    "brewery_type": "micro",
    "street": "6396 Lear Ln",
    "city": "Prescott",
    "state": "Arizona",
    "postal_code": "86301-9118",
    "website_url": "http://www.prescottbrewingcompany.com",
    "phone": "9287712795",
    "created_at": "2018-07-24 01:32:49.745424",
    "updated_at": "2018-08-23 23:22:26.083843",
    "country": "United States",
    "longitude": "-112.4132617",
    "latitude": "34.649529",
    "tags": []
  }
]