[
  {
    "id": "bad-water-brewing",
    "name": "Bad Water Brewing",
    "brewery_type": "contract",
    "street": "4216 N Brown Ave",
    "city": "Scottsdale",
    "state": "Arizona",
    "postal_code": "85251-3914",
    "website_url": "http://www.badwaterbrewing.com",
    "phone": "5207459175",
    "created_at": "2018-07-24 01:32:48.636841",
    "updated_at": "2018-08-23 23:21:15.169928",
    "country": "United States",
    "longitude": "-111.924474347826",
    "latitude": "33.4972615652174",
    "tags": []
  },
  {
    "id": "craft-64",
    "name": "CRAFT 64",
    "brewery_type": "contract",
    "street": "6922 E Main St",
    "city": "Scottsdale",
    "state": "Arizona",
    "postal_code": "85251-4312",
    "website_url": "http://www.craft64.com",
    "phone": "4809460542",
    "created_at": "2018-07-24 01:32:48.930876",
    "updated_at": "2018-08-23 23:21:34.232566",
    "country": "United States",
    "longitude": "-111.931927098678",
    "latitude": "33.4931529975966",
    "tags": []
  },
  {
    "id": "goldwater-brewing-co",
    "name": "Goldwater Brewing Co",
    "brewery_type": "micro",
    "street": "3608 N Scottsdale Rd",
    "city": "Scottsdale",
    "state": "Arizona",
    "postal_code": "85251-5612",
    "website_url": "http://www.goldwaterbrewing.com",
    "phone": "4803507305",
    "created_at": "2018-07-24 01:32:49.185706",
    "updated_at": "2018-08-23 23:21:48.585992",
    "country": "United States",
    "longitude": "-111.9254955",
    "latitude": "33.658427",
    "tags": []
  },
  {
    "id": "mcfates-tap-barrel",
    "name": "McFate's Tap + Barrel",
    "brewery_type": "brewpub",
    "street": "7337 E Shea Blvd Ste 105",
    "city": "Scottsdale",
    "state": "Arizona",
    "postal_code": "85260-6465",
    "website_url": "http://www.fatebrewing.com",
    "phone": "4809941275",
    "created_at": "2018-07-24 01:32:49.483216",
    "updated_at": "2018-08-11 21:35:48.588273",
    "country": "United States",
    "longitude": "",
    "latitude": "",
    "tags": []
  },
  {
    "id": "mesquite-river-brewing",
    "name": "Mesquite River Brewing",
    "brewery_type": "micro",
    "street": "13610 N Scottsdale Rd, Suite 18",
    "city": "Scottsdale",
    "state": "Arizona",
    "postal_code": "85254-4037",
    "website_url": "http://www.mesquiteriverbrewing.com",
    "phone": "4806567696",
    "created_at": "2018-07-24 01:32:49.495847",
    "updated_at": "2018-08-11 21:35:48.654964",
    "country": "United States",
    "longitude": "",
    "latitude": "",
    "tags": []
  },
  {
    "id": "mcfate-brewing-company",
    "name": "McFate Brewing Company",
    "brewery_type": "brewpub",
    "street": "1312 N Scottsdale Rd",
    "city": "Scottsdale",
    "state": "Arizona",
    "postal_code": "85257-3488",
    "website_url": "http://mcfatebrewing.com",
    "phone": "4806569100",
    "created_at": "2018-07-24 01:32:49.471211",
    "updated_at": "2018-08-23 23:22:07.211088",
    "country": "United States",
    "longitude": "-111.9254955",
    "latitude": "33.658427",
    "tags": []
  },
  {
    "id": "state-48-barrel-and-lager-house",
    "name": "State 48 Barrel and Lager House",
    "brewery_type": "planning",
    "street": "",
    "city": "Scottsdale",
    "state": "Arizona",
    "postal_code": "85260-1924",
    "website_url": "",
    "phone": "",
    "created_at": "2018-07-24 01:32:49.969978",
    "updated_at": "2018-08-23 23:22:40.070572",
    "country": "United States",
    "longitude": "-111.8992365",
    "latitude": "33.5091215",
    "tags": []
  },
  {
    "id": "two-brothers-scottsdale-tap-house-and-brewery",
    "name": "Two Brothers Scottsdale Tap House and Brewery",
    "brewery_type": "brewpub",
    "street": "4321 N Scottsdale Rd",
    "city": "Scottsdale",
    "state": "Arizona",
    "postal_code": "85251-3329",
    "website_url": "",
    "phone": "4803783001",
    "created_at": "2018-07-24 01:32:50.211947",
    "updated_at": "2018-08-23 23:22:53.949153",
    "country": "United States",
    "longitude": "-111.9254955",
    "latitude": "33.658427",
    "tags": []
  },
  {
    "id": "whirling-skirmish-brewing-company",
    "name": "Whirling Skirmish Brewing Company",
    "brewery_type": "planning",
    "street": "",
    "city": "Scottsdale",
    "state": "Arizona",
    "postal_code": "85254-2513",
    "website_url": "",
    "phone": "6023592489",
    "created_at": "2018-07-24 01:32:50.275495",
    "updated_at": "2018-08-23 23:22:57.769471",
    "country": "United States",
    "longitude": "-111.8992365",
    "latitude": "33.5091215",
    "tags": []
  },
  {
    "id": "loco-patron-mexican-brewery",
    "name": "Loco Patron Mexican Brewery",
    "brewery_type": "brewpub",
    "street": "14950 N Northsight Blvd",
    "city": "Scottsdale",
    "state": "Arizona",
    "postal_code": "85260",
    "website_url": "http://www.locopatron.com",
    "phone": "4806997271",
    "created_at": "2018-07-24 01:32:49.429641",
    "updated_at": "2018-08-23 23:22:04.378606",
    "country": "United States",
    "longitude": "-111.897770741602",
    "latitude": "33.6216475",
    "tags": []
  },
  {
    "id": "scottsdale-beer-company",
    "name": "Scottsdale Beer Company",
    "brewery_type": "brewpub",
    "street": "8608 E Shea Blvd",
    "city": "Scottsdale",
    "state": "Arizona",
    "postal_code": "85260-6614",
    "website_url": "http://www.scottsdalebeercompany.com",
    "phone": "4802191844",
    "created_at": "2018-07-24 01:32:49.910076",
    "updated_at": "2018-08-23 23:22:36.290158",
    "country": "United States",
    "longitude": "-111.8951852",
    "latitude": "33.5828595",
    "tags": []
  }
]