[
  {
    "id": "blasted-barley-beer-company",
    "name": "Blasted Barley Beer Company",
    "brewery_type": "brewpub",
    "street": "404 S Mill Ave Ste 101",
    "city": "Tempe",
    "state": "Arizona",
    "postal_code": "85281-2879",
    "website_url": "http://www.blastedbarley.com",
    "phone": "4809675887",
    "created_at": "2018-07-24 01:32:48.774585",
    "updated_at": "2018-08-11 21:35:46.813094",
    "country": "United States",
    "longitude": "",
    "latitude": "",
    "tags": []
  },
  {
    "id": "four-peaks-brewing-co",
    "name": "Four Peaks Brewing Co",
    "brewery_type": "large",
    "street": "1340 E 8th St Ste 104",
    "city": "Tempe",
    "state": "Arizona",
    "postal_code": "85281-4396",
    "website_url": "http://www.fourpeaks.com",
    "phone": "4803039967",
    "created_at": "2018-07-24 01:32:49.15854",
    "updated_at": "2018-08-11 21:35:47.685307",
    "country": "United States",
    "longitude": "",
    "latitude": "",
    "tags": []
  },
  {
    "id": "gordon-biersch-brewery-restaurant-tempe",
    "name": "Gordon Biersch Brewery Restaurant - Tempe",
    "brewery_type": "brewpub",
    "street": "420 S Mill Ave Ste 201",
    "city": "Tempe",
    "state": "Arizona",
    "postal_code": "85281-2870",
    "website_url": "http://www.craftworksrestaurants.com",
    "phone": "4807360033",
    "created_at": "2018-07-24 01:32:49.226225",
    "updated_at": "2018-08-11 21:35:47.880541",
    "country": "United States",
    "longitude": "",
    "latitude": "",
    "tags": []
  },
  {
    "id": "four-peaks-brewery-and-taproom",
    "name": "Four Peaks Brewery & Taproom",
    "brewery_type": "large",
    "street": "2401 S Wilson St",
    "city": "Tempe",
    "state": "Arizona",
    "postal_code": "85282-2054",
    "website_url": "http://www.fourpeaks.com",
    "phone": "4803039967",
    "created_at": "2018-07-24 01:32:49.143699",
    "updated_at": "2018-08-23 23:21:45.718381",
    "country": "United States",
    "longitude": "-111.944654908083",
    "latitude": "33.402871377966",
    "tags": []
  },
  {
    "id": "huss-brewing",
    "name": "Huss Brewing",
    "brewery_type": "micro",
    "street": "1520 W Mineral Rd Ste 102",
    "city": "Tempe",
    "state": "Arizona",
    "postal_code": "85283-4343",
    "website_url": "",
    "phone": "4802647611",
    "created_at": "2018-07-24 01:32:49.356329",
    "updated_at": "2018-08-11 21:35:48.239314",
    "country": "United States",
    "longitude": "",
    "latitude": "",
    "tags": []
  },
  {
    "id": "sleepy-dog-brewing-co",
    "name": "Sleepy Dog Brewing Co",
    "brewery_type": "micro",
    "street": "1920 E University Dr",
    "city": "Tempe",
    "state": "Arizona",
    "postal_code": "85281-4608",
    "website_url": "",
    "phone": "4809675476",
    "created_at": "2018-07-24 01:32:49.945737",
    "updated_at": "2018-08-23 23:22:38.578077",
    "country": "United States",
    "longitude": "-111.9041833",
    "latitude": "33.422606",
    "tags": []
  },
  {
    "id": "the-shop-beer-co",
    "name": "The Shop Beer Co.",
    "brewery_type": "micro",
    "street": "922 W 1st St",
    "city": "Tempe",
    "state": "Arizona",
    "postal_code": "85281-2674",
    "website_url": "http://www.theshop.beer",
    "phone": "6027174237",
    "created_at": "2018-07-24 01:32:50.159247",
    "updated_at": "2018-08-23 23:22:49.986613",
    "country": "United States",
    "longitude": "-111.951429159213",
    "latitude": "33.4291738366844",
    "tags": []
  },
  {
    "id": "elevate-your-passion-brewing",
    "name": "Elevate Your Passion Brewing",
    "brewery_type": "micro",
    "street": "2209 W 1st St # A107",
    "city": "Tempe",
    "state": "Arizona",
    "postal_code": "85281-7245",
    "website_url": "http://www.elevateyourpassion.com",
    "phone": "8883972337",
    "created_at": "2018-07-24 01:32:49.098912",
    "updated_at": "2018-08-11 21:35:47.505241",
    "country": "United States",
    "longitude": "",
    "latitude": "",
    "tags": []
  },
  {
    "id": "pedal-haus-brewery",
    "name": "Pedal Haus Brewery",
    "brewery_type": "brewpub",
    "street": "730 S Mill Ave. Suite 102",
    "city": "Tempe",
    "state": "Arizona",
    "postal_code": "85281-3618",
    "website_url": "http://www.pedalhausbrewery.com",
    "phone": "4803142337",
    "created_at": "2018-07-24 01:32:49.680137",
    "updated_at": "2018-08-11 21:35:49.091038",
    "country": "United States",
    "longitude": "",
    "latitude": "",
    "tags": []
  }
]