[
  {
    "id": "1912-brewing",
    "name": "1912 Brewing",
    "brewery_type": "micro",
    "street": "2045 N Forbes Blvd Ste 105",
    "city": "Tucson",
    "state": "Arizona",
    "postal_code": "85745-1444",
    "website_url": "http://www.1912brewing.com",
    "phone": "5202564851",
    "created_at": "2018-07-24 01:32:48.582575",
    "updated_at": "2018-08-23 23:21:11.302344",
    "country": "United States",
    "longitude": "-110.992750525872",
    "latitude": "32.2467372722906",
    "tags": []
  },
  {
    "id": "blackrock-brewers",
    "name": "BlackRock Brewers",
    "brewery_type": "micro",
    "street": "1664 S Research Loop Ste 200",
    "city": "Tucson",
    "state": "Arizona",
    "postal_code": "85710-6767",
    "website_url": "http://www.brb.beer",
    "phone": "5202073203",
    "created_at": "2018-07-24 01:32:48.758599",
    "updated_at": "2018-08-23 23:21:23.79407",
    "country": "United States",
    "longitude": "-110.821778571134",
    "latitude": "32.201608314954",
    "tags": []
  },
  {
    "id": "dragoon-brewing-co",
    "name": "Dragoon Brewing Co",
    "brewery_type": "micro",
    "street": "1859 W Grant Rd Ste 111",
    "city": "Tucson",
    "state": "Arizona",
    "postal_code": "85745-1214",
    "website_url": "http://www.dragoonbrewing.com",
    "phone": "5203293606",
    "created_at": "2018-07-24 01:32:49.040906",
    "updated_at": "2018-08-23 23:21:40.563803",
    "country": "United States",
    "longitude": "-111.005452051979",
    "latitude": "32.2504946147872",
    "tags": []
  },
  {
    "id": "button-brew-house-llc",
    "name": "Button Brew House, LLC",
    "brewery_type": "micro",
    "street": "6800 N Camino Martin Ste 160",
    "city": "Tucson",
    "state": "Arizona",
    "postal_code": "85741-2395",
    "website_url": "http://www.button.beer",
    "phone": "5202688543",
    "created_at": "2018-07-24 01:32:48.824023",
    "updated_at": "2018-08-11 21:35:46.951005",
    "country": "United States",
    "longitude": "",
    "latitude": "",
    "tags": []
  },
  {
    "id": "catalina-brewing-company",
    "name": "Catalina Brewing Company",
    "brewery_type": "micro",
    "street": "6918 N Camino Martin",
    "city": "Tucson",
    "state": "Arizona",
    "postal_code": "85741-2281",
    "website_url": "http://www.catalinabrewingco.com/",
    "phone": "5203293622",
    "created_at": "2018-07-24 01:32:48.835767",
    "updated_at": "2018-08-11 21:35:46.985988",
    "country": "United States",
    "longitude": "",
    "latitude": "",
    "tags": []
  },
  {
    "id": "copper-mine-brewing-co",
    "name": "Copper Mine Brewing Co",
    "brewery_type": "micro",
    "street": "3455 S Palo Verde Rd STE 135",
    "city": "Tucson",
    "state": "Arizona",
    "postal_code": "85713",
    "website_url": "http://www.copperminebrewing.com",
    "phone": "5203336140",
    "created_at": "2018-07-24 01:32:48.886109",
    "updated_at": "2018-08-11 21:35:47.093909",
    "country": "United States",
    "longitude": "",
    "latitude": "",
    "tags": []
  },
  {
    "id": "barrio-brewing-co",
    "name": "Barrio Brewing Co",
    "brewery_type": "micro",
    "street": "800 E 16th St",
    "city": "Tucson",
    "state": "Arizona",
    "postal_code": "85719-6603",
    "website_url": "http://www.barriobrewing.co",
    "phone": "5207912739",
    "created_at": "2018-07-24 01:32:48.676593",
    "updated_at": "2018-08-23 23:21:18.433468",
    "country": "United States",
    "longitude": "-110.959665",
    "latitude": "32.214613",
    "tags": []
  },
  {
    "id": "corbett-brewing-company",
    "name": "Corbett Brewing Company",
    "brewery_type": "micro",
    "street": "309 E 7th St",
    "city": "Tucson",
    "state": "Arizona",
    "postal_code": "85705",
    "website_url": "",
    "phone": "",
    "created_at": "2018-07-24 01:32:48.916081",
    "updated_at": "2018-08-23 23:21:33.286166",
    "country": "United States",
    "longitude": "-110.966790000908",
    "latitude": "32.2263408526684",
    "tags": []
  },
  {
    "id": "crooked-tooth-brewing-co",
    "name": "Crooked Tooth Brewing Co.",
    "brewery_type": "micro",
    "street": "228 E 6th St",
    "city": "Tucson",
    "state": "Arizona",
    "postal_code": "85705-8424",
    "website_url": "http://www.crookedtoothbrewing.com",
    "phone": "5204445305",
    "created_at": "2018-07-24 01:32:48.948689",
    "updated_at": "2018-08-23 23:21:35.280238",
    "country": "United States",
    "longitude": "-110.967733199346",
    "latitude": "32.2276230220053",
    "tags": []
  },
  {
    "id": "dillinger-brewing-company",
    "name": "Dillinger Brewing Company",
    "brewery_type": "micro",
    "street": "3895 N Oracle Rd",
    "city": "Tucson",
    "state": "Arizona",
    "postal_code": "85705-3228",
    "website_url": "http://www.dillingerbrewing.com",
    "phone": "5202072312",
    "created_at": "2018-07-24 01:32:49.024405",
    "updated_at": "2018-08-23 23:21:39.622737",
    "country": "United States",
    "longitude": "-110.9785303",
    "latitude": "32.2997436",
    "tags": []
  },
  {
    "id": "iron-johns-brewing-company",
    "name": "Iron John's Brewing Company",
    "brewery_type": "micro",
    "street": "245 S Plumer Ave Ste 27",
    "city": "Tucson",
    "state": "Arizona",
    "postal_code": "85719-6348",
    "website_url": "http://www.ironjohnsbrewing.com",
    "phone": "5202373448",
    "created_at": "2018-07-24 01:32:49.388743",
    "updated_at": "2018-08-11 21:35:48.307539",
    "country": "United States",
    "longitude": "",
    "latitude": "",
    "tags": []
  },
  {
    "id": "green-feet-brewing",
    "name": "Green Feet Brewing",
    "brewery_type": "micro",
    "street": "3669 E 44th St",
    "city": "Tucson",
    "state": "Arizona",
    "postal_code": "85713-6814",
    "website_url": "http://www.greenfeetbrewing.com",
    "phone": "5209771691",
    "created_at": "2018-07-24 01:32:49.277041",
    "updated_at": "2018-08-23 23:21:55.134699",
    "country": "United States",
    "longitude": "-110.9232648",
    "latitude": "32.1843632",
    "tags": []
  },
  {
    "id": "public-brewhouse",
    "name": "Public Brewhouse",
    "brewery_type": "micro",
    "street": "209 N Hoff Ave",
    "city": "Tucson",
    "state": "Arizona",
    "postal_code": "85705-8537",
    "website_url": "http://www.publicbrewhouse.com",
    "phone": "5207752337",
    "created_at": "2018-07-24 01:32:49.771224",
    "updated_at": "2018-08-23 23:22:27.759534",
    "country": "United States",
    "longitude": "-110.964884816327",
    "latitude": "32.2240171836735",
    "tags": []
  },
  {
    "id": "pueblo-vida-brewing-co",
    "name": "Pueblo Vida Brewing Co",
    "brewery_type": "micro",
    "street": "115 E Broadway Blvd",
    "city": "Tucson",
    "state": "Arizona",
    "postal_code": "85701-2011",
    "website_url": "http://www.pueblovidabrewing.com",
    "phone": "5206237168",
    "created_at": "2018-07-24 01:32:49.78385",
    "updated_at": "2018-08-23 23:22:28.358753",
    "country": "United States",
    "longitude": "-110.9451764",
    "latitude": "32.2214274",
    "tags": []
  },
  {
    "id": "ten-fifty-five-brewing",
    "name": "Ten Fifty Five Brewing",
    "brewery_type": "micro",
    "street": "3810 E 44th St Ste 315",
    "city": "Tucson",
    "state": "Arizona",
    "postal_code": "85713-5474",
    "website_url": "http://www.1055brewing.com",
    "phone": "5204618073",
    "created_at": "2018-07-24 01:32:50.062118",
    "updated_at": "2018-08-11 21:35:50.475311",
    "country": "United States",
    "longitude": "",
    "latitude": "",
    "tags": []
  },
  {
    "id": "thunder-canyon-brewery",
    "name": "Thunder Canyon Brewery",
    "brewery_type": "brewpub",
    "street": "220 E Broadway Blvd Ste 2",
    "city": "Tucson",
    "state": "Arizona",
    "postal_code": "85701-2043",
    "website_url": "http://www.thundercanyonbrewery.com",
    "phone": "5203963480",
    "created_at": "2018-07-24 01:32:50.171951",
    "updated_at": "2018-08-11 21:35:50.705703",
    "country": "United States",
    "longitude": "",
    "latitude": "",
    "tags": []
  },
  {
    "id": "sentinel-peak-brewing-company",
    "name": "Sentinel Peak Brewing Company",
    "brewery_type": "brewpub",
    "street": "4746 E Grant Rd",
    "city": "Tucson",
    "state": "Arizona",
    "postal_code": "85712-2703",
    "website_url": "http://www.sentinelpeakbrewing.com",
    "phone": "5207779456",
    "created_at": "2018-07-24 01:32:49.933629",
    "updated_at": "2018-08-23 23:22:37.702984",
    "country": "United States",
    "longitude": "-110.8552229",
    "latitude": "32.2505857",
    "tags": []
  },
  {
    "id": "borderlands-brewing-co",
    "name": "Borderlands Brewing Co",
    "brewery_type": "micro",
    "street": "119 E Toole Ave",
    "city": "Tucson",
    "state": "Arizona",
    "postal_code": "85701-1210",
    "website_url": "http://www.borderlandsbrewing.com",
    "phone": "5202618773",
    "created_at": "2018-07-24 01:32:48.786344",
    "updated_at": "2018-08-23 23:21:25.596885",
    "country": "United States",
    "longitude": "-110.967630483658",
    "latitude": "32.2233468061147",
    "tags": []
  },
  {
    "id": "the-address-brewing-/-1702-beer-and-pizza",
    "name": "The Address Brewing / 1702 Beer & Pizza",
    "brewery_type": "micro",
    "street": "1702 E Speedway Blvd",
    "city": "Tucson",
    "state": "Arizona",
    "postal_code": "85719-4515",
    "website_url": "http://www.1702az.com",
    "phone": "5203251702",
    "created_at": "2018-07-24 01:32:50.108818",
    "updated_at": "2018-08-23 23:22:46.623189",
    "country": "United States",
    "longitude": "-110.946585309028",
    "latitude": "32.23567665",
    "tags": []
  }
]