[
  {
    "id": "southern-brewing-company",
    "name": "Southern Brewing Company",
    "brewery_type": "micro",
    "street": "231 Collins Industrial Blvd",
    "city": "Athens",
    "state": "Georgia",
    "postal_code": "30601-1517",
    "website_url": "http://www.sobrewco.com",
    "phone": "7065487183",
    "created_at": "2018-07-24 01:33:16.426119",
    "updated_at": "2018-08-24 00:29:29.429091",
    "country": "United States",
    "longitude": "-83.3500228701351",
    "latitude": "33.9811401213053",
    "tags": []
  },
  {
    "id": "akademia-brewing-company",
    "name": "Akademia Brewing Company",
    "brewery_type": "brewpub",
    "street": "150 Crane Dr",
    "city": "Athens",
    "state": "Georgia",
    "postal_code": "30606-0600",
    "website_url": "http://www.AkademiaBC.com",
    "phone": "7064613208",
    "created_at": "2018-07-24 01:33:15.384296",
    "updated_at": "2018-08-24 00:28:57.600712",
    "country": "United States",
    "longitude": "-83.4715375370739",
    "latitude": "33.9427028863025",
    "tags": []
  },
  {
    "id": "creature-comforts-production-facility-at-southern-mill",
    "name": "Creature Comforts Production Facility At Southern Mill",
    "brewery_type": "regional",
    "street": "355 Oneta St Bldg A100",
    "city": "Athens",
    "state": "Georgia",
    "postal_code": "30601",
    "website_url": "",
    "phone": "",
    "created_at": "2018-07-24 01:33:15.606098",
    "updated_at": "2018-08-11 21:37:01.484882",
    "country": "United States",
    "longitude": "",
    "latitude": "",
    "tags": []
  },
  {
    "id": "creature-comforts-brewing-co",
    "name": "Creature Comforts Brewing Co.",
    "brewery_type": "regional",
    "street": "271 W Hancock Ave",
    "city": "Athens",
    "state": "Georgia",
    "postal_code": "30601-2727",
    "website_url": "http://www.creaturecomfortsbeer.com",
    "phone": "7064101043",
    "created_at": "2018-07-24 01:33:15.593582",
    "updated_at": "2018-08-24 00:29:00.88581",
    "country": "United States",
    "longitude": "-83.380087",
    "latitude": "33.9591987142857",
    "tags": []
  },
  {
    "id": "terrapin-beer-co",
    "name": "Terrapin Beer Co",
    "brewery_type": "large",
    "street": "265 Newton Bridge Rd",
    "city": "Athens",
    "state": "Georgia",
    "postal_code": "30607-1145",
    "website_url": "http://www.terrapinbeer.com",
    "phone": "7065493377",
    "created_at": "2018-07-24 01:33:16.514806",
    "updated_at": "2018-08-24 00:29:33.470263",
    "country": "United States",
    "longitude": "-83.3977928447205",
    "latitude": "33.9885289006211",
    "tags": []
  }
]