[
  {
    "id": "max-lagers-wood-fired-grill-and-brewery",
    "name": "Max Lager's Wood Fired Grill & Brewery",
    "brewery_type": "brewpub",
    "street": "320 Peachtree St NE",
    "city": "Atlanta",
    "state": "Georgia",
    "postal_code": "30308-3210",
    "website_url": "http://www.maxlagers.com",
    "phone": "4045254400",
    "created_at": "2018-07-24 01:33:15.962456",
    "updated_at": "2018-08-24 00:29:12.766776",
    "country": "United States",
    "longitude": "-84.3870607355802",
    "latitude": "33.76333225",
    "tags": []
  },
  {
    "id": "sweetwater-brewing-co",
    "name": "SweetWater Brewing Co",
    "brewery_type": "regional",
    "street": "195 Ottley Dr NE",
    "city": "Atlanta",
    "state": "Georgia",
    "postal_code": "30324-3924",
    "website_url": "http://www.sweetwaterbrew.com",
    "phone": "4046912537",
    "created_at": "2018-07-24 01:33:16.488114",
    "updated_at": "2018-08-24 00:29:32.873246",
    "country": "United States",
    "longitude": "-84.3810721937623",
    "latitude": "33.80802235",
    "tags": []
  },
  {
    "id": "monday-night-brewing-garage",
    "name": "Monday Night Brewing - Garage",
    "brewery_type": "micro",
    "street": "933 Lee St SW",
    "city": "Atlanta",
    "state": "Georgia",
    "postal_code": "30310",
    "website_url": "",
    "phone": "",
    "created_at": "2018-07-24 01:33:16.01386",
    "updated_at": "2018-08-24 00:29:14.426354",
    "country": "United States",
    "longitude": "-84.4161772352941",
    "latitude": "33.7290642941176",
    "tags": []
  },
  {
    "id": "eurobevs",
    "name": "EuroBevs",
    "brewery_type": "contract",
    "street": "2255 Cumberland Pkwy SE",
    "city": "Atlanta",
    "state": "Georgia",
    "postal_code": "30339-4515",
    "website_url": "http://www.eurobevs.com",
    "phone": "7704371285",
    "created_at": "2018-07-24 01:33:15.667164",
    "updated_at": "2018-08-11 21:37:01.655959",
    "country": "United States",
    "longitude": "",
    "latitude": "",
    "tags": []
  },
  {
    "id": "new-realm-brewing",
    "name": "New Realm Brewing",
    "brewery_type": "brewpub",
    "street": "550 Somerset Ter NE Unit 101",
    "city": "Atlanta",
    "state": "Georgia",
    "postal_code": "30306-4317",
    "website_url": "http://www.newrealmbrewing.com",
    "phone": "4049682778",
    "created_at": "2018-07-24 01:33:16.051405",
    "updated_at": "2018-08-11 21:37:02.75996",
    "country": "United States",
    "longitude": "",
    "latitude": "",
    "tags": []
  },
  {
    "id": "odempseys-brewing-co",
    "name": "O'Dempsey's Brewing Co",
    "brewery_type": "contract",
    "street": "205 Grosvenor Place, Nw",
    "city": "Atlanta",
    "state": "Georgia",
    "postal_code": "30328",
    "website_url": "http://www.odempseys.com",
    "phone": "4048450059",
    "created_at": "2018-07-24 01:33:16.09065",
    "updated_at": "2018-08-11 21:37:02.882991",
    "country": "United States",
    "longitude": "",
    "latitude": "",
    "tags": []
  },
  {
    "id": "eventide-brewing-co",
    "name": "Eventide Brewing Co",
    "brewery_type": "micro",
    "street": "1015 Grant St SE",
    "city": "Atlanta",
    "state": "Georgia",
    "postal_code": "30315-2014",
    "website_url": "http://www.eventidebrewing.com",
    "phone": "4049074543",
    "created_at": "2018-07-24 01:33:15.680861",
    "updated_at": "2018-08-24 00:29:04.352122",
    "country": "United States",
    "longitude": "-84.3770629097993",
    "latitude": "33.72670205",
    "tags": []
  },
  {
    "id": "monday-night-brewing",
    "name": "Monday Night Brewing",
    "brewery_type": "micro",
    "street": "670 Trabert Ave NW",
    "city": "Atlanta",
    "state": "Georgia",
    "postal_code": "30318-4230",
    "website_url": "http://www.mondaynightbrewing.com",
    "phone": "4043527703",
    "created_at": "2018-07-24 01:33:16.001447",
    "updated_at": "2018-08-24 00:29:13.856727",
    "country": "United States",
    "longitude": "-84.4098921239911",
    "latitude": "33.79480405",
    "tags": []
  },
  {
    "id": "orpheus-brewing",
    "name": "Orpheus Brewing",
    "brewery_type": "micro",
    "street": "1440 Dutch Valley Pl NE Ste 2001",
    "city": "Atlanta",
    "state": "Georgia",
    "postal_code": "30324-5366",
    "website_url": "http://www.orpheusbrewing.com",
    "phone": "4043471777",
    "created_at": "2018-07-24 01:33:16.117014",
    "updated_at": "2018-08-24 00:29:18.35058",
    "country": "United States",
    "longitude": "-84.3685805104894",
    "latitude": "33.79314935",
    "tags": []
  },
  {
    "id": "park-tavern-brewery",
    "name": "Park Tavern Brewery",
    "brewery_type": "brewpub",
    "street": "500 10th St NE",
    "city": "Atlanta",
    "state": "Georgia",
    "postal_code": "30309-4272",
    "website_url": "http://www.parktavern.com",
    "phone": "4042490001",
    "created_at": "2018-07-24 01:33:16.129353",
    "updated_at": "2018-08-24 00:29:19.023828",
    "country": "United States",
    "longitude": "-84.377744",
    "latitude": "33.781867",
    "tags": []
  },
  {
    "id": "perfect-fool-brewing-company",
    "name": "Perfect Fool Brewing Company",
    "brewery_type": "planning",
    "street": "",
    "city": "Atlanta",
    "state": "Georgia",
    "postal_code": "30319",
    "website_url": "",
    "phone": "",
    "created_at": "2018-07-24 01:33:16.141604",
    "updated_at": "2018-08-11 21:37:03.021113",
    "country": "United States",
    "longitude": "",
    "latitude": "",
    "tags": []
  },
  {
    "id": "sabbath-brewing",
    "name": "Sabbath Brewing",
    "brewery_type": "planning",
    "street": "",
    "city": "Atlanta",
    "state": "Georgia",
    "postal_code": "30316",
    "website_url": "",
    "phone": "",
    "created_at": "2018-07-24 01:33:16.321033",
    "updated_at": "2018-08-11 21:37:03.436455",
    "country": "United States",
    "longitude": "",
    "latitude": "",
    "tags": []
  },
  {
    "id": "scofflaw-brewing-co",
    "name": "Scofflaw Brewing Co",
    "brewery_type": "micro",
    "street": "1738 Macarthur Blvd NW",
    "city": "Atlanta",
    "state": "Georgia",
    "postal_code": "30318-2022",
    "website_url": "http://www.scofflawbeer.com",
    "phone": "4049153392",
    "created_at": "2018-07-24 01:33:16.357049",
    "updated_at": "2018-08-11 21:37:03.541831",
    "country": "United States",
    "longitude": "",
    "latitude": "",
    "tags": []
  },
  {
    "id": "the-lost-druid",
    "name": "The Lost Druid",
    "brewery_type": "planning",
    "street": "",
    "city": "Atlanta",
    "state": "Georgia",
    "postal_code": "30307-2758",
    "website_url": "",
    "phone": "",
    "created_at": "2018-07-24 01:33:16.526829",
    "updated_at": "2018-08-11 21:37:03.918501",
    "country": "United States",
    "longitude": "",
    "latitude": "",
    "tags": []
  },
  {
    "id": "the-woodlands-at-sweetwater",
    "name": "The Woodlands At SweetWater",
    "brewery_type": "micro",
    "street": "215 Ottley Dr",
    "city": "Atlanta",
    "state": "Georgia",
    "postal_code": "30324-3924",
    "website_url": "",
    "phone": "4046912537",
    "created_at": "2018-07-24 01:33:16.563879",
    "updated_at": "2018-08-11 21:37:04.020444",
    "country": "United States",
    "longitude": "",
    "latitude": "",
    "tags": []
  },
  {
    "id": "red-brick-brewing-co-/-atlanta-brewing-co",
    "name": "Red Brick Brewing Co / Atlanta Brewing Co",
    "brewery_type": "micro",
    "street": "2323 Defoor Hills Rd NW",
    "city": "Atlanta",
    "state": "Georgia",
    "postal_code": "30318-2207",
    "website_url": "http://www.atlantabrewing.com",
    "phone": "4043555558",
    "created_at": "2018-07-24 01:33:16.231242",
    "updated_at": "2018-08-24 00:29:22.92276",
    "country": "United States",
    "longitude": "-84.4345413838986",
    "latitude": "33.81830375",
    "tags": []
  },
  {
    "id": "second-self-brewing",
    "name": "Second Self Brewing",
    "brewery_type": "micro",
    "street": "1311 Logan Cir NW",
    "city": "Atlanta",
    "state": "Georgia",
    "postal_code": "30318-2858",
    "website_url": "http://secondselfbeer.com",
    "phone": "6789168035",
    "created_at": "2018-07-24 01:33:16.369183",
    "updated_at": "2018-08-24 00:29:27.234053",
    "country": "United States",
    "longitude": "-84.4300619376943",
    "latitude": "33.8055922",
    "tags": []
  },
  {
    "id": "stats-brewpub",
    "name": "Stats Brewpub",
    "brewery_type": "brewpub",
    "street": "300 Marietta St NW",
    "city": "Atlanta",
    "state": "Georgia",
    "postal_code": "30313-1632",
    "website_url": "http://StatsATL.com",
    "phone": "7705700160",
    "created_at": "2018-07-24 01:33:16.450382",
    "updated_at": "2018-08-24 00:29:30.527771",
    "country": "United States",
    "longitude": "-84.3964736",
    "latitude": "33.7615549",
    "tags": []
  },
  {
    "id": "the-wrecking-bar-brewpub",
    "name": "The Wrecking Bar Brewpub",
    "brewery_type": "brewpub",
    "street": "292 Moreland Ave NE",
    "city": "Atlanta",
    "state": "Georgia",
    "postal_code": "30307-1953",
    "website_url": "http://www.wreckingbarbrewpub.com",
    "phone": "4042212600",
    "created_at": "2018-07-24 01:33:16.577269",
    "updated_at": "2018-08-24 00:29:34.972766",
    "country": "United States",
    "longitude": "-84.3496422",
    "latitude": "33.762309",
    "tags": []
  },
  {
    "id": "torched-hop-brewing-company",
    "name": "Torched Hop Brewing Company",
    "brewery_type": "brewpub",
    "street": "249 Ponce de Leon Ave NE",
    "city": "Atlanta",
    "state": "Georgia",
    "postal_code": "30308-1937",
    "website_url": "http://www.Torchedhopbrewing.com",
    "phone": "4048352040",
    "created_at": "2018-07-24 01:33:16.608911",
    "updated_at": "2018-08-24 00:29:36.17277",
    "country": "United States",
    "longitude": "-84.3792977599729",
    "latitude": "33.77232605",
    "tags": []
  },
  {
    "id": "5-seasons-brewing-co-westside",
    "name": "5 Seasons Brewing Co - Westside",
    "brewery_type": "brewpub",
    "street": "1000 Marietta St NW Ste 204",
    "city": "Atlanta",
    "state": "Georgia",
    "postal_code": "30318-0683",
    "website_url": "http://www.5seasonsbrewing.com",
    "phone": "4048753232",
    "created_at": "2018-07-24 01:33:15.34686",
    "updated_at": "2018-08-11 21:37:00.787492",
    "country": "United States",
    "longitude": "",
    "latitude": "",
    "tags": []
  },
  {
    "id": "gordon-biersch-brewery-restaurant-atlanta",
    "name": "Gordon Biersch Brewery Restaurant - Atlanta",
    "brewery_type": "brewpub",
    "street": "3242 Peachtree Rd NE",
    "city": "Atlanta",
    "state": "Georgia",
    "postal_code": "30305-2425",
    "website_url": "http://www.craftworksrestaurants.com",
    "phone": "4042640253",
    "created_at": "2018-07-24 01:33:15.782117",
    "updated_at": "2018-08-24 00:29:07.009128",
    "country": "United States",
    "longitude": "-84.3620936",
    "latitude": "33.8503143",
    "tags": []
  }
]