[
  {
    "id": "bluetarp-brewing-co",
    "name": "BlueTarp Brewing Co",
    "brewery_type": "micro",
    "street": "731 E College Ave",
    "city": "Decatur",
    "state": "Georgia",
    "postal_code": "30030-5365",
    "website_url": "http://www.bluetarpbrew.com",
    "phone": "4046696740",
    "created_at": "2018-07-24 01:33:15.420193",
    "updated_at": "2018-08-24 00:28:58.688802",
    "country": "United States",
    "longitude": "-84.2835622",
    "latitude": "33.7740425",
    "tags": []
  },
  {
    "id": "wild-heaven-craft-beers",
    "name": "Wild Heaven Craft Beers",
    "brewery_type": "micro",
    "street": "135B Maple St",
    "city": "Decatur",
    "state": "Georgia",
    "postal_code": "30030-3953",
    "website_url": "http://www.wildheavencraftbeers.com",
    "phone": "4049978589",
    "created_at": "2018-07-24 01:33:16.682288",
    "updated_at": "2018-08-11 21:37:04.304674",
    "country": "United States",
    "longitude": "",
    "latitude": "",
    "tags": []
  },
  {
    "id": "three-taverns-craft-brewery",
    "name": "Three Taverns Craft Brewery",
    "brewery_type": "micro",
    "street": "121 New St",
    "city": "Decatur",
    "state": "Georgia",
    "postal_code": "30030-4131",
    "website_url": "http://www.threetavernsbrewery.com",
    "phone": "4046003355",
    "created_at": "2018-07-24 01:33:16.593133",
    "updated_at": "2018-08-24 00:29:35.501827",
    "country": "United States",
    "longitude": "-84.2848807842216",
    "latitude": "33.7730551677064",
    "tags": []
  },
  {
    "id": "twains-brewpub-and-billiards",
    "name": "Twain's Brewpub & Billiards",
    "brewery_type": "brewpub",
    "street": "211 E Trinity Pl",
    "city": "Decatur",
    "state": "Georgia",
    "postal_code": "30030-3414",
    "website_url": "http://www.twains.net",
    "phone": "4043730063",
    "created_at": "2018-07-24 01:33:16.639018",
    "updated_at": "2018-08-24 00:29:37.32718",
    "country": "United States",
    "longitude": "-84.294616",
    "latitude": "33.77228",
    "tags": []
  }
]