[
  {
    "id": "dry-county-brewing-company",
    "name": "Dry County Brewing Company",
    "brewery_type": "micro",
    "street": "1500 Lockhart Drive",
    "city": "kennesaw",
    "state": "Georgia",
    "postal_code": "30144",
    "website_url": "http://www.DryCountyBrewCo.com",
    "phone": "4045799846",
    "created_at": "2018-07-24 01:33:15.630532",
    "updated_at": "2020-04-16 19:58:26.000000",
    "country": "United States",
    "longitude": "-84.53130519863443",
    "latitude": "34.044482827049656",
    "tags": []
  },
  {
    "id": "firewater-brewing-company",
    "name": "Firewater Brewing Company",
    "brewery_type": "planning",
    "street": "",
    "city": "Kennesaw",
    "state": "Georgia",
    "postal_code": "30144",
    "website_url": "",
    "phone": "",
    "created_at": "2018-07-24 01:33:15.706068",
    "updated_at": "2018-08-11 21:37:01.788389",
    "country": "United States",
    "longitude": "",
    "latitude": "",
    "tags": []
  },
  {
    "id": "burnt-hickory-brewery",
    "name": "Burnt Hickory Brewery",
    "brewery_type": "micro",
    "street": "2260 Moon Station Ct NW Ste 210",
    "city": "Kennesaw",
    "state": "Georgia",
    "postal_code": "30144-5653",
    "website_url": "http://www.burnthickorybrewery.com",
    "phone": "7705148812",
    "created_at": "2018-07-24 01:33:15.529901",
    "updated_at": "2020-04-16 19:58:26.000000",
    "country": "United States",
    "longitude": "-84.6170986",
    "latitude": "34.0335135",
    "tags": []
  }
]