[
  {
    "id": "glover-park-brewery",
    "name": "Glover Park Brewery",
    "brewery_type": "planning",
    "street": "",
    "city": "Marietta",
    "state": "Georgia",
    "postal_code": "30060",
    "website_url": "",
    "phone": "",
    "created_at": "2018-07-24 01:33:15.756706",
    "updated_at": "2018-08-11 21:37:01.931348",
    "country": "United States",
    "longitude": "",
    "latitude": "",
    "tags": []
  },
  {
    "id": "mandatory-fun-brewing",
    "name": "Mandatory Fun Brewing",
    "brewery_type": "planning",
    "street": "",
    "city": "Marietta",
    "state": "Georgia",
    "postal_code": "30064",
    "website_url": "http://www.vikingalchemist.com",
    "phone": "9517955337",
    "created_at": "2018-07-24 01:33:15.94987",
    "updated_at": "2018-08-11 21:37:02.513031",
    "country": "United States",
    "longitude": "",
    "latitude": "",
    "tags": []
  },
  {
    "id": "ironmonger-brewing",
    "name": "Ironmonger Brewing",
    "brewery_type": "micro",
    "street": "2129 Northwest Pkwy SE Ste 105",
    "city": "Marietta",
    "state": "Georgia",
    "postal_code": "30067-9223",
    "website_url": "http://www.ironmongerbrewing.com",
    "phone": "6787428551",
    "created_at": "2018-07-24 01:33:15.843473",
    "updated_at": "2018-08-24 00:29:08.63646",
    "country": "United States",
    "longitude": "-84.4869635256505",
    "latitude": "33.919593821209",
    "tags": []
  },
  {
    "id": "johnnie-maccrackens-celtic-firehouse-pub-inc",
    "name": "Johnnie MacCracken's Celtic Firehouse Pub, Inc.",
    "brewery_type": "brewpub",
    "street": "15 Atlanta Street",
    "city": "Marietta",
    "state": "Georgia",
    "postal_code": "30060-1985",
    "website_url": "http://www.johnniemaccrackens.com",
    "phone": "7705907868",
    "created_at": "2018-07-24 01:33:15.897925",
    "updated_at": "2018-08-24 00:29:10.484087",
    "country": "United States",
    "longitude": "-84.5417592",
    "latitude": "33.9371282",
    "tags": []
  },
  {
    "id": "red-hare-brewing-company",
    "name": "Red Hare Brewing Company",
    "brewery_type": "micro",
    "street": "1998 Delk Industrial Blvd SE",
    "city": "Marietta",
    "state": "Georgia",
    "postal_code": "30067-8904",
    "website_url": "http://www.redharebrewing.com",
    "phone": "6784010600",
    "created_at": "2018-07-24 01:33:16.243494",
    "updated_at": "2018-08-24 00:29:23.424187",
    "country": "United States",
    "longitude": "-84.4957563035449",
    "latitude": "33.92440825",
    "tags": []
  }
]