[
  {
    "id": "coastal-empire-beer-co",
    "name": "Coastal Empire Beer Co",
    "brewery_type": "micro",
    "street": "79 Ross Rd",
    "city": "Savannah",
    "state": "Georgia",
    "postal_code": "31405-1660",
    "website_url": "http://www.coastalempirebeer.com",
    "phone": "9124287911",
    "created_at": "2018-07-24 01:33:15.581469",
    "updated_at": "2018-08-11 21:37:01.426051",
    "country": "United States",
    "longitude": "",
    "latitude": "",
    "tags": []
  },
  {
    "id": "moon-river-brewing-co",
    "name": "Moon River Brewing Co",
    "brewery_type": "brewpub",
    "street": "21 W Bay St",
    "city": "Savannah",
    "state": "Georgia",
    "postal_code": "31401-1106",
    "website_url": "http://www.moonriverbrewing.com",
    "phone": "9124470943",
    "created_at": "2018-07-24 01:33:16.039054",
    "updated_at": "2018-08-24 00:29:15.130503",
    "country": "United States",
    "longitude": "-81.0917857755102",
    "latitude": "32.0809857346939",
    "tags": []
  },
  {
    "id": "savannah-beer-company",
    "name": "Savannah Beer Company",
    "brewery_type": "planning",
    "street": "",
    "city": "Savannah",
    "state": "Georgia",
    "postal_code": "31410",
    "website_url": "",
    "phone": "9124140187",
    "created_at": "2018-07-24 01:33:16.333304",
    "updated_at": "2018-08-11 21:37:03.473408",
    "country": "United States",
    "longitude": "",
    "latitude": "",
    "tags": []
  },
  {
    "id": "service-brewing-company",
    "name": "Service Brewing Company",
    "brewery_type": "micro",
    "street": "574 Indian St",
    "city": "Savannah",
    "state": "Georgia",
    "postal_code": "31401-1121",
    "website_url": "http://www.servicebrewing.com",
    "phone": "8452425355",
    "created_at": "2018-07-24 01:33:16.381154",
    "updated_at": "2018-08-24 00:29:27.76557",
    "country": "United States",
    "longitude": "-81.0982782978329",
    "latitude": "32.0839717038974",
    "tags": []
  },
  {
    "id": "southbound-brewing-co",
    "name": "Southbound Brewing Co",
    "brewery_type": "micro",
    "street": "107 E Lathrop Ave",
    "city": "Savannah",
    "state": "Georgia",
    "postal_code": "31415-2182",
    "website_url": "http://www.southboundbrewingco.com",
    "phone": "",
    "created_at": "2018-07-24 01:33:16.41391",
    "updated_at": "2018-08-24 00:29:28.884287",
    "country": "United States",
    "longitude": "-81.111372",
    "latitude": "32.087032",
    "tags": []
  },
  {
    "id": "two-tides-brewing-company",
    "name": "Two Tides Brewing Company",
    "brewery_type": "micro",
    "street": "12 West 41st St",
    "city": "Savannah",
    "state": "Georgia",
    "postal_code": "31401",
    "website_url": "http://www.twotidesbrewing.com",
    "phone": "9126670706",
    "created_at": "2018-07-24 01:33:16.653681",
    "updated_at": "2018-08-24 00:29:37.922285",
    "country": "United States",
    "longitude": "-81.1021609166667",
    "latitude": "32.054127",
    "tags": []
  }
]