[
  {
    "id": "carmody-irish-pub-and-brewing",
    "name": "Carmody Irish Pub & Brewing",
    "brewery_type": "brewpub",
    "street": "308 E Superior St",
    "city": "Duluth",
    "state": "Minnesota",
    "postal_code": "55802-2120",
    "website_url": "http://www.carmodyirishpub.com",
    "phone": "2187404747",
    "created_at": "2018-07-24 01:33:38.197092",
    "updated_at": "2018-08-24 00:45:00.853851",
    "country": "United States",
    "longitude": "-92.0941880943814",
    "latitude": "46.7898679947981",
    "tags": []
  },
  {
    "id": "bent-paddle-brewing-co",
    "name": "Bent Paddle Brewing Co",
    "brewery_type": "regional",
    "street": "1912 W Michigan St",
    "city": "Duluth",
    "state": "Minnesota",
    "postal_code": "55806-2135",
    "website_url": "http://www.bentpaddlebrewing.com",
    "phone": "2182792722",
    "created_at": "2018-07-24 01:33:37.91056",
    "updated_at": "2018-08-24 00:44:53.295464",
    "country": "United States",
    "longitude": "-92.1219171",
    "latitude": "46.7676912",
    "tags": []
  },
  {
    "id": "blacklist-artisan-ales",
    "name": "Blacklist Artisan Ales",
    "brewery_type": "micro",
    "street": "120 E Superior St",
    "city": "Duluth",
    "state": "Minnesota",
    "postal_code": "55802-2116",
    "website_url": "http://www.blacklistbeer.com",
    "phone": "2183109368",
    "created_at": "2018-07-24 01:33:37.984488",
    "updated_at": "2018-08-24 00:44:55.484303",
    "country": "United States",
    "longitude": "-92.0959659800392",
    "latitude": "46.7882669",
    "tags": []
  },
  {
    "id": "canal-park-brewery",
    "name": "Canal Park Brewery",
    "brewery_type": "brewpub",
    "street": "300 Canal Park Dr",
    "city": "Duluth",
    "state": "Minnesota",
    "postal_code": "55802-2316",
    "website_url": "http://www.canalparkbrewery.com",
    "phone": "2184644790",
    "created_at": "2018-07-24 01:33:38.184364",
    "updated_at": "2018-08-11 21:38:00.938677",
    "country": "United States",
    "longitude": "",
    "latitude": "",
    "tags": []
  },
  {
    "id": "dubh-linn-brew-pub",
    "name": "Dubh Linn Brew Pub",
    "brewery_type": "brewpub",
    "street": "109 W Superior St",
    "city": "Duluth",
    "state": "Minnesota",
    "postal_code": "55802-3026",
    "website_url": "http://dubhlinnpub.com",
    "phone": "2187271559",
    "created_at": "2018-07-24 01:33:38.338204",
    "updated_at": "2018-08-24 00:45:06.324599",
    "country": "United States",
    "longitude": "-92.0997257177513",
    "latitude": "46.7858944129355",
    "tags": []
  },
  {
    "id": "fitgers-brewhouse",
    "name": "Fitgers Brewhouse",
    "brewery_type": "brewpub",
    "street": "600 E Superior St",
    "city": "Duluth",
    "state": "Minnesota",
    "postal_code": "55802-2222",
    "website_url": "",
    "phone": "2187224825",
    "created_at": "2018-07-24 01:33:38.428531",
    "updated_at": "2018-08-24 00:45:09.621473",
    "country": "United States",
    "longitude": "-92.09046480606",
    "latitude": "46.7928016097612",
    "tags": []
  },
  {
    "id": "hoops-brewing",
    "name": "Hoops Brewing",
    "brewery_type": "micro",
    "street": "325 S Lake Ave # 110",
    "city": "Duluth",
    "state": "Minnesota",
    "postal_code": "55802-2305",
    "website_url": "http://www.hoopsbrewing.com",
    "phone": "2186061666",
    "created_at": "2018-07-24 01:33:38.768646",
    "updated_at": "2018-08-24 00:45:21.660244",
    "country": "United States",
    "longitude": "-92.0960811020408",
    "latitude": "46.783487755102",
    "tags": []
  },
  {
    "id": "ursa-minor-brewing",
    "name": "Ursa Minor Brewing",
    "brewery_type": "planning",
    "street": "",
    "city": "Duluth",
    "state": "Minnesota",
    "postal_code": "55806",
    "website_url": "http://www.ursaminorbrewing.com",
    "phone": "2182690537",
    "created_at": "2018-07-24 01:33:39.891608",
    "updated_at": "2018-08-11 21:38:05.401366",
    "country": "United States",
    "longitude": "",
    "latitude": "",
    "tags": []
  },
  {
    "id": "lake-superior-brewing-co",
    "name": "Lake Superior Brewing Co",
    "brewery_type": "micro",
    "street": "2711 W Superior St Ste 204",
    "city": "Duluth",
    "state": "Minnesota",
    "postal_code": "55806-1893",
    "website_url": "http://www.lakesuperiorbrewing.com",
    "phone": "2187234000",
    "created_at": "2018-07-24 01:33:39.008088",
    "updated_at": "2018-08-11 21:38:03.293096",
    "country": "United States",
    "longitude": "",
    "latitude": "",
    "tags": []
  }
]