[
  {
    "id": "lakes-and-legends-brewing-company",
    "name": "Lakes & Legends Brewing Company",
    "brewery_type": "micro",
    "street": "1368 Lasalle Ave",
    "city": "Minneapolis",
    "state": "Minnesota",
    "postal_code": "55403-2316",
    "website_url": "http://www.lakesandlegends.com",
    "phone": "6129996020",
    "created_at": "2018-07-24 01:33:39.020428",
    "updated_at": "2018-08-24 00:45:28.880117",
    "country": "United States",
    "longitude": "-93.2794629",
    "latitude": "44.9689387",
    "tags": []
  },
  {
    "id": "56-brewing",
    "name": "56 Brewing",
    "brewery_type": "micro",
    "street": "3055 Columbia Ave NE Ste 102",
    "city": "Minneapolis",
    "state": "Minnesota",
    "postal_code": "55418-1860",
    "website_url": "http://www.56brewing.com",
    "phone": "6124040056",
    "created_at": "2018-07-24 01:33:37.626982",
    "updated_at": "2018-08-11 21:37:58.759542",
    "country": "United States",
    "longitude": "",
    "latitude": "",
    "tags": []
  },
  {
    "id": "arbeiter-brewing-company",
    "name": "Arbeiter Brewing Company",
    "brewery_type": "planning",
    "street": "",
    "city": "Minneapolis",
    "state": "Minnesota",
    "postal_code": "55418-2325",
    "website_url": "http://www.arbeiterbrewing.com",
    "phone": "",
    "created_at": "2018-07-24 01:33:37.690323",
    "updated_at": "2018-08-11 21:37:58.918963",
    "country": "United States",
    "longitude": "",
    "latitude": "",
    "tags": []
  },
  {
    "id": "612-brew",
    "name": "612 Brew",
    "brewery_type": "micro",
    "street": "945 Broadway St NE",
    "city": "Minneapolis",
    "state": "Minnesota",
    "postal_code": "55413-1471",
    "website_url": "http://www.612brew.com",
    "phone": "6129648939",
    "created_at": "2018-07-24 01:33:37.639434",
    "updated_at": "2018-08-24 00:44:44.711912",
    "country": "United States",
    "longitude": "-93.2062058",
    "latitude": "45.000631",
    "tags": []
  },
  {
    "id": "able-seedhouse-and-brewery",
    "name": "Able Seedhouse and Brewery",
    "brewery_type": "micro",
    "street": "1121 Quincy St NE",
    "city": "Minneapolis",
    "state": "Minnesota",
    "postal_code": "55413-2773",
    "website_url": "http://www.ablebeer.com",
    "phone": "6124054642",
    "created_at": "2018-07-24 01:33:37.651629",
    "updated_at": "2018-08-24 00:44:45.172254",
    "country": "United States",
    "longitude": "-93.2510686",
    "latitude": "44.9993934",
    "tags": []
  },
  {
    "id": "bauhaus-brew-labs",
    "name": "Bauhaus Brew Labs",
    "brewery_type": "micro",
    "street": "1315 Tyler St NE",
    "city": "Minneapolis",
    "state": "Minnesota",
    "postal_code": "55413-1530",
    "website_url": "http://bauhausbrewlabs.com",
    "phone": "6122976911",
    "created_at": "2018-07-24 01:33:37.84504",
    "updated_at": "2018-08-24 00:44:51.524787",
    "country": "United States",
    "longitude": "-93.237365",
    "latitude": "45.042082",
    "tags": []
  },
  {
    "id": "boom-island-brewing-company",
    "name": "Boom Island Brewing Company",
    "brewery_type": "micro",
    "street": "2014 Washington Ave North #300",
    "city": "Minneapolis",
    "state": "Minnesota",
    "postal_code": "55411-2220",
    "website_url": "http://www.boomislandbrewing.com",
    "phone": "6122279635",
    "created_at": "2018-07-24 01:33:38.052007",
    "updated_at": "2018-08-24 00:44:57.787025",
    "country": "United States",
    "longitude": "-93.2739955",
    "latitude": "44.9855585",
    "tags": []
  },
  {
    "id": "brass-foundry-brewing-co",
    "name": "Brass Foundry Brewing Co.",
    "brewery_type": "micro",
    "street": "8441 Wayzata Blvd Ste 290",
    "city": "Minneapolis",
    "state": "Minnesota",
    "postal_code": "55426",
    "website_url": "http://www.brassfoundrybrewing.com",
    "phone": "7633504153",
    "created_at": "2018-07-24 01:33:38.079805",
    "updated_at": "2018-08-11 21:38:00.579729",
    "country": "United States",
    "longitude": "",
    "latitude": "",
    "tags": []
  },
  {
    "id": "broken-clock-brewing-cooperative",
    "name": "Broken Clock Brewing Cooperative",
    "brewery_type": "micro",
    "street": "3134 California St NE Ste 122",
    "city": "Minneapolis",
    "state": "Minnesota",
    "postal_code": "55418-1789",
    "website_url": "http://www.brokenclockbrew.com",
    "phone": "9703330135",
    "created_at": "2018-07-24 01:33:38.158952",
    "updated_at": "2018-08-11 21:38:00.817218",
    "country": "United States",
    "longitude": "",
    "latitude": "",
    "tags": []
  },
  {
    "id": "eastlake-craft-brewery",
    "name": "Eastlake Craft Brewery",
    "brewery_type": "micro",
    "street": "920 E Lake St Ste 123",
    "city": "Minneapolis",
    "state": "Minnesota",
    "postal_code": "55407-4129",
    "website_url": "http://www.eastlakemgm.com",
    "phone": "6122174668",
    "created_at": "2018-07-24 01:33:38.350806",
    "updated_at": "2018-08-11 21:38:01.458345",
    "country": "United States",
    "longitude": "",
    "latitude": "",
    "tags": []
  },
  {
    "id": "finnegans-brew-co",
    "name": "FINNEGANS Brew Co",
    "brewery_type": "micro",
    "street": "817 5th Ave So",
    "city": "Minneapolis",
    "state": "Minnesota",
    "postal_code": "55404",
    "website_url": "http://www.finnegans.com",
    "phone": "2072394937",
    "created_at": "2018-07-24 01:33:38.415172",
    "updated_at": "2018-08-11 21:38:01.661978",
    "country": "United States",
    "longitude": "",
    "latitude": "",
    "tags": []
  },
  {
    "id": "dangerous-man-brewing-co",
    "name": "Dangerous Man Brewing Co",
    "brewery_type": "micro",
    "street": "1300 2nd St NE",
    "city": "Minneapolis",
    "state": "Minnesota",
    "postal_code": "55413-1132",
    "website_url": "http://www.dangerousmanbrewing.com",
    "phone": "6122364087",
    "created_at": "2018-07-24 01:33:38.287078",
    "updated_at": "2018-08-24 00:45:04.271596",
    "country": "United States",
    "longitude": "-93.26664",
    "latitude": "45.046388",
    "tags": []
  },
  {
    "id": "day-block-brewing-company",
    "name": "Day Block Brewing Company",
    "brewery_type": "brewpub",
    "street": "1105 Washington Ave S",
    "city": "Minneapolis",
    "state": "Minnesota",
    "postal_code": "55415-1225",
    "website_url": "http://Dayblockbrewing.com",
    "phone": "6126177793",
    "created_at": "2018-07-24 01:33:38.299461",
    "updated_at": "2018-08-24 00:45:04.747964",
    "country": "United States",
    "longitude": "-93.253074",
    "latitude": "44.9751757",
    "tags": []
  },
  {
    "id": "fair-state-brewing-cooperative",
    "name": "Fair State Brewing Cooperative",
    "brewery_type": "micro",
    "street": "2506A Central Ave NE",
    "city": "Minneapolis",
    "state": "Minnesota",
    "postal_code": "55418",
    "website_url": "http://www.fairstate.coop",
    "phone": "6124443209",
    "created_at": "2018-07-24 01:33:38.389225",
    "updated_at": "2018-08-24 00:45:08.249852",
    "country": "United States",
    "longitude": "-93.247453",
    "latitude": "45.0133791428571",
    "tags": []
  },
  {
    "id": "fulton-beer",
    "name": "Fulton Beer",
    "brewery_type": "regional",
    "street": "2540 2nd St NE",
    "city": "Minneapolis",
    "state": "Minnesota",
    "postal_code": "55418-3412",
    "website_url": "http://www.fultonbeer.com",
    "phone": "6128760904",
    "created_at": "2018-07-24 01:33:38.50504",
    "updated_at": "2018-08-24 00:45:12.761103",
    "country": "United States",
    "longitude": "-93.26664",
    "latitude": "45.046388",
    "tags": []
  },
  {
    "id": "fulton-beer",
    "name": "Fulton Beer",
    "brewery_type": "micro",
    "street": "414 6th Ave N",
    "city": "Minneapolis",
    "state": "Minnesota",
    "postal_code": "55401-1214",
    "website_url": "",
    "phone": "6128760904",
    "created_at": "2018-07-24 01:33:38.518282",
    "updated_at": "2018-08-24 00:45:13.23019",
    "country": "United States",
    "longitude": "-93.2792212",
    "latitude": "44.9849395",
    "tags": []
  },
  {
    "id": "indeed-brewing-co",
    "name": "Indeed Brewing Co",
    "brewery_type": "regional",
    "street": "711 15th Ave NE Ste 102",
    "city": "Minneapolis",
    "state": "Minnesota",
    "postal_code": "55413-3103",
    "website_url": "http://www.indeedbrewing.com",
    "phone": "6128435090",
    "created_at": "2018-07-24 01:33:38.82106",
    "updated_at": "2018-08-11 21:38:02.863521",
    "country": "United States",
    "longitude": "",
    "latitude": "",
    "tags": []
  },
  {
    "id": "la-dona-cerveceria",
    "name": "La Dona Cerveceria",
    "brewery_type": "planning",
    "street": "",
    "city": "Minneapolis",
    "state": "Minnesota",
    "postal_code": "55405",
    "website_url": "http://www.dameladona.com",
    "phone": "",
    "created_at": "2018-07-24 01:33:38.971617",
    "updated_at": "2018-08-11 21:38:03.203785",
    "country": "United States",
    "longitude": "",
    "latitude": "",
    "tags": []
  },
  {
    "id": "headflyer-brewing",
    "name": "HeadFlyer Brewing",
    "brewery_type": "micro",
    "street": "861 E Hennepin Ave",
    "city": "Minneapolis",
    "state": "Minnesota",
    "postal_code": "55414-1201",
    "website_url": "http://www.headflyerbrewing.com",
    "phone": "6125676345",
    "created_at": "2018-07-24 01:33:38.742393",
    "updated_at": "2018-08-24 00:45:20.703499",
    "country": "United States",
    "longitude": "-93.2437012",
    "latitude": "44.9917415",
    "tags": []
  },
  {
    "id": "inbound-brewco",
    "name": "Inbound Brewco",
    "brewery_type": "micro",
    "street": "701 N 5th St",
    "city": "Minneapolis",
    "state": "Minnesota",
    "postal_code": "55401-1124",
    "website_url": "http://www.inboundbrew.co",
    "phone": "6126158243",
    "created_at": "2018-07-24 01:33:38.807804",
    "updated_at": "2018-08-24 00:45:22.625026",
    "country": "United States",
    "longitude": "-93.28068765625",
    "latitude": "44.98529275",
    "tags": []
  },
  {
    "id": "insight-brewing-company",
    "name": "Insight Brewing Company",
    "brewery_type": "micro",
    "street": "2821 E Hennepin Ave",
    "city": "Minneapolis",
    "state": "Minnesota",
    "postal_code": "55413-2916",
    "website_url": "",
    "phone": "",
    "created_at": "2018-07-24 01:33:38.834102",
    "updated_at": "2018-08-24 00:45:23.572344",
    "country": "United States",
    "longitude": "-93.2702061",
    "latitude": "44.9812702",
    "tags": []
  },
  {
    "id": "lynlake-brewery",
    "name": "LynLake Brewery",
    "brewery_type": "micro",
    "street": "2934 Lyndale Ave S",
    "city": "Minneapolis",
    "state": "Minnesota",
    "postal_code": "55408-2110",
    "website_url": "http://www.lynlakebrewery.com",
    "phone": "6122249682",
    "created_at": "2018-07-24 01:33:39.147296",
    "updated_at": "2018-08-24 00:45:33.010223",
    "country": "United States",
    "longitude": "-93.2884965",
    "latitude": "44.9489135",
    "tags": []
  },
  {
    "id": "minneapolis-town-hall-brewery",
    "name": "Minneapolis Town Hall Brewery",
    "brewery_type": "brewpub",
    "street": "1430 Washington Ave S",
    "city": "Minneapolis",
    "state": "Minnesota",
    "postal_code": "55454-1038",
    "website_url": "http://www.townhallbrewery.com",
    "phone": "6123398696",
    "created_at": "2018-07-24 01:33:39.198984",
    "updated_at": "2018-08-24 00:45:34.777246",
    "country": "United States",
    "longitude": "-93.247714",
    "latitude": "44.9733314",
    "tags": []
  },
  {
    "id": "modist-brewing-company",
    "name": "Modist Brewing Company",
    "brewery_type": "micro",
    "street": "505 N 3rd St",
    "city": "Minneapolis",
    "state": "Minnesota",
    "postal_code": "55401-1201",
    "website_url": "http://www.modistbrewing.com",
    "phone": "6124540258",
    "created_at": "2018-07-24 01:33:39.211808",
    "updated_at": "2018-08-24 00:45:35.268074",
    "country": "United States",
    "longitude": "-93.2708126",
    "latitude": "44.9816901",
    "tags": []
  },
  {
    "id": "northbound-smokehouse-brewpub",
    "name": "Northbound Smokehouse Brewpub",
    "brewery_type": "brewpub",
    "street": "2716 E 38th St",
    "city": "Minneapolis",
    "state": "Minnesota",
    "postal_code": "55406-3004",
    "website_url": "http://www.smokehousebrewpub.com",
    "phone": "6122081450",
    "created_at": "2018-07-24 01:33:39.251986",
    "updated_at": "2018-08-24 00:45:36.597041",
    "country": "United States",
    "longitude": "-93.2323804",
    "latitude": "44.9342257",
    "tags": []
  },
  {
    "id": "surly-brewing-company",
    "name": "Surly Brewing Company",
    "brewery_type": "regional",
    "street": "520 Malcolm Ave SE",
    "city": "Minneapolis",
    "state": "Minnesota",
    "postal_code": "55414-3312",
    "website_url": "",
    "phone": "7635353330",
    "created_at": "2018-07-24 01:33:39.667335",
    "updated_at": "2018-08-11 21:38:04.90807",
    "country": "United States",
    "longitude": "",
    "latitude": "",
    "tags": []
  },
  {
    "id": "the-freehouse",
    "name": "The Freehouse",
    "brewery_type": "brewpub",
    "street": "701 Washington Ave N Ste 101",
    "city": "Minneapolis",
    "state": "Minnesota",
    "postal_code": "55401-2820",
    "website_url": "http://www.freehousempls.com",
    "phone": "6123397011",
    "created_at": "2018-07-24 01:33:39.728844",
    "updated_at": "2018-08-11 21:38:05.058749",
    "country": "United States",
    "longitude": "",
    "latitude": "",
    "tags": []
  },
  {
    "id": "torg-brewery",
    "name": "Torg Brewery",
    "brewery_type": "planning",
    "street": "",
    "city": "Minneapolis",
    "state": "Minnesota",
    "postal_code": "55432",
    "website_url": "http://www.torgbrewery.com",
    "phone": "7636390539",
    "created_at": "2018-07-24 01:33:39.778333",
    "updated_at": "2018-08-11 21:38:05.171744",
    "country": "United States",
    "longitude": "",
    "latitude": "",
    "tags": []
  },
  {
    "id": "utepils-brewing-co",
    "name": "Utepils Brewing Co",
    "brewery_type": "micro",
    "street": "225 Thomas Ave N Apt 700",
    "city": "Minneapolis",
    "state": "Minnesota",
    "postal_code": "55405-3397",
    "website_url": "http://www.utepilsbrewing.com",
    "phone": "6122497800",
    "created_at": "2018-07-24 01:33:39.904085",
    "updated_at": "2018-08-11 21:38:05.429034",
    "country": "United States",
    "longitude": "",
    "latitude": "",
    "tags": []
  },
  {
    "id": "pryes-brewing-company",
    "name": "Pryes Brewing Company",
    "brewery_type": "micro",
    "street": "1401 W River Rd # N",
    "city": "Minneapolis",
    "state": "Minnesota",
    "postal_code": "55411-3436",
    "website_url": "http://www.pryesbrewing.com",
    "phone": "6127877937",
    "created_at": "2018-07-24 01:33:39.403118",
    "updated_at": "2018-08-24 00:45:39.972626",
    "country": "United States",
    "longitude": "-93.2763222",
    "latitude": "44.9935022",
    "tags": []
  },
  {
    "id": "rock-bottom-brewery-minneapolis",
    "name": "Rock Bottom Brewery - Minneapolis",
    "brewery_type": "brewpub",
    "street": "800 Lasalle Ave",
    "city": "Minneapolis",
    "state": "Minnesota",
    "postal_code": "55402-2006",
    "website_url": "http://www.rockbottom.com",
    "phone": "6123322739",
    "created_at": "2018-07-24 01:33:39.464065",
    "updated_at": "2018-08-24 00:45:42.450681",
    "country": "United States",
    "longitude": "-93.274687",
    "latitude": "44.976427",
    "tags": []
  },
  {
    "id": "sisyphus-brewing",
    "name": "Sisyphus Brewing",
    "brewery_type": "micro",
    "street": "712 Ontario Ave W",
    "city": "Minneapolis",
    "state": "Minnesota",
    "postal_code": "55403-1138",
    "website_url": "http://www.sisyphusbrewing.com",
    "phone": "6124448674",
    "created_at": "2018-07-24 01:33:39.554427",
    "updated_at": "2018-08-24 00:45:45.743072",
    "country": "United States",
    "longitude": "-93.2883357142857",
    "latitude": "44.973158",
    "tags": []
  },
  {
    "id": "sociable-cider-werks",
    "name": "Sociable Cider Werks",
    "brewery_type": "micro",
    "street": "1500 Fillmore St NE",
    "city": "Minneapolis",
    "state": "Minnesota",
    "postal_code": "55413-1657",
    "website_url": "http://www.sociablecider.com",
    "phone": "6127580105",
    "created_at": "2018-07-24 01:33:39.5674",
    "updated_at": "2018-08-24 00:45:46.173625",
    "country": "United States",
    "longitude": "-93.2422388",
    "latitude": "45.0239772",
    "tags": []
  },
  {
    "id": "venn-brewing-company",
    "name": "Venn Brewing Company",
    "brewery_type": "micro",
    "street": "3550 E 46th St Suite 140",
    "city": "Minneapolis",
    "state": "Minnesota",
    "postal_code": "55406-3965",
    "website_url": "http://www.vennbrewing.com",
    "phone": "",
    "created_at": "2018-07-24 01:33:39.91924",
    "updated_at": "2018-08-11 21:38:05.463742",
    "country": "United States",
    "longitude": "",
    "latitude": "",
    "tags": []
  },
  {
    "id": "wicked-wort-brewing-company",
    "name": "Wicked Wort Brewing Company",
    "brewery_type": "brewpub",
    "street": "4165 W Broadway Ave",
    "city": "Minneapolis",
    "state": "Minnesota",
    "postal_code": "55422-1823",
    "website_url": "http://www.wickedwortbrewingco.com",
    "phone": "7633029849",
    "created_at": "2018-07-24 01:33:40.095733",
    "updated_at": "2018-08-24 00:46:00.806984",
    "country": "United States",
    "longitude": "-93.3025381",
    "latitude": "44.9996613",
    "tags": []
  },
  {
    "id": "wild-mind-artisan-ales",
    "name": "Wild Mind Artisan Ales",
    "brewery_type": "micro",
    "street": "6031 Pillsbury Ave S",
    "city": "Minneapolis",
    "state": "Minnesota",
    "postal_code": "55419-2328",
    "website_url": "http://www.wildmindales.com",
    "phone": "6123454514",
    "created_at": "2018-07-24 01:33:40.109504",
    "updated_at": "2018-08-24 00:46:01.257937",
    "country": "United States",
    "longitude": "-93.2813885030709",
    "latitude": "44.89304675",
    "tags": []
  },
  {
    "id": "clockwerks-brewing",
    "name": "Clockwerks Brewing",
    "brewery_type": "brewpub",
    "street": "25 N 4th St",
    "city": "Minneapolis",
    "state": "Minnesota",
    "postal_code": "55401-1719",
    "website_url": "http://www.clockwerksbrewing.com",
    "phone": "6123399375",
    "created_at": "2018-07-24 01:33:38.236628",
    "updated_at": "2018-08-24 00:45:02.286897",
    "country": "United States",
    "longitude": "-93.2719503061224",
    "latitude": "44.9807182653061",
    "tags": []
  },
  {
    "id": "herkimer-pub-and-brewery",
    "name": "Herkimer Pub and Brewery",
    "brewery_type": "brewpub",
    "street": "2922 Lyndale Ave S",
    "city": "Minneapolis",
    "state": "Minnesota",
    "postal_code": "55408-2110",
    "website_url": "http://www.theherkimer.com",
    "phone": "6128210101",
    "created_at": "2018-07-24 01:33:38.755639",
    "updated_at": "2018-08-24 00:45:21.167553",
    "country": "United States",
    "longitude": "-93.2883778",
    "latitude": "44.9492064",
    "tags": []
  }
]