[
  {
    "id": "forager-brewing-company",
    "name": "Forager Brewing Company",
    "brewery_type": "brewpub",
    "street": "1005 6th St NW",
    "city": "Rochester",
    "state": "Minnesota",
    "postal_code": "55901-2741",
    "website_url": "http://www.foragerbrewery.com",
    "phone": "5072587490",
    "created_at": "2018-07-24 01:33:38.454353",
    "updated_at": "2018-08-24 00:45:10.895742",
    "country": "United States",
    "longitude": "-92.4786810104941",
    "latitude": "44.0293769630614",
    "tags": []
  },
  {
    "id": "grand-rounds-brewing-company",
    "name": "Grand Rounds Brewing Company",
    "brewery_type": "brewpub",
    "street": "4 3rd St SW",
    "city": "Rochester",
    "state": "Minnesota",
    "postal_code": "55902-3019",
    "website_url": "http://www.grandroundsbrewing.com",
    "phone": "5072921628",
    "created_at": "2018-07-24 01:33:38.607845",
    "updated_at": "2018-08-24 00:45:15.509644",
    "country": "United States",
    "longitude": "-92.4633952232413",
    "latitude": "44.0202771",
    "tags": []
  },
  {
    "id": "little-thistle-brewing",
    "name": "Little Thistle Brewing",
    "brewery_type": "planning",
    "street": "",
    "city": "Rochester",
    "state": "Minnesota",
    "postal_code": "55901",
    "website_url": "http://www.littlethistlebeer.com",
    "phone": "5073584647",
    "created_at": "2018-07-24 01:33:39.069432",
    "updated_at": "2018-08-11 21:38:03.446542",
    "country": "United States",
    "longitude": "",
    "latitude": "",
    "tags": []
  },
  {
    "id": "kinney-creek-brewery",
    "name": "Kinney Creek Brewery",
    "brewery_type": "micro",
    "street": "1016 7th St NW",
    "city": "Rochester",
    "state": "Minnesota",
    "postal_code": "55901-2668",
    "website_url": "",
    "phone": "",
    "created_at": "2018-07-24 01:33:38.935859",
    "updated_at": "2018-08-24 00:45:27.004343",
    "country": "United States",
    "longitude": "-92.4780889266807",
    "latitude": "44.0312603955053",
    "tags": []
  },
  {
    "id": "lts-brewing-company",
    "name": "LTS Brewing Company",
    "brewery_type": "micro",
    "street": "2001 32nd Ave NW",
    "city": "Rochester",
    "state": "Minnesota",
    "postal_code": "55901-8321",
    "website_url": "http://www.ltsbrewing.com",
    "phone": "5072268280",
    "created_at": "2018-07-24 01:33:39.107181",
    "updated_at": "2018-08-24 00:45:31.698568",
    "country": "United States",
    "longitude": "-92.5104808",
    "latitude": "44.0447412",
    "tags": []
  }
]