[
  {
    "id": "barrel-theory-beer-company",
    "name": "Barrel Theory Beer Company",
    "brewery_type": "micro",
    "street": "248 7th St E",
    "city": "Saint Paul",
    "state": "Minnesota",
    "postal_code": "55101-2349",
    "website_url": "http://www.barreltheory.com",
    "phone": "6516003422",
    "created_at": "2018-07-24 01:33:37.831034",
    "updated_at": "2018-08-24 00:44:51.098539",
    "country": "United States",
    "longitude": "-93.0880348205128",
    "latitude": "44.9510655128205",
    "tags": []
  },
  {
    "id": "vine-park-brewing-co",
    "name": "Vine Park Brewing Co",
    "brewery_type": "micro",
    "street": "1254 7th St W",
    "city": "Saint Paul",
    "state": "Minnesota",
    "postal_code": "55102-4123",
    "website_url": "http://www.vinepark.com",
    "phone": "6512281355",
    "created_at": "2018-07-24 01:33:39.934299",
    "updated_at": "2018-08-24 00:45:57.651248",
    "country": "United States",
    "longitude": "-93.1655001",
    "latitude": "44.9040455",
    "tags": []
  },
  {
    "id": "12welve-eyes-brewing",
    "name": "12welve Eyes Brewing",
    "brewery_type": "micro",
    "street": "141 E 4th St Ste LL2",
    "city": "Saint Paul",
    "state": "Minnesota",
    "postal_code": "55101-1639",
    "website_url": "http://www.12welveEyes.com",
    "phone": "6514938106",
    "created_at": "2018-07-24 01:33:37.601929",
    "updated_at": "2018-08-11 21:37:58.693979",
    "country": "United States",
    "longitude": "",
    "latitude": "",
    "tags": []
  },
  {
    "id": "bang-brewing",
    "name": "Bang Brewing",
    "brewery_type": "micro",
    "street": "2320 Capp Rd",
    "city": "Saint Paul",
    "state": "Minnesota",
    "postal_code": "55114-1251",
    "website_url": "http://www.bangbrewing.com",
    "phone": "6512432264",
    "created_at": "2018-07-24 01:33:37.79225",
    "updated_at": "2018-08-11 21:37:59.250107",
    "country": "United States",
    "longitude": "",
    "latitude": "",
    "tags": []
  },
  {
    "id": "blackstack-brewing",
    "name": "BlackStack Brewing",
    "brewery_type": "micro",
    "street": "755 Prior Ave N Ste 110",
    "city": "Saint Paul",
    "state": "Minnesota",
    "postal_code": "55104-1064",
    "website_url": "http://www.blackstackbrewing.com",
    "phone": "6123692932",
    "created_at": "2018-07-24 01:33:37.997261",
    "updated_at": "2018-08-11 21:37:59.958573",
    "country": "United States",
    "longitude": "",
    "latitude": "",
    "tags": []
  },
  {
    "id": "bad-weather-brewing-llc",
    "name": "Bad Weather Brewing LLC",
    "brewery_type": "micro",
    "street": "414 7th St W",
    "city": "Saint Paul",
    "state": "Minnesota",
    "postal_code": "55102-2733",
    "website_url": "http://www.badweatherbrewery.com",
    "phone": "6512076627",
    "created_at": "2018-07-24 01:33:37.75485",
    "updated_at": "2018-08-24 00:44:48.717967",
    "country": "United States",
    "longitude": "-93.1655001",
    "latitude": "44.9040455",
    "tags": []
  },
  {
    "id": "brewery-in-planning-saint-paul-mn",
    "name": "Brewery In Planning - Saint Paul MN",
    "brewery_type": "planning",
    "street": "",
    "city": "Saint Paul",
    "state": "Minnesota",
    "postal_code": "55129-6922",
    "website_url": "",
    "phone": "",
    "created_at": "2018-07-24 01:33:38.145718",
    "updated_at": "2018-08-11 21:38:00.770068",
    "country": "United States",
    "longitude": "",
    "latitude": "",
    "tags": []
  },
  {
    "id": "burning-brothers-brewing",
    "name": "Burning Brothers Brewing",
    "brewery_type": "micro",
    "street": "1750 Thomas Ave Ste 2",
    "city": "Saint Paul",
    "state": "Minnesota",
    "postal_code": "55104-2918",
    "website_url": "http://burnbrosbrew.com",
    "phone": "6514448882",
    "created_at": "2018-07-24 01:33:38.171612",
    "updated_at": "2018-08-11 21:38:00.894776",
    "country": "United States",
    "longitude": "",
    "latitude": "",
    "tags": []
  },
  {
    "id": "granite-city-food-and-brewery-#17",
    "name": "Granite City Food & Brewery (#17)",
    "brewery_type": "brewpub",
    "street": "1595 Highway 36 W Ste 1005",
    "city": "Saint Paul",
    "state": "Minnesota",
    "postal_code": "55113-1092",
    "website_url": "http://www.gcfb.net",
    "phone": "6512093500",
    "created_at": "2018-07-24 01:33:38.647478",
    "updated_at": "2018-08-11 21:38:02.370602",
    "country": "United States",
    "longitude": "",
    "latitude": "",
    "tags": []
  },
  {
    "id": "dual-citizen-brewing-co",
    "name": "Dual Citizen Brewing Co.",
    "brewery_type": "micro",
    "street": "725 Raymond Ave",
    "city": "Saint Paul",
    "state": "Minnesota",
    "postal_code": "55114-1709",
    "website_url": "http://www.dualcitizenbrewing.com",
    "phone": "6513304750",
    "created_at": "2018-07-24 01:33:38.325142",
    "updated_at": "2018-08-24 00:45:05.817645",
    "country": "United States",
    "longitude": "-93.1978006",
    "latitude": "44.9631096",
    "tags": []
  },
  {
    "id": "fair-state-brewing-cooperative-st-paul",
    "name": "Fair State Brewing Cooperative - St. Paul",
    "brewery_type": "micro",
    "street": "2075 Ellis Ave",
    "city": "Saint Paul",
    "state": "Minnesota",
    "postal_code": "55114-1308",
    "website_url": "",
    "phone": "6124443209",
    "created_at": "2018-07-24 01:33:38.402232",
    "updated_at": "2018-08-24 00:45:08.741267",
    "country": "United States",
    "longitude": "-93.1882212916667",
    "latitude": "44.966033875",
    "tags": []
  },
  {
    "id": "game-on-brewing",
    "name": "Game On Brewing",
    "brewery_type": "contract",
    "street": "1999 Shepard Rd",
    "city": "Saint Paul",
    "state": "Minnesota",
    "postal_code": "55116-3210",
    "website_url": "",
    "phone": "",
    "created_at": "2018-07-24 01:33:38.530966",
    "updated_at": "2018-08-24 00:45:13.657098",
    "country": "United States",
    "longitude": "-93.153604",
    "latitude": "44.90528",
    "tags": []
  },
  {
    "id": "great-waters-brewing-company",
    "name": "Great Waters Brewing Company",
    "brewery_type": "brewpub",
    "street": "426 Saint Peter St",
    "city": "Saint Paul",
    "state": "Minnesota",
    "postal_code": "55102-1105",
    "website_url": "http://www.greatwatersbc.com",
    "phone": "6512242739",
    "created_at": "2018-07-24 01:33:38.674139",
    "updated_at": "2018-08-24 00:45:17.992601",
    "country": "United States",
    "longitude": "-93.096926",
    "latitude": "44.94672",
    "tags": []
  },
  {
    "id": "joseph-wolf-brewing-company",
    "name": "Joseph Wolf Brewing Company",
    "brewery_type": "contract",
    "street": "85 7th Pl E Ste 200",
    "city": "Saint Paul",
    "state": "Minnesota",
    "postal_code": "55101-2143",
    "website_url": "http://www.josephwolfbrewing.com",
    "phone": "6127519422",
    "created_at": "2018-07-24 01:33:38.897603",
    "updated_at": "2018-08-11 21:38:03.03751",
    "country": "United States",
    "longitude": "",
    "latitude": "",
    "tags": []
  },
  {
    "id": "lake-monster-brewing",
    "name": "Lake Monster Brewing",
    "brewery_type": "micro",
    "street": "550 Vandalia St Ste 160",
    "city": "Saint Paul",
    "state": "Minnesota",
    "postal_code": "55114-1997",
    "website_url": "",
    "phone": "",
    "created_at": "2018-07-24 01:33:38.983854",
    "updated_at": "2018-08-24 00:45:27.992348",
    "country": "United States",
    "longitude": "-93.1907182857143",
    "latitude": "44.9592757755102",
    "tags": []
  },
  {
    "id": "stacked-deck-brewing",
    "name": "Stacked Deck Brewing",
    "brewery_type": "planning",
    "street": "",
    "city": "Saint Paul",
    "state": "Minnesota",
    "postal_code": "55101-1712",
    "website_url": "http://www.stackeddeckbrewing.com",
    "phone": "6512145448",
    "created_at": "2018-07-24 01:33:39.604631",
    "updated_at": "2018-08-11 21:38:04.760287",
    "country": "United States",
    "longitude": "",
    "latitude": "",
    "tags": []
  },
  {
    "id": "tin-whiskers-brewing",
    "name": "Tin Whiskers Brewing",
    "brewery_type": "micro",
    "street": "125 9th St E Unit 127",
    "city": "Saint Paul",
    "state": "Minnesota",
    "postal_code": "55101-2308",
    "website_url": "",
    "phone": "",
    "created_at": "2018-07-24 01:33:39.765796",
    "updated_at": "2018-08-11 21:38:05.14482",
    "country": "United States",
    "longitude": "",
    "latitude": "",
    "tags": []
  },
  {
    "id": "saint-croix-beer-co-dba-saint-croix-brewing-co",
    "name": "Saint Croix Beer Co. DBA Saint Croix Brewing Co.",
    "brewery_type": "contract",
    "street": "363 Webster St",
    "city": "Saint Paul",
    "state": "Minnesota",
    "postal_code": "55102-3651",
    "website_url": "http://www.stcroixbeer.com",
    "phone": "6513870708",
    "created_at": "2018-07-24 01:33:39.516585",
    "updated_at": "2018-08-24 00:45:44.288818",
    "country": "United States",
    "longitude": "-93.1245499387755",
    "latitude": "44.9312807346939",
    "tags": []
  },
  {
    "id": "summit-brewing-co",
    "name": "Summit Brewing Co",
    "brewery_type": "regional",
    "street": "910 Montreal Cir",
    "city": "Saint Paul",
    "state": "Minnesota",
    "postal_code": "55102-4246",
    "website_url": "http://www.summitbrewing.com",
    "phone": "6512657800",
    "created_at": "2018-07-24 01:33:39.642343",
    "updated_at": "2018-08-24 00:45:48.393961",
    "country": "United States",
    "longitude": "-93.1395980785081",
    "latitude": "44.91398765",
    "tags": []
  },
  {
    "id": "urban-growler-brewing-co",
    "name": "Urban Growler Brewing Co",
    "brewery_type": "brewpub",
    "street": "2325 Endicott St",
    "city": "Saint Paul",
    "state": "Minnesota",
    "postal_code": "55114-1223",
    "website_url": "http://www.urbangrowlerbrewing.com",
    "phone": "6513405793",
    "created_at": "2018-07-24 01:33:39.866239",
    "updated_at": "2018-08-24 00:45:55.609067",
    "country": "United States",
    "longitude": "-93.192847660615",
    "latitude": "44.9701392",
    "tags": []
  },
  {
    "id": "waldmann-brewery-and-wurstery",
    "name": "Waldmann Brewery & Wurstery",
    "brewery_type": "brewpub",
    "street": "445 Smith Ave N",
    "city": "Saint Paul",
    "state": "Minnesota",
    "postal_code": "55102-2725",
    "website_url": "http://www.waldmannbrewery.com",
    "phone": "6512221857",
    "created_at": "2018-07-24 01:33:39.992104",
    "updated_at": "2018-08-11 21:38:05.599938",
    "country": "United States",
    "longitude": "",
    "latitude": "",
    "tags": []
  },
  {
    "id": "flat-earth-brewing-co",
    "name": "Flat Earth Brewing Co",
    "brewery_type": "micro",
    "street": "688 Minnehaha Ave E",
    "city": "Saint Paul",
    "state": "Minnesota",
    "postal_code": "55106-4462",
    "website_url": "http://www.flatearthbrewing.com",
    "phone": "6516981945",
    "created_at": "2018-07-24 01:33:38.440972",
    "updated_at": "2018-08-24 00:45:10.090677",
    "country": "United States",
    "longitude": "-93.0704208181818",
    "latitude": "44.9629424545455",
    "tags": []
  },
  {
    "id": "wabasha-brewing-company",
    "name": "Wabasha Brewing Company",
    "brewery_type": "micro",
    "street": "429 Wabasha St S",
    "city": "Saint Paul",
    "state": "Minnesota",
    "postal_code": "55107-1126",
    "website_url": "http://www.wabashabrewing.com",
    "phone": "6512242102",
    "created_at": "2018-07-24 01:33:39.961727",
    "updated_at": "2018-08-24 00:45:58.083845",
    "country": "United States",
    "longitude": "-93.084728925",
    "latitude": "44.93295265",
    "tags": []
  }
]