[
  {
    "id": "dynasty-brewing-company",
    "name": "Dynasty Brewing Company",
    "brewery_type": "planning",
    "street": "",
    "city": "Ashburn",
    "state": "Virginia",
    "postal_code": "20147",
    "website_url": "http://www.dynastybrewing.com",
    "phone": "7037279229",
    "created_at": "2018-07-24 01:34:25.165753",
    "updated_at": "2018-08-11 21:40:04.878341",
    "country": "United States",
    "longitude": "",
    "latitude": "",
    "tags": []
  },
  {
    "id": "grey-tower-brewing",
    "name": "Grey Tower Brewing",
    "brewery_type": "planning",
    "street": "",
    "city": "Ashburn",
    "state": "Virginia",
    "postal_code": "20147-5433",
    "website_url": "",
    "phone": "7032093107",
    "created_at": "2018-07-24 01:34:25.484723",
    "updated_at": "2018-08-11 21:40:05.540699",
    "country": "United States",
    "longitude": "",
    "latitude": "",
    "tags": []
  },
  {
    "id": "house-6-brewing",
    "name": "House 6 Brewing",
    "brewery_type": "planning",
    "street": "",
    "city": "Ashburn",
    "state": "Virginia",
    "postal_code": "20147",
    "website_url": "http://www.house6brewing.com",
    "phone": "5855205710",
    "created_at": "2018-07-24 01:34:25.72292",
    "updated_at": "2018-08-11 21:40:06.118089",
    "country": "United States",
    "longitude": "",
    "latitude": "",
    "tags": []
  },
  {
    "id": "lost-rhino-brewing-co",
    "name": "Lost Rhino Brewing Co",
    "brewery_type": "micro",
    "street": "21730 Red Rum Dr Ste 142",
    "city": "Ashburn",
    "state": "Virginia",
    "postal_code": "20147-5870",
    "website_url": "http://www.lostrhino.com",
    "phone": "5712912083",
    "created_at": "2018-07-24 01:34:25.932205",
    "updated_at": "2018-08-24 16:29:29.689524",
    "country": "United States",
    "longitude": "-77.4767343639914",
    "latitude": "39.0156440931577",
    "tags": []
  },
  {
    "id": "old-ox-brewery-llc",
    "name": "Old Ox Brewery LLC",
    "brewery_type": "micro",
    "street": "44652 Guilford Dr Ste 114",
    "city": "Ashburn",
    "state": "Virginia",
    "postal_code": "20147-6006",
    "website_url": "http://www.oldoxbrewery.com",
    "phone": "7037298375",
    "created_at": "2018-07-24 01:34:26.240621",
    "updated_at": "2018-08-24 16:29:54.867745",
    "country": "United States",
    "longitude": "-77.4560803103224",
    "latitude": "39.0222636767808",
    "tags": []
  },
  {
    "id": "the-craft-of-brewing",
    "name": "The Craft Of Brewing",
    "brewery_type": "micro",
    "street": "21140 Ashburn Crossing Drive, Suite 170",
    "city": "Ashburn",
    "state": "Virginia",
    "postal_code": "20147",
    "website_url": "http://www.thecraftob.com",
    "phone": "7036873932",
    "created_at": "2018-07-24 01:34:27.089152",
    "updated_at": "2018-08-11 21:40:09.965786",
    "country": "United States",
    "longitude": "",
    "latitude": "",
    "tags": []
  }
]