[
  {
    "id": "ono-brewing-company",
    "name": "Ono Brewing Company",
    "brewery_type": "micro",
    "street": "4520 Daly Dr Ste 102",
    "city": "Chantilly",
    "state": "Virginia",
    "postal_code": "20151-3735",
    "website_url": "http://www.onobrewco.com",
    "phone": "5714096662",
    "created_at": "2018-07-24 01:34:26.286001",
    "updated_at": "2018-08-24 16:29:59.425651",
    "country": "United States",
    "longitude": "-77.4437006339208",
    "latitude": "38.8832787522685",
    "tags": []
  },
  {
    "id": "jurnee-brewing-company",
    "name": "Jurnee Brewing Company",
    "brewery_type": "planning",
    "street": "",
    "city": "Chantilly",
    "state": "Virginia",
    "postal_code": "20152-2075",
    "website_url": "http://www.jurneebeers.com",
    "phone": "",
    "created_at": "2018-07-24 01:34:25.790069",
    "updated_at": "2018-08-11 21:40:06.26971",
    "country": "United States",
    "longitude": "",
    "latitude": "",
    "tags": []
  },
  {
    "id": "mustang-sally-brewing-co",
    "name": "Mustang Sally Brewing Co",
    "brewery_type": "micro",
    "street": "14140 Parke Long Ct # A-C",
    "city": "Chantilly",
    "state": "Virginia",
    "postal_code": "20151-4009",
    "website_url": "http://www.msbrewing.com",
    "phone": "7033787450",
    "created_at": "2018-07-24 01:34:26.092426",
    "updated_at": "2018-08-11 21:40:07.079604",
    "country": "United States",
    "longitude": "",
    "latitude": "",
    "tags": []
  }
]