[
  {
    "id": "reason-beer",
    "name": "Reason Beer",
    "brewery_type": "micro",
    "street": "1180 Seminole Trl Ste 290",
    "city": "Charlottesville",
    "state": "Virginia",
    "postal_code": "22901-5713",
    "website_url": "http://www.reasonbeer.com",
    "phone": "4342494572",
    "created_at": "2018-07-24 01:34:26.507552",
    "updated_at": "2018-08-24 16:30:18.922269",
    "country": "United States",
    "longitude": "-78.486033001597",
    "latitude": "38.0679283078808",
    "tags": []
  },
  {
    "id": "three-notchd-sour-house",
    "name": "Three Notch'd Sour House",
    "brewery_type": "micro",
    "street": "520 2nd St SE",
    "city": "Charlottesville",
    "state": "Virginia",
    "postal_code": "22902-5794",
    "website_url": "http://threenotchdbrewing.com/",
    "phone": "4349563141",
    "created_at": "2018-07-24 01:34:27.2124",
    "updated_at": "2018-08-24 16:31:21.98087",
    "country": "United States",
    "longitude": "-78.4820248",
    "latitude": "38.0261159",
    "tags": []
  },
  {
    "id": "three-notchd-brewing-company",
    "name": "Three Notch'd Brewing Company",
    "brewery_type": "micro",
    "street": "520 2nd St SE",
    "city": "Charlottesville",
    "state": "Virginia",
    "postal_code": "22902-5794",
    "website_url": "",
    "phone": "",
    "created_at": "2018-07-24 01:34:27.182028",
    "updated_at": "2018-08-24 16:31:18.943535",
    "country": "United States",
    "longitude": "-78.4820248",
    "latitude": "38.0261159",
    "tags": []
  },
  {
    "id": "hardywood-park-craft-brewery-charlottesville",
    "name": "Hardywood Park Craft Brewery-Charlottesville",
    "brewery_type": "micro",
    "street": "1000 W Main St",
    "city": "Charlottesville",
    "state": "Virginia",
    "postal_code": "22903-3277",
    "website_url": "",
    "phone": "4342343386",
    "created_at": "2018-07-24 01:34:25.573562",
    "updated_at": "2018-08-24 16:28:59.86394",
    "country": "United States",
    "longitude": "-78.4950551111111",
    "latitude": "38.0325762323232",
    "tags": []
  },
  {
    "id": "random-row-brewing-co",
    "name": "Random Row Brewing Co.",
    "brewery_type": "micro",
    "street": "608 Preston Ave",
    "city": "Charlottesville",
    "state": "Virginia",
    "postal_code": "22903-4566",
    "website_url": "http://www.randomrow.com",
    "phone": "4342848466",
    "created_at": "2018-07-24 01:34:26.492521",
    "updated_at": "2018-08-24 16:30:17.418399",
    "country": "United States",
    "longitude": "-78.4871203344393",
    "latitude": "38.03470505",
    "tags": []
  },
  {
    "id": "south-street-brewery",
    "name": "South Street Brewery",
    "brewery_type": "brewpub",
    "street": "106 W South St Ste 202",
    "city": "Charlottesville",
    "state": "Virginia",
    "postal_code": "22902-3600",
    "website_url": "http://www.southstreetbrewery.com",
    "phone": "4342936550",
    "created_at": "2018-07-24 01:34:26.848676",
    "updated_at": "2018-08-11 21:40:09.310169",
    "country": "United States",
    "longitude": "",
    "latitude": "",
    "tags": []
  },
  {
    "id": "champion-brewing-company",
    "name": "Champion Brewing Company",
    "brewery_type": "micro",
    "street": "324 6th St SE",
    "city": "Charlottesville",
    "state": "Virginia",
    "postal_code": "22902-5655",
    "website_url": "http://www.championbrewingcompany.com",
    "phone": "4342952739",
    "created_at": "2018-07-24 01:34:24.93722",
    "updated_at": "2018-08-24 16:28:09.908171",
    "country": "United States",
    "longitude": "-78.4784691",
    "latitude": "38.0277402",
    "tags": []
  }
]