[
  {
    "id": "6-bears-and-a-goat-brewing-company-llc",
    "name": "6 Bears & A Goat Brewing Company, LLC",
    "brewery_type": "brewpub",
    "street": "1140 International Pkwy",
    "city": "Fredericksburg",
    "state": "Virginia",
    "postal_code": "22406-1126",
    "website_url": "http://www.6bgbrewingco.com",
    "phone": "54035690562",
    "created_at": "2018-07-24 01:34:23.922246",
    "updated_at": "2018-08-11 21:40:01.250903",
    "country": "United States",
    "longitude": "",
    "latitude": "",
    "tags": []
  },
  {
    "id": "adventure-brewing-co",
    "name": "Adventure Brewing Co",
    "brewery_type": "micro",
    "street": "33 Perchwood Dr Ste 101",
    "city": "Fredericksburg",
    "state": "Virginia",
    "postal_code": "22405-4552",
    "website_url": "http://www.adventurebrewing.com",
    "phone": "5402428876",
    "created_at": "2018-07-24 01:34:23.95071",
    "updated_at": "2018-08-11 21:40:01.322939",
    "country": "United States",
    "longitude": "",
    "latitude": "",
    "tags": []
  },
  {
    "id": "adventure-south",
    "name": "Adventure South",
    "brewery_type": "brewpub",
    "street": "3300 Dill Smith Dr",
    "city": "Fredericksburg",
    "state": "Virginia",
    "postal_code": "22408-7319",
    "website_url": "http://www.adventurebrewing.com",
    "phone": "5403717799",
    "created_at": "2018-07-24 01:34:23.965001",
    "updated_at": "2018-08-11 21:40:01.353754",
    "country": "United States",
    "longitude": "",
    "latitude": "",
    "tags": []
  },
  {
    "id": "battlefield-brewing-co",
    "name": "Battlefield Brewing Co",
    "brewery_type": "brewpub",
    "street": "4187 Plank Rd",
    "city": "Fredericksburg",
    "state": "Virginia",
    "postal_code": "22407-4896",
    "website_url": "",
    "phone": "5407852164",
    "created_at": "2018-07-24 01:34:24.32386",
    "updated_at": "2018-08-11 21:40:02.273855",
    "country": "United States",
    "longitude": "",
    "latitude": "",
    "tags": []
  },
  {
    "id": "highmark-brewery",
    "name": "Highmark Brewery",
    "brewery_type": "micro",
    "street": "390 Kings Hwy",
    "city": "Fredericksburg",
    "state": "Virginia",
    "postal_code": "22405-3245",
    "website_url": "http://www.highmarkbrewery.com",
    "phone": "7633007575",
    "created_at": "2018-07-24 01:34:25.638677",
    "updated_at": "2018-08-24 16:29:05.769036",
    "country": "United States",
    "longitude": "-77.4551104",
    "latitude": "38.3053991",
    "tags": []
  },
  {
    "id": "maltese-brewing-company",
    "name": "Maltese Brewing Company",
    "brewery_type": "micro",
    "street": "11047 Pierson Dr Ste B",
    "city": "Fredericksburg",
    "state": "Virginia",
    "postal_code": "22408-2062",
    "website_url": "http://www.maltesebrewing.com",
    "phone": "5406424512",
    "created_at": "2018-07-24 01:34:25.996957",
    "updated_at": "2018-08-11 21:40:06.771785",
    "country": "United States",
    "longitude": "",
    "latitude": "",
    "tags": []
  },
  {
    "id": "red-dragon-brewery",
    "name": "Red Dragon Brewery",
    "brewery_type": "micro",
    "street": "1419 Princess Anne St",
    "city": "Fredericksburg",
    "state": "Virginia",
    "postal_code": "22401-3638",
    "website_url": "http://www.reddragonbrewery.com",
    "phone": "",
    "created_at": "2018-07-24 01:34:26.538357",
    "updated_at": "2018-08-24 16:30:20.39722",
    "country": "United States",
    "longitude": "-77.4631213673469",
    "latitude": "38.3073792653061",
    "tags": []
  },
  {
    "id": "spencer-devon-brewing",
    "name": "Spencer Devon Brewing",
    "brewery_type": "brewpub",
    "street": "106 George St",
    "city": "Fredericksburg",
    "state": "Virginia",
    "postal_code": "22401-5863",
    "website_url": "http://www.spencerdevonbrewing.com",
    "phone": "5404798381",
    "created_at": "2018-07-24 01:34:26.861137",
    "updated_at": "2018-08-24 16:30:47.419903",
    "country": "United States",
    "longitude": "-77.4587704034307",
    "latitude": "38.3027252276766",
    "tags": []
  },
  {
    "id": "strangeways-brewing-fxbg",
    "name": "Strangeways Brewing - FXBG",
    "brewery_type": "micro",
    "street": "350 Lansdowne Rd",
    "city": "Fredericksburg",
    "state": "Virginia",
    "postal_code": "22401-7351",
    "website_url": "",
    "phone": "8043034336",
    "created_at": "2018-07-24 01:34:26.969314",
    "updated_at": "2018-08-24 16:30:58.143277",
    "country": "United States",
    "longitude": "-77.4562531619945",
    "latitude": "38.27297555",
    "tags": []
  }
]