[
  {
    "id": "bull-island-brewing-company",
    "name": "Bull Island Brewing Company",
    "brewery_type": "brewpub",
    "street": "758 Settlers Landing Rd",
    "city": "Hampton",
    "state": "Virginia",
    "postal_code": "23669-4035",
    "website_url": "http://www.bullislandbrewing.com",
    "phone": "7577889489",
    "created_at": "2018-07-24 01:34:24.834478",
    "updated_at": "2018-08-24 16:28:00.661896",
    "country": "United States",
    "longitude": "-76.3420654545455",
    "latitude": "37.0248734545455",
    "tags": []
  },
  {
    "id": "capstan-bar-brewing-company",
    "name": "Capstan Bar Brewing Company",
    "brewery_type": "micro",
    "street": "2036 Exploration Way",
    "city": "Hampton",
    "state": "Virginia",
    "postal_code": "23666-6260",
    "website_url": "http://www.capstanbarbrewing.com",
    "phone": "7577887276",
    "created_at": "2018-07-24 01:34:24.885347",
    "updated_at": "2018-08-24 16:28:06.950503",
    "country": "United States",
    "longitude": "-76.3994756",
    "latitude": "37.082339",
    "tags": []
  },
  {
    "id": "the-st-george-brewing-company",
    "name": "The St. George Brewing Company",
    "brewery_type": "micro",
    "street": "204 Challenger Way",
    "city": "Hampton",
    "state": "Virginia",
    "postal_code": "23666-1365",
    "website_url": "http://www.stgbeer.com",
    "phone": "7578657781",
    "created_at": "2018-07-24 01:34:27.126872",
    "updated_at": "2018-08-24 16:31:13.023916",
    "country": "United States",
    "longitude": "-76.3944219405428",
    "latitude": "37.09992525",
    "tags": []
  },
  {
    "id": "the-vanguard-brewpub-and-distillery",
    "name": "The Vanguard Brewpub & Distillery",
    "brewery_type": "brewpub",
    "street": "504 N King St",
    "city": "Hampton",
    "state": "Virginia",
    "postal_code": "23669-3057",
    "website_url": "http://www.thevanguard757.com",
    "phone": "7576408100",
    "created_at": "2018-07-24 01:34:27.141198",
    "updated_at": "2018-08-24 16:31:14.481786",
    "country": "United States",
    "longitude": "-76.3453830398701",
    "latitude": "37.03124955",
    "tags": []
  }
]