[
  {
    "id": "restless-moons-brewing",
    "name": "Restless Moons Brewing",
    "brewery_type": "micro",
    "street": "120 W Wolfe St",
    "city": "Harrisonburg",
    "state": "Virginia",
    "postal_code": "22802-3815",
    "website_url": "http://www.restlessmoons.com",
    "phone": "5402172726",
    "created_at": "2018-07-24 01:34:26.568426",
    "updated_at": "2018-08-24 16:30:23.497352",
    "country": "United States",
    "longitude": "-78.870847259293",
    "latitude": "38.4518952234726",
    "tags": []
  },
  {
    "id": "brothers-craft-brewing",
    "name": "Brothers Craft Brewing",
    "brewery_type": "micro",
    "street": "800 N Main St",
    "city": "Harrisonburg",
    "state": "Virginia",
    "postal_code": "22802-4625",
    "website_url": "http://www.brotherscraftbrewing.com",
    "phone": "5404216599",
    "created_at": "2018-07-24 01:34:24.796819",
    "updated_at": "2018-08-24 16:27:55.867656",
    "country": "United States",
    "longitude": "-78.861099",
    "latitude": "38.45757",
    "tags": []
  },
  {
    "id": "three-notchd-valley-collab-house",
    "name": "Three Notch'd Valley Collab House",
    "brewery_type": "micro",
    "street": "241 E Market St",
    "city": "Harrisonburg",
    "state": "Virginia",
    "postal_code": "22801",
    "website_url": "",
    "phone": "4342930610",
    "created_at": "2018-07-24 01:34:27.227569",
    "updated_at": "2018-08-24 16:31:23.49724",
    "country": "United States",
    "longitude": "-78.8654965",
    "latitude": "38.4487621",
    "tags": []
  },
  {
    "id": "pale-fire-brewing-co",
    "name": "Pale Fire Brewing Co",
    "brewery_type": "micro",
    "street": "217 S Liberty St Ste 105",
    "city": "Harrisonburg",
    "state": "Virginia",
    "postal_code": "22801-3675",
    "website_url": "http://www.palefirebrewing.com",
    "phone": "5402175452",
    "created_at": "2018-07-24 01:34:26.318093",
    "updated_at": "2018-08-11 21:40:07.864275",
    "country": "United States",
    "longitude": "",
    "latitude": "",
    "tags": []
  }
]