[
  {
    "id": "loudoun-brewing-co",
    "name": "Loudoun Brewing Co",
    "brewery_type": "micro",
    "street": "310 E Market St",
    "city": "Leesburg",
    "state": "Virginia",
    "postal_code": "20176-4101",
    "website_url": "http://www.loudounbrewing.com",
    "phone": "5712236097",
    "created_at": "2018-07-24 01:34:25.945388",
    "updated_at": "2018-08-24 16:29:31.276306",
    "country": "United States",
    "longitude": "-77.532576",
    "latitude": "39.09743",
    "tags": []
  },
  {
    "id": "bike-trale-brewing",
    "name": "Bike TrAle Brewing",
    "brewery_type": "micro",
    "street": "101 Loudoun St SE",
    "city": "Leesburg",
    "state": "Virginia",
    "postal_code": "20175-3106",
    "website_url": "http://www.BikeTrAleBrewing.com",
    "phone": "5712930050",
    "created_at": "2018-07-24 01:34:24.486785",
    "updated_at": "2018-08-24 16:27:35.587664",
    "country": "United States",
    "longitude": "-77.562422",
    "latitude": "39.113418",
    "tags": []
  },
  {
    "id": "dog-money-restaurant",
    "name": "Dog Money Restaurant",
    "brewery_type": "brewpub",
    "street": "50 Catoctin Cir NE STE 100",
    "city": "Leesburg",
    "state": "Virginia",
    "postal_code": "20176-3102",
    "website_url": "http://dogmoneyllc.com",
    "phone": "7035775452",
    "created_at": "2018-07-24 01:34:25.129925",
    "updated_at": "2018-08-11 21:40:04.779335",
    "country": "United States",
    "longitude": "",
    "latitude": "",
    "tags": []
  },
  {
    "id": "bird-brain-brewing-company",
    "name": "Bird Brain Brewing Company",
    "brewery_type": "contract",
    "street": "435 Nikki Ter SE",
    "city": "Leesburg",
    "state": "Virginia",
    "postal_code": "20175-8962",
    "website_url": "",
    "phone": "",
    "created_at": "2018-07-24 01:34:24.523262",
    "updated_at": "2018-08-24 16:27:38.792083",
    "country": "United States",
    "longitude": "-77.5434836756757",
    "latitude": "39.0938948918919",
    "tags": []
  },
  {
    "id": "black-hoof-brewing",
    "name": "Black Hoof Brewing",
    "brewery_type": "micro",
    "street": "11 S King St",
    "city": "Leesburg",
    "state": "Virginia",
    "postal_code": "20175-2903",
    "website_url": "",
    "phone": "5717078014",
    "created_at": "2018-07-24 01:34:24.536546",
    "updated_at": "2018-08-24 16:27:40.395787",
    "country": "United States",
    "longitude": "-77.5648925",
    "latitude": "39.1150351",
    "tags": []
  },
  {
    "id": "black-walnut-brewery",
    "name": "Black Walnut Brewery",
    "brewery_type": "micro",
    "street": "210 S King St",
    "city": "Leesburg",
    "state": "Virginia",
    "postal_code": "20175-3010",
    "website_url": "",
    "phone": "7037719474",
    "created_at": "2018-07-24 01:34:24.561898",
    "updated_at": "2018-08-24 16:27:43.431211",
    "country": "United States",
    "longitude": "-77.5649731",
    "latitude": "39.1127558",
    "tags": []
  },
  {
    "id": "crooked-run-brewing",
    "name": "Crooked Run Brewing",
    "brewery_type": "micro",
    "street": "205 Harrison St SE",
    "city": "Leesburg",
    "state": "Virginia",
    "postal_code": "20175-3702",
    "website_url": "http://crookedrunbrewing.com",
    "phone": "5713752652",
    "created_at": "2018-07-24 01:34:25.065619",
    "updated_at": "2018-08-24 16:28:20.525081",
    "country": "United States",
    "longitude": "-77.5628708468129",
    "latitude": "39.1122678111719",
    "tags": []
  },
  {
    "id": "vanish-farmwoods-brewery",
    "name": "Vanish Farmwoods Brewery",
    "brewery_type": "brewpub",
    "street": "42245  Black Hops Ln",
    "city": "Leesburg",
    "state": "Virginia",
    "postal_code": "20176-5498",
    "website_url": "http://vanishbeer.com",
    "phone": "7037797407",
    "created_at": "2018-07-24 01:34:27.376381",
    "updated_at": "2018-08-11 21:40:10.665693",
    "country": "United States",
    "longitude": "",
    "latitude": "",
    "tags": []
  },
  {
    "id": "barnhouse-brewery",
    "name": "Barnhouse Brewery",
    "brewery_type": "brewpub",
    "street": "43271 Spinks Ferry Rd",
    "city": "Leesburg",
    "state": "Virginia",
    "postal_code": "20176-5629",
    "website_url": "http://www.barnhousebrewery.com",
    "phone": "7036758480",
    "created_at": "2018-07-24 01:34:24.284055",
    "updated_at": "2018-08-11 21:40:02.154571",
    "country": "United States",
    "longitude": "",
    "latitude": "",
    "tags": []
  },
  {
    "id": "mud-hound-brewing-co-/-macdowell-brew-kitchen",
    "name": "Mud Hound Brewing Co / MacDowell Brew Kitchen",
    "brewery_type": "brewpub",
    "street": "202B Harrison St SE",
    "city": "Leesburg",
    "state": "Virginia",
    "postal_code": "20175-3701",
    "website_url": "http://www.macdowellbrewkitchen.com",
    "phone": "7037772739",
    "created_at": "2018-07-24 01:34:26.078473",
    "updated_at": "2018-08-24 16:29:43.114174",
    "country": "United States",
    "longitude": "-77.5626697770785",
    "latitude": "39.112216088058",
    "tags": []
  }
]