[
  {
    "id": "eavesdrop-brewery",
    "name": "Eavesdrop Brewery",
    "brewery_type": "micro",
    "street": "7223 Centreville Rd Ste 115",
    "city": "Manassas",
    "state": "Virginia",
    "postal_code": "20111",
    "website_url": "http://www.eavesdropbrewery.com",
    "phone": "7034208955",
    "created_at": "2018-07-24 01:34:25.177872",
    "updated_at": "2018-08-24 16:28:31.194946",
    "country": "United States",
    "longitude": "-77.469",
    "latitude": "38.752531",
    "tags": []
  },
  {
    "id": "2-silos-brewing-company",
    "name": "2 Silos Brewing Company",
    "brewery_type": "micro",
    "street": "9925 Discovery Blvd",
    "city": "Manassas",
    "state": "Virginia",
    "postal_code": "20109",
    "website_url": "http://www.2silosbrewing.com",
    "phone": "7034202257",
    "created_at": "2018-07-24 01:34:23.895591",
    "updated_at": "2018-08-11 21:40:01.159355",
    "country": "United States",
    "longitude": "",
    "latitude": "",
    "tags": []
  },
  {
    "id": "badwolf-brewing-company",
    "name": "BadWolf Brewing Company",
    "brewery_type": "micro",
    "street": "8420 Kao Cir",
    "city": "Manassas",
    "state": "Virginia",
    "postal_code": "20110-1728",
    "website_url": "http://www.badwolfbrewingcompany.com",
    "phone": "7034792305",
    "created_at": "2018-07-24 01:34:24.203837",
    "updated_at": "2018-08-11 21:40:01.886466",
    "country": "United States",
    "longitude": "",
    "latitude": "",
    "tags": []
  },
  {
    "id": "badwolf-brewing-company",
    "name": "BadWolf Brewing Company",
    "brewery_type": "micro",
    "street": "9776 Center St",
    "city": "Manassas",
    "state": "Virginia",
    "postal_code": "20110-4128",
    "website_url": "http://www.badwolfbrewingcompany.com",
    "phone": "5713589774",
    "created_at": "2018-07-24 01:34:24.21647",
    "updated_at": "2018-08-24 16:27:12.840725",
    "country": "United States",
    "longitude": "-77.4897205105518",
    "latitude": "38.7535618329234",
    "tags": []
  },
  {
    "id": "heritage-brewing-co",
    "name": "Heritage Brewing Co",
    "brewery_type": "micro",
    "street": "9436 Center Point Ln",
    "city": "Manassas",
    "state": "Virginia",
    "postal_code": "20110-1810",
    "website_url": "http://www.heritagebrews.com",
    "phone": "5712081355",
    "created_at": "2018-07-24 01:34:25.612332",
    "updated_at": "2018-08-24 16:29:04.311672",
    "country": "United States",
    "longitude": "-77.4884147646695",
    "latitude": "38.750750828148",
    "tags": []
  },
  {
    "id": "sinistral-brewing-company",
    "name": "Sinistral Brewing Company",
    "brewery_type": "micro",
    "street": "9419 Main St",
    "city": "Manassas",
    "state": "Virginia",
    "postal_code": "20110",
    "website_url": "http://www.sinistralbrewingcompany.com",
    "phone": "7036864575",
    "created_at": "2018-07-24 01:34:26.758453",
    "updated_at": "2018-08-24 16:30:38.454107",
    "country": "United States",
    "longitude": "-77.471427",
    "latitude": "38.7509952173913",
    "tags": []
  },
  {
    "id": "tucked-away-brewing",
    "name": "Tucked Away Brewing",
    "brewery_type": "planning",
    "street": "",
    "city": "Manassas",
    "state": "Virginia",
    "postal_code": "22010",
    "website_url": "",
    "phone": "9373712176",
    "created_at": "2018-07-24 01:34:27.308777",
    "updated_at": "2018-08-11 21:40:10.508861",
    "country": "United States",
    "longitude": "",
    "latitude": "",
    "tags": []
  },
  {
    "id": "woodbine-farm-brewery",
    "name": "Woodbine Farm Brewery",
    "brewery_type": "planning",
    "street": "",
    "city": "Manassas",
    "state": "Virginia",
    "postal_code": "20112",
    "website_url": "http://Woodbinefarmandbrewery.com",
    "phone": "5712057460",
    "created_at": "2018-07-24 01:34:27.548546",
    "updated_at": "2018-08-11 21:40:11.03254",
    "country": "United States",
    "longitude": "",
    "latitude": "",
    "tags": []
  },
  {
    "id": "public-house-kitchen-and-brewery",
    "name": "Public House Kitchen and Brewery",
    "brewery_type": "brewpub",
    "street": "9406 Battle St",
    "city": "Manassas",
    "state": "Virginia",
    "postal_code": "20110-5431",
    "website_url": "http://www.badwolfpublichouse.com",
    "phone": "5712921427",
    "created_at": "2018-07-24 01:34:26.449765",
    "updated_at": "2018-08-24 16:30:13.010226",
    "country": "United States",
    "longitude": "-77.4726206",
    "latitude": "38.7513396",
    "tags": []
  }
]