[
  {
    "id": "benchtop-brewing-company",
    "name": "Benchtop Brewing Company",
    "brewery_type": "micro",
    "street": "1129 Boissevain Ave",
    "city": "Norfolk",
    "state": "Virginia",
    "postal_code": "23507-1401",
    "website_url": "http://www.benchtopbrewing.com",
    "phone": "7573219482",
    "created_at": "2018-07-24 01:34:24.434918",
    "updated_at": "2018-08-24 16:27:30.947454",
    "country": "United States",
    "longitude": "-76.307422449495",
    "latitude": "36.8649338939394",
    "tags": []
  },
  {
    "id": "coelacanth-brewing",
    "name": "Coelacanth Brewing",
    "brewery_type": "micro",
    "street": "760A W 22nd St",
    "city": "Norfolk",
    "state": "Virginia",
    "postal_code": "23517-1925",
    "website_url": "http://www.coelacanth.com",
    "phone": "7573836438",
    "created_at": "2018-07-24 01:34:24.9737",
    "updated_at": "2018-08-24 16:28:14.451788",
    "country": "United States",
    "longitude": "-76.2956129193982",
    "latitude": "36.8716997746987",
    "tags": []
  },
  {
    "id": "elation-brewing",
    "name": "Elation Brewing",
    "brewery_type": "planning",
    "street": "",
    "city": "Norfolk",
    "state": "Virginia",
    "postal_code": "23508",
    "website_url": "",
    "phone": "7574696020",
    "created_at": "2018-07-24 01:34:25.191179",
    "updated_at": "2018-08-11 21:40:04.935342",
    "country": "United States",
    "longitude": "",
    "latitude": "",
    "tags": []
  },
  {
    "id": "makers-craft-brewery",
    "name": "Makers Craft Brewery",
    "brewery_type": "planning",
    "street": "",
    "city": "Norfolk",
    "state": "Virginia",
    "postal_code": "23504-1905",
    "website_url": "http://www.makers.beer",
    "phone": "7576249024",
    "created_at": "2018-07-24 01:34:25.984301",
    "updated_at": "2018-08-11 21:40:06.741292",
    "country": "United States",
    "longitude": "",
    "latitude": "",
    "tags": []
  },
  {
    "id": "ocean-view-community-brewing-co",
    "name": "Ocean View Community Brewing Co.",
    "brewery_type": "planning",
    "street": "",
    "city": "Norfolk",
    "state": "Virginia",
    "postal_code": "23503-4838",
    "website_url": "",
    "phone": "7576514170",
    "created_at": "2018-07-24 01:34:26.158104",
    "updated_at": "2018-08-11 21:40:07.315742",
    "country": "United States",
    "longitude": "",
    "latitude": "",
    "tags": []
  },
  {
    "id": "oconnor-brewing-co",
    "name": "O'Connor Brewing Co",
    "brewery_type": "micro",
    "street": "211 W 24th St",
    "city": "Norfolk",
    "state": "Virginia",
    "postal_code": "23517-1303",
    "website_url": "http://www.oconnorbrewing.com",
    "phone": "7576520059",
    "created_at": "2018-07-24 01:34:26.18564",
    "updated_at": "2018-08-24 16:29:50.532896",
    "country": "United States",
    "longitude": "-76.2862508804195",
    "latitude": "36.8697822",
    "tags": []
  },
  {
    "id": "rip-rap-brewing-company",
    "name": "Rip Rap Brewing Company",
    "brewery_type": "micro",
    "street": "116 E 25th St",
    "city": "Norfolk",
    "state": "Virginia",
    "postal_code": "23517-1408",
    "website_url": "http://www.riprapbrewing.com",
    "phone": "",
    "created_at": "2018-07-24 01:34:26.658543",
    "updated_at": "2018-08-24 16:30:28.075692",
    "country": "United States",
    "longitude": "-76.2831093683924",
    "latitude": "36.8703271",
    "tags": []
  },
  {
    "id": "the-bold-mariner-brewing-company",
    "name": "The Bold Mariner Brewing Company",
    "brewery_type": "micro",
    "street": "2409 Bowdens Ferry Rd",
    "city": "Norfolk",
    "state": "Virginia",
    "postal_code": "23508-2450",
    "website_url": "http://www.boldmariner.com",
    "phone": "",
    "created_at": "2018-07-24 01:34:27.075418",
    "updated_at": "2018-08-24 16:31:08.622899",
    "country": "United States",
    "longitude": "-76.3054279275104",
    "latitude": "36.87609575",
    "tags": []
  },
  {
    "id": "smartmouth-brewing-co",
    "name": "Smartmouth Brewing Co",
    "brewery_type": "micro",
    "street": "1309 Raleigh Ave Ste A",
    "city": "Norfolk",
    "state": "Virginia",
    "postal_code": "23507-1367",
    "website_url": "http://www.smartmouthbrewing.com",
    "phone": "7576243939",
    "created_at": "2018-07-24 01:34:26.786017",
    "updated_at": "2018-08-11 21:40:09.050025",
    "country": "United States",
    "longitude": "",
    "latitude": "",
    "tags": []
  }
]