[
  {
    "id": "belly-love-brewing-company",
    "name": "Belly Love Brewing Company",
    "brewery_type": "brewpub",
    "street": "725 E Main St",
    "city": "Purcellville",
    "state": "Virginia",
    "postal_code": "20132-3178",
    "website_url": "http://www.bellylovebrewing.com",
    "phone": "5404413159",
    "created_at": "2018-07-24 01:34:24.396851",
    "updated_at": "2018-08-24 16:27:27.910048",
    "country": "United States",
    "longitude": "-77.7015903",
    "latitude": "39.1364247",
    "tags": []
  },
  {
    "id": "jacks-run-brewing-co",
    "name": "Jack's Run Brewing Co",
    "brewery_type": "micro",
    "street": "108 North 21st Street",
    "city": "Purcellville",
    "state": "Virginia",
    "postal_code": "20132",
    "website_url": "http://www.jacksrunbrewing.com",
    "phone": "5404413382",
    "created_at": "2018-07-24 01:34:25.762661",
    "updated_at": "2018-08-24 16:29:14.790817",
    "country": "United States",
    "longitude": "-77.7149118539252",
    "latitude": "39.13704895",
    "tags": []
  },
  {
    "id": "adroit-theory-brewing-company",
    "name": "Adroit Theory Brewing Company",
    "brewery_type": "micro",
    "street": "404 Browning Ct Unit C",
    "city": "Purcellville",
    "state": "Virginia",
    "postal_code": "20132-6171",
    "website_url": "http://www.adroit-theory.com",
    "phone": "7034340553",
    "created_at": "2018-07-24 01:34:23.935541",
    "updated_at": "2018-08-11 21:40:01.279144",
    "country": "United States",
    "longitude": "",
    "latitude": "",
    "tags": []
  },
  {
    "id": "dragon-hops-brewing",
    "name": "Dragon Hops Brewing",
    "brewery_type": "micro",
    "street": "130 E Main St",
    "city": "Purcellville",
    "state": "Virginia",
    "postal_code": "20132-3162",
    "website_url": "http://www.dragonhopsbrewing.com",
    "phone": "5404413279",
    "created_at": "2018-07-24 01:34:25.141893",
    "updated_at": "2018-08-24 16:28:29.597849",
    "country": "United States",
    "longitude": "-77.69298485",
    "latitude": "39.1360524",
    "tags": []
  },
  {
    "id": "hillsborough-farm-brewery-/-hillsborough-vineyards",
    "name": "Hillsborough Farm Brewery / Hillsborough Vineyards",
    "brewery_type": "planning",
    "street": "",
    "city": "Purcellville",
    "state": "Virginia",
    "postal_code": "20132",
    "website_url": "",
    "phone": "",
    "created_at": "2018-07-24 01:34:25.65434",
    "updated_at": "2018-08-11 21:40:05.934342",
    "country": "United States",
    "longitude": "",
    "latitude": "",
    "tags": []
  },
  {
    "id": "old-690-brewing-co",
    "name": "Old 690 Brewing Co",
    "brewery_type": "brewpub",
    "street": "15670 Ashbury Church Rd",
    "city": "Purcellville",
    "state": "Virginia",
    "postal_code": "20132-2817",
    "website_url": "http://www.old690.com",
    "phone": "5406687023",
    "created_at": "2018-07-24 01:34:26.198951",
    "updated_at": "2018-08-11 21:40:07.42493",
    "country": "United States",
    "longitude": "",
    "latitude": "",
    "tags": []
  },
  {
    "id": "corcoran-brewing",
    "name": "Corcoran Brewing",
    "brewery_type": "micro",
    "street": "205 Hirst Rd Ste 105",
    "city": "Purcellville",
    "state": "Virginia",
    "postal_code": "20132-6199",
    "website_url": "http://www.corcoranbrewing.com",
    "phone": "5408829073",
    "created_at": "2018-07-24 01:34:25.040376",
    "updated_at": "2018-08-24 16:28:17.408081",
    "country": "United States",
    "longitude": "-77.713655866898",
    "latitude": "39.1439069257241",
    "tags": []
  }
]