[
  {
    "id": "triple-crossing-brewing-company",
    "name": "Triple Crossing Brewing Company",
    "brewery_type": "micro",
    "street": "113 S. Foushee St.",
    "city": "Richmond",
    "state": "Virginia",
    "postal_code": "23220-5616",
    "website_url": "http://www.triplecrossingbeer.com",
    "phone": "8043991780",
    "created_at": "2018-07-24 01:34:27.296328",
    "updated_at": "2018-08-24 16:31:31.017268",
    "country": "United States",
    "longitude": "-77.4455177",
    "latitude": "37.5415927",
    "tags": []
  },
  {
    "id": "ardent-craft-ales",
    "name": "Ardent Craft Ales",
    "brewery_type": "micro",
    "street": "3200 W Leigh St",
    "city": "Richmond",
    "state": "Virginia",
    "postal_code": "23230-4410",
    "website_url": "http://www.ardentcraftales.com",
    "phone": "8043591605",
    "created_at": "2018-07-24 01:34:24.048876",
    "updated_at": "2018-08-24 16:27:02.436257",
    "country": "United States",
    "longitude": "-77.4720123714015",
    "latitude": "37.5684425",
    "tags": []
  },
  {
    "id": "bingo-beer-company",
    "name": "Bingo Beer Company",
    "brewery_type": "planning",
    "street": "",
    "city": "Richmond",
    "state": "Virginia",
    "postal_code": "23230",
    "website_url": "",
    "phone": "8043975226",
    "created_at": "2018-07-24 01:34:24.51116",
    "updated_at": "2018-08-11 21:40:02.735607",
    "country": "United States",
    "longitude": "",
    "latitude": "",
    "tags": []
  },
  {
    "id": "brewery-in-planning-richmond",
    "name": "Brewery In Planning - Richmond",
    "brewery_type": "planning",
    "street": "",
    "city": "Richmond",
    "state": "Virginia",
    "postal_code": "23220-3905",
    "website_url": "",
    "phone": "",
    "created_at": "2018-07-24 01:34:24.703241",
    "updated_at": "2018-08-11 21:40:03.294571",
    "country": "United States",
    "longitude": "",
    "latitude": "",
    "tags": []
  },
  {
    "id": "brewery-in-planning-richmond",
    "name": "Brewery in Planning - Richmond",
    "brewery_type": "planning",
    "street": "",
    "city": "Richmond",
    "state": "Virginia",
    "postal_code": "23226-3821",
    "website_url": "",
    "phone": "2769201796",
    "created_at": "2018-07-24 01:34:24.715513",
    "updated_at": "2018-08-11 21:40:03.331009",
    "country": "United States",
    "longitude": "",
    "latitude": "",
    "tags": []
  },
  {
    "id": "castleburg-brewery",
    "name": "Castleburg Brewery",
    "brewery_type": "micro",
    "street": "1626 Ownby Ln",
    "city": "Richmond",
    "state": "Virginia",
    "postal_code": "23220-1317",
    "website_url": "http://www.castleburgbrewery.com",
    "phone": "8043531256",
    "created_at": "2018-07-24 01:34:24.897826",
    "updated_at": "2018-08-11 21:40:04.049204",
    "country": "United States",
    "longitude": "",
    "latitude": "",
    "tags": []
  },
  {
    "id": "canon-and-draw-brewing-company",
    "name": "Canon & Draw Brewing Company",
    "brewery_type": "micro",
    "street": "1527 W Main St",
    "city": "Richmond",
    "state": "Virginia",
    "postal_code": "23220",
    "website_url": "http://www.canonanddraw.beer",
    "phone": "",
    "created_at": "2018-07-24 01:34:24.860002",
    "updated_at": "2018-08-24 16:28:03.784156",
    "country": "United States",
    "longitude": "-77.4601285398759",
    "latitude": "37.5470789674866",
    "tags": []
  },
  {
    "id": "hardywood-park-craft-brewery",
    "name": "Hardywood Park Craft Brewery",
    "brewery_type": "micro",
    "street": "2408 Ownby Ln",
    "city": "Richmond",
    "state": "Virginia",
    "postal_code": "23220-1319",
    "website_url": "http://www.hardywood.com",
    "phone": "8044202420",
    "created_at": "2018-07-24 01:34:25.560333",
    "updated_at": "2018-08-11 21:40:05.712483",
    "country": "United States",
    "longitude": "",
    "latitude": "",
    "tags": []
  },
  {
    "id": "hardywood-west-creek",
    "name": "Hardywood West Creek",
    "brewery_type": "micro",
    "street": "820 Sanctuary Trail Dr",
    "city": "Richmond",
    "state": "Virginia",
    "postal_code": "23238",
    "website_url": "",
    "phone": "8044183548",
    "created_at": "2018-07-24 01:34:25.586599",
    "updated_at": "2018-08-11 21:40:05.774074",
    "country": "United States",
    "longitude": "",
    "latitude": "",
    "tags": []
  },
  {
    "id": "garden-grove-brewing-company",
    "name": "Garden Grove Brewing Company",
    "brewery_type": "micro",
    "street": "3445 W Cary St",
    "city": "Richmond",
    "state": "Virginia",
    "postal_code": "23221-2726",
    "website_url": "http://www.gardengrovebrewing.com",
    "phone": "8043386029",
    "created_at": "2018-07-24 01:34:25.359058",
    "updated_at": "2018-08-24 16:28:46.436847",
    "country": "United States",
    "longitude": "-77.4859799936413",
    "latitude": "37.5549502169569",
    "tags": []
  },
  {
    "id": "isley-brewing-company",
    "name": "Isley Brewing Company",
    "brewery_type": "micro",
    "street": "1715 Summit Ave",
    "city": "Richmond",
    "state": "Virginia",
    "postal_code": "23230-4515",
    "website_url": "http://www.isleybrewingcompany.com",
    "phone": "8047162132",
    "created_at": "2018-07-24 01:34:25.736009",
    "updated_at": "2018-08-24 16:29:11.819975",
    "country": "United States",
    "longitude": "-77.4683863143995",
    "latitude": "37.56890085",
    "tags": []
  },
  {
    "id": "legend-brewing-co",
    "name": "Legend Brewing Co",
    "brewery_type": "micro",
    "street": "321 W 7th St",
    "city": "Richmond",
    "state": "Virginia",
    "postal_code": "23224-2307",
    "website_url": "http://www.legendbrewing.com",
    "phone": "8042328871",
    "created_at": "2018-07-24 01:34:25.841433",
    "updated_at": "2018-08-24 16:29:20.655644",
    "country": "United States",
    "longitude": "-77.4429749",
    "latitude": "37.5266924",
    "tags": []
  },
  {
    "id": "rock-bottom-brewery-short-pump",
    "name": "Rock Bottom Brewery -Short Pump",
    "brewery_type": "brewpub",
    "street": "11800 W Broad St Ste 2098",
    "city": "Richmond",
    "state": "Virginia",
    "postal_code": "23233-7909",
    "website_url": "",
    "phone": "8042371684",
    "created_at": "2018-07-24 01:34:26.702367",
    "updated_at": "2018-08-11 21:40:08.803343",
    "country": "United States",
    "longitude": "",
    "latitude": "",
    "tags": []
  },
  {
    "id": "strangeways-brewing-rva",
    "name": "Strangeways Brewing - RVA",
    "brewery_type": "micro",
    "street": "2277 Dabney Rd Ste A",
    "city": "Richmond",
    "state": "Virginia",
    "postal_code": "23230-3335",
    "website_url": "http://strangewaysbrewing.com/",
    "phone": "8043034336",
    "created_at": "2018-07-24 01:34:26.982099",
    "updated_at": "2018-08-11 21:40:09.642212",
    "country": "United States",
    "longitude": "",
    "latitude": "",
    "tags": []
  },
  {
    "id": "tabol-brewing",
    "name": "Tabol Brewing",
    "brewery_type": "planning",
    "street": "",
    "city": "Richmond",
    "state": "Virginia",
    "postal_code": "23222",
    "website_url": "",
    "phone": "",
    "created_at": "2018-07-24 01:34:27.046795",
    "updated_at": "2018-08-11 21:40:09.838464",
    "country": "United States",
    "longitude": "",
    "latitude": "",
    "tags": []
  },
  {
    "id": "stone-brewing-co-richmond",
    "name": "Stone Brewing Co- Richmond",
    "brewery_type": "regional",
    "street": "4300 Williamsburg Ave",
    "city": "Richmond",
    "state": "Virginia",
    "postal_code": "23231-1225",
    "website_url": "",
    "phone": "8044895902",
    "created_at": "2018-07-24 01:34:26.94398",
    "updated_at": "2018-08-24 16:30:56.555853",
    "country": "United States",
    "longitude": "-77.414763",
    "latitude": "37.5241103",
    "tags": []
  },
  {
    "id": "the-answer-brewpub",
    "name": "The Answer Brewpub",
    "brewery_type": "brewpub",
    "street": "6008 W Broad St",
    "city": "Richmond",
    "state": "Virginia",
    "postal_code": "23230-2222",
    "website_url": "http://www.theanswerbrewpub.com",
    "phone": "8042821248",
    "created_at": "2018-07-24 01:34:27.059517",
    "updated_at": "2018-08-24 16:31:07.151604",
    "country": "United States",
    "longitude": "-77.5070979",
    "latitude": "37.5931962",
    "tags": []
  },
  {
    "id": "the-veil-brewing-company",
    "name": "The Veil Brewing Company",
    "brewery_type": "micro",
    "street": "1301 Roseneath Rd",
    "city": "Richmond",
    "state": "Virginia",
    "postal_code": "23230-4623",
    "website_url": "http://www.theveilbrewing.com",
    "phone": "",
    "created_at": "2018-07-24 01:34:27.156712",
    "updated_at": "2018-08-24 16:31:15.986969",
    "country": "United States",
    "longitude": "-77.4753435005256",
    "latitude": "37.56830695",
    "tags": []
  },
  {
    "id": "triple-crossing-brewing-company",
    "name": "Triple Crossing Brewing Company",
    "brewery_type": "brewpub",
    "street": "5203 Hatcher St",
    "city": "Richmond",
    "state": "Virginia",
    "postal_code": "23231-3199",
    "website_url": "http://www.triplecrossingbeer.com",
    "phone": "8044951955",
    "created_at": "2018-07-24 01:34:27.283392",
    "updated_at": "2018-08-24 16:31:29.520081",
    "country": "United States",
    "longitude": "-77.4075256686717",
    "latitude": "37.5129619428572",
    "tags": []
  },
  {
    "id": "twisted-ales-craft-brewing-co",
    "name": "Twisted Ales Craft Brewing Co.",
    "brewery_type": "micro",
    "street": "212 W 6th St",
    "city": "Richmond",
    "state": "Virginia",
    "postal_code": "23224-2349",
    "website_url": "http://www.twistedales.com",
    "phone": "8042309439",
    "created_at": "2018-07-24 01:34:27.350075",
    "updated_at": "2018-08-24 16:31:35.71311",
    "country": "United States",
    "longitude": "-77.4420409",
    "latitude": "37.5259842",
    "tags": []
  },
  {
    "id": "vasen-brewing-company",
    "name": "Vasen Brewing Company",
    "brewery_type": "micro",
    "street": "3331 Moore St",
    "city": "Richmond",
    "state": "Virginia",
    "postal_code": "23230-4423",
    "website_url": "http://www.vasenbrewing.com",
    "phone": "8045885678",
    "created_at": "2018-07-24 01:34:27.391519",
    "updated_at": "2018-08-24 16:31:38.684972",
    "country": "United States",
    "longitude": "-77.4517779",
    "latitude": "37.5574905",
    "tags": []
  },
  {
    "id": "kindred-spirit-brewing",
    "name": "Kindred Spirit Brewing",
    "brewery_type": "brewpub",
    "street": "12830 West Creek Pkwy Ste J",
    "city": "Richmond",
    "state": "Virginia",
    "postal_code": "23238-1126",
    "website_url": "http://www.kindredspiritbrewing.com",
    "phone": "8047080309",
    "created_at": "2018-07-24 01:34:25.803226",
    "updated_at": "2018-08-11 21:40:06.305492",
    "country": "United States",
    "longitude": "",
    "latitude": "",
    "tags": []
  },
  {
    "id": "three-notchd-rva-collab-house",
    "name": "Three Notch'd RVA Collab House",
    "brewery_type": "micro",
    "street": "2930 W Broad St",
    "city": "Richmond",
    "state": "Virginia",
    "postal_code": "23230-5114",
    "website_url": "http://www.threenotchdbrewing.com",
    "phone": "4342930610",
    "created_at": "2018-07-24 01:34:27.197433",
    "updated_at": "2018-08-24 16:31:20.522586",
    "country": "United States",
    "longitude": "-77.4719488308763",
    "latitude": "37.5636996357021",
    "tags": []
  }
]