[
  {
    "id": "bedlam-brewing-llc",
    "name": "Bedlam Brewing LLC",
    "brewery_type": "brewpub",
    "street": "2303 N Augusta St",
    "city": "Staunton",
    "state": "Virginia",
    "postal_code": "24401-2597",
    "website_url": "http://www.facebook.com/Bedlam-Brewing-536957559822021",
    "phone": "5402211305",
    "created_at": "2018-07-24 01:34:24.364374",
    "updated_at": "2018-08-24 16:27:24.889917",
    "country": "United States",
    "longitude": "-79.0558256767677",
    "latitude": "38.1680031919192",
    "tags": []
  },
  {
    "id": "queen-city-brewing",
    "name": "Queen City Brewing",
    "brewery_type": "micro",
    "street": "834 Spring Hill Rd",
    "city": "Staunton",
    "state": "Virginia",
    "postal_code": "24401-2865",
    "website_url": "http://www.queencitybrewing.com",
    "phone": "5402138014",
    "created_at": "2018-07-24 01:34:26.478105",
    "updated_at": "2018-08-11 21:40:08.309801",
    "country": "United States",
    "longitude": "",
    "latitude": "",
    "tags": []
  },
  {
    "id": "skipping-rock-beer-co",
    "name": "Skipping Rock Beer Co.",
    "brewery_type": "planning",
    "street": "",
    "city": "Staunton",
    "state": "Virginia",
    "postal_code": "24401-6122",
    "website_url": "http://www.skippingrockbeer.com",
    "phone": "5402923417",
    "created_at": "2018-07-24 01:34:26.771997",
    "updated_at": "2018-08-11 21:40:08.998706",
    "country": "United States",
    "longitude": "",
    "latitude": "",
    "tags": []
  },
  {
    "id": "redbeard-brewing-co",
    "name": "Redbeard Brewing Co",
    "brewery_type": "micro",
    "street": "120 S Lewis St",
    "city": "Staunton",
    "state": "Virginia",
    "postal_code": "24401-4256",
    "website_url": "http://redbeardbrews.com",
    "phone": "5404303532",
    "created_at": "2018-07-24 01:34:26.554196",
    "updated_at": "2018-08-24 16:30:22.019768",
    "country": "United States",
    "longitude": "-79.074515",
    "latitude": "38.147407",
    "tags": []
  },
  {
    "id": "shenandoah-valley-brewing-company",
    "name": "Shenandoah Valley Brewing Company",
    "brewery_type": "micro",
    "street": "19 Middlebrook Ave",
    "city": "Staunton",
    "state": "Virginia",
    "postal_code": "24401-4259",
    "website_url": "http://www.shenvalbrew.com",
    "phone": "5408872337",
    "created_at": "2018-07-24 01:34:26.744025",
    "updated_at": "2018-08-24 16:30:36.981741",
    "country": "United States",
    "longitude": "-79.073779313066",
    "latitude": "38.1472346022388",
    "tags": []
  }
]