[
  {
    "id": "big-data-brewing-company-llc",
    "name": "Big Data Brewing Company LLC",
    "brewery_type": "planning",
    "street": "",
    "city": "Sterling",
    "state": "Virginia",
    "postal_code": "20165-7227",
    "website_url": "http://www.bigdatabrewco.com/",
    "phone": "5713088293",
    "created_at": "2018-07-24 01:34:24.447977",
    "updated_at": "2018-08-11 21:40:02.531822",
    "country": "United States",
    "longitude": "",
    "latitude": "",
    "tags": []
  },
  {
    "id": "beltway-brewing-company",
    "name": "Beltway Brewing Company",
    "brewery_type": "micro",
    "street": "22620 Davis Dr Ste 110",
    "city": "Sterling",
    "state": "Virginia",
    "postal_code": "20164-4470",
    "website_url": "http://www.beltwaybrewco.com",
    "phone": "5719892739",
    "created_at": "2018-07-24 01:34:24.409996",
    "updated_at": "2018-08-24 16:27:29.423694",
    "country": "United States",
    "longitude": "-77.417287599377",
    "latitude": "38.9914288991512",
    "tags": []
  },
  {
    "id": "great-american-restaurants-sweetwater-tavern",
    "name": "Great American Restaurants, Sweetwater Tavern",
    "brewery_type": "brewpub",
    "street": "45980 Waterview Plz",
    "city": "Sterling",
    "state": "Virginia",
    "postal_code": "20166-6556",
    "website_url": "http://www.greatamericanrestaurants.com",
    "phone": "5714346500",
    "created_at": "2018-07-24 01:34:25.421527",
    "updated_at": "2018-08-11 21:40:05.414583",
    "country": "United States",
    "longitude": "",
    "latitude": "",
    "tags": []
  },
  {
    "id": "rocket-frog-brewing-company",
    "name": "Rocket Frog Brewing Company",
    "brewery_type": "micro",
    "street": "22560 Glenn Dr Ste 103",
    "city": "Sterling",
    "state": "Virginia",
    "postal_code": "20164-7143",
    "website_url": "http://www.rocketfrogbeer.com",
    "phone": "7032445711",
    "created_at": "2018-07-24 01:34:26.717613",
    "updated_at": "2018-08-24 16:30:34.046512",
    "country": "United States",
    "longitude": "-77.4292242",
    "latitude": "38.9992947",
    "tags": []
  },
  {
    "id": "twinpanzee-brewing-company",
    "name": "Twinpanzee Brewing Company",
    "brewery_type": "micro",
    "street": "101 Executive Dr Ste D",
    "city": "Sterling",
    "state": "Virginia",
    "postal_code": "20166-9557",
    "website_url": "http://www.twinpanzee.com",
    "phone": "7037919363",
    "created_at": "2018-07-24 01:34:27.336462",
    "updated_at": "2018-08-11 21:40:10.57419",
    "country": "United States",
    "longitude": "",
    "latitude": "",
    "tags": []
  }
]