[
  {
    "id": "back-bay-brewing-company",
    "name": "Back Bay Brewing Company",
    "brewery_type": "micro",
    "street": "614 Norfolk Ave",
    "city": "Virginia Beach",
    "state": "Virginia",
    "postal_code": "23451-4419",
    "website_url": "http://www.backbaybrewingco.com",
    "phone": "7575317750",
    "created_at": "2018-07-24 01:34:24.177965",
    "updated_at": "2018-08-24 16:27:08.471775",
    "country": "United States",
    "longitude": "-75.9797441428571",
    "latitude": "36.8377837142857",
    "tags": []
  },
  {
    "id": "gordon-biersch-brewery-restaurant-virginia-beach",
    "name": "Gordon Biersch Brewery Restaurant - Virginia Beach",
    "brewery_type": "brewpub",
    "street": "4561 Virginia Beach Blvd",
    "city": "Virginia Beach",
    "state": "Virginia",
    "postal_code": "23462-3015",
    "website_url": "http://www.craftworksrestaurants.com",
    "phone": "7574902739",
    "created_at": "2018-07-24 01:34:25.405604",
    "updated_at": "2018-08-24 16:28:49.482155",
    "country": "United States",
    "longitude": "-76.1345641",
    "latitude": "36.8432205",
    "tags": []
  },
  {
    "id": "wasserhund-brewing-company",
    "name": "Wasserhund Brewing Company",
    "brewery_type": "brewpub",
    "street": "1805 Laskin Rd Ste 102",
    "city": "Virginia Beach",
    "state": "Virginia",
    "postal_code": "23454-4553",
    "website_url": "http://www.wasserhundbrewing.com",
    "phone": "7573511326",
    "created_at": "2018-07-24 01:34:27.418813",
    "updated_at": "2018-08-24 16:31:40.178252",
    "country": "United States",
    "longitude": "-76.0276214674499",
    "latitude": "36.849165",
    "tags": []
  },
  {
    "id": "brewery-in-planning-virginia-beach",
    "name": "Brewery in Planning - Virginia Beach",
    "brewery_type": "planning",
    "street": "",
    "city": "Virginia Beach",
    "state": "Virginia",
    "postal_code": "23454-3552",
    "website_url": "",
    "phone": "7578174246",
    "created_at": "2018-07-24 01:34:24.727483",
    "updated_at": "2018-08-11 21:40:03.370485",
    "country": "United States",
    "longitude": "",
    "latitude": "",
    "tags": []
  },
  {
    "id": "commonwealth-brewing-co",
    "name": "Commonwealth Brewing Co.",
    "brewery_type": "micro",
    "street": "2444 Pleasure House Rd",
    "city": "Virginia Beach",
    "state": "Virginia",
    "postal_code": "23455-1348",
    "website_url": "http://www.commonwealthbrewco.com",
    "phone": "7573059652",
    "created_at": "2018-07-24 01:34:24.986931",
    "updated_at": "2018-08-24 16:28:15.916374",
    "country": "United States",
    "longitude": "-76.1318655",
    "latitude": "36.9135253",
    "tags": []
  },
  {
    "id": "home-republic",
    "name": "Home Republic",
    "brewery_type": "micro",
    "street": "328 Laskin Rd",
    "city": "Virginia Beach",
    "state": "Virginia",
    "postal_code": "23451-3020",
    "website_url": "http://www.homerepublicvabeach.com",
    "phone": "7572269593",
    "created_at": "2018-07-24 01:34:25.670496",
    "updated_at": "2018-08-24 16:29:07.359656",
    "country": "United States",
    "longitude": "-75.9798143333333",
    "latitude": "36.8591240833333",
    "tags": []
  },
  {
    "id": "new-realm-brewing",
    "name": "New Realm Brewing",
    "brewery_type": "planning",
    "street": "",
    "city": "Virginia Beach",
    "state": "Virginia",
    "postal_code": "23454",
    "website_url": "",
    "phone": "",
    "created_at": "2018-07-24 01:34:26.119315",
    "updated_at": "2018-08-11 21:40:07.178797",
    "country": "United States",
    "longitude": "",
    "latitude": "",
    "tags": []
  },
  {
    "id": "pleasure-house-brewing",
    "name": "Pleasure House Brewing",
    "brewery_type": "micro",
    "street": "3025 Shore Dr",
    "city": "Virginia Beach",
    "state": "Virginia",
    "postal_code": "23451-1247",
    "website_url": "http://www.pleasurehousebrewing.com",
    "phone": "7574960916",
    "created_at": "2018-07-24 01:34:26.385893",
    "updated_at": "2018-08-24 16:30:06.951984",
    "country": "United States",
    "longitude": "-76.079164",
    "latitude": "36.909938",
    "tags": []
  },
  {
    "id": "smartmouth-brewing-pilot-house",
    "name": "Smartmouth Brewing Pilot House",
    "brewery_type": "micro",
    "street": "313 32nd St",
    "city": "Virginia Beach",
    "state": "Virginia",
    "postal_code": "23451-2950",
    "website_url": "",
    "phone": "",
    "created_at": "2018-07-24 01:34:26.805217",
    "updated_at": "2018-08-24 16:30:41.379665",
    "country": "United States",
    "longitude": "-75.980788471997",
    "latitude": "36.86023395",
    "tags": []
  },
  {
    "id": "vibrant-shore-brewing-company",
    "name": "Vibrant Shore Brewing Company",
    "brewery_type": "planning",
    "street": "",
    "city": "Virginia Beach",
    "state": "Virginia",
    "postal_code": "23451-2005",
    "website_url": "",
    "phone": "8082805895",
    "created_at": "2018-07-24 01:34:27.404811",
    "updated_at": "2018-08-11 21:40:10.723602",
    "country": "United States",
    "longitude": "",
    "latitude": "",
    "tags": []
  },
  {
    "id": "young-veterans-brewing-company",
    "name": "Young Veterans Brewing Company",
    "brewery_type": "micro",
    "street": "2505 Horse Pasture Rd Ste 104",
    "city": "Virginia Beach",
    "state": "Virginia",
    "postal_code": "23453-2988",
    "website_url": "http://www.yvbc.com",
    "phone": "7576894021",
    "created_at": "2018-07-24 01:34:27.589589",
    "updated_at": "2018-08-11 21:40:11.124506",
    "country": "United States",
    "longitude": "",
    "latitude": "",
    "tags": []
  },
  {
    "id": "two-fathers-beer-co",
    "name": "Two Fathers Beer Co",
    "brewery_type": "contract",
    "street": "2016 Belvidere Rd",
    "city": "Virginia Beach",
    "state": "Virginia",
    "postal_code": "23454-2233",
    "website_url": "http://www.twofathersbeer.com",
    "phone": "7573092518",
    "created_at": "2018-07-24 01:34:27.363101",
    "updated_at": "2018-08-24 16:31:37.172229",
    "country": "United States",
    "longitude": "-76.0389065029548",
    "latitude": "36.86874825",
    "tags": []
  },
  {
    "id": "reaver-beach-brewing-co",
    "name": "Reaver Beach Brewing Co",
    "brewery_type": "micro",
    "street": "1505 Taylor Farm Rd",
    "city": "Virginia Beach",
    "state": "Virginia",
    "postal_code": "23453-3099",
    "website_url": "http://www.reaverbeach.com",
    "phone": "7575632337",
    "created_at": "2018-07-24 01:34:26.523628",
    "updated_at": "2018-08-11 21:40:08.433665",
    "country": "United States",
    "longitude": "",
    "latitude": "",
    "tags": []
  }
]