[
  {
    "id": "billsburg-brewery",
    "name": "Billsburg Brewery",
    "brewery_type": "micro",
    "street": "2054 Jamestown Rd",
    "city": "Williamsburg",
    "state": "Virginia",
    "postal_code": "23185-7911",
    "website_url": "http://www.billsburg.com",
    "phone": "",
    "created_at": "2018-07-24 01:34:24.499253",
    "updated_at": "2018-08-24 16:27:37.217758",
    "country": "United States",
    "longitude": "-76.7129558",
    "latitude": "37.2682365",
    "tags": []
  },
  {
    "id": "alewerks-brewing-company",
    "name": "Alewerks Brewing Company",
    "brewery_type": "micro",
    "street": "197 Ewell Rd",
    "city": "Williamsburg",
    "state": "Virginia",
    "postal_code": "23188-2185",
    "website_url": "http://www.alewerks.com",
    "phone": "7572203670",
    "created_at": "2018-07-24 01:34:23.992439",
    "updated_at": "2018-08-11 21:40:01.429015",
    "country": "United States",
    "longitude": "",
    "latitude": "",
    "tags": []
  },
  {
    "id": "anheuser-busch-inc-a-williamsburg",
    "name": "Anheuser-Busch Inc â Williamsburg",
    "brewery_type": "large",
    "street": "7801 Pocahontas Trl",
    "city": "Williamsburg",
    "state": "Virginia",
    "postal_code": "23185-6302",
    "website_url": "http://www.anheuser-busch.com",
    "phone": "7572533600",
    "created_at": "2018-07-24 01:34:24.023158",
    "updated_at": "2018-08-24 16:26:59.478155",
    "country": "United States",
    "longitude": "-76.6798988",
    "latitude": "37.2652889",
    "tags": []
  },
  {
    "id": "brass-cannon-brewing",
    "name": "Brass Cannon Brewing",
    "brewery_type": "micro",
    "street": "5476 Mooretown Rd",
    "city": "Williamsburg",
    "state": "Virginia",
    "postal_code": "23188-2108",
    "website_url": "http://www.brasscannonbrewing.com",
    "phone": "7575660001",
    "created_at": "2018-07-24 01:34:24.614375",
    "updated_at": "2018-08-11 21:40:03.037375",
    "country": "United States",
    "longitude": "",
    "latitude": "",
    "tags": []
  },
  {
    "id": "precarious-beer-project",
    "name": "Precarious Beer Project",
    "brewery_type": "micro",
    "street": "521 Prince George St",
    "city": "Williamsburg",
    "state": "Virginia",
    "postal_code": "23185-3621",
    "website_url": "http://www.theamberox.com",
    "phone": "6166388866",
    "created_at": "2018-07-24 01:34:26.417058",
    "updated_at": "2018-08-24 16:30:10.018678",
    "country": "United States",
    "longitude": "-76.7084565344813",
    "latitude": "37.272790745225",
    "tags": []
  },
  {
    "id": "the-virginia-beer-company",
    "name": "The Virginia Beer Company",
    "brewery_type": "micro",
    "street": "401 Second St",
    "city": "Williamsburg",
    "state": "Virginia",
    "postal_code": "23185-4815",
    "website_url": "http://www.virginiabeerco.com",
    "phone": "7573782903",
    "created_at": "2018-07-24 01:34:27.169309",
    "updated_at": "2018-08-11 21:40:10.197867",
    "country": "United States",
    "longitude": "",
    "latitude": "",
    "tags": []
  }
]