[
  {
    "id": "bangor-beer-co",
    "name": "Bangor Beer Co.",
    "brewery_type": "brewpub",
    "street": "330 Bangor Mall Blvd",
    "city": "Bangor",
    "state": "Maine",
    "postal_code": "04401-3644",
    "website_url": "http://www.bangorbeerco.com",
    "phone": "2079476605",
    "created_at": "2018-07-24 01:33:26.79752",
    "updated_at": "2018-08-11 21:37:30.506629",
    "country": "United States",
    "longitude": "",
    "latitude": "",
    "tags": []
  },
  {
    "id": "2-feet-brewing-company",
    "name": "2 Feet Brewing Company",
    "brewery_type": "brewpub",
    "street": "80 Columbia St",
    "city": "Bangor",
    "state": "Maine",
    "postal_code": "04401-6319",
    "website_url": "http://www.2feetbrewing.com",
    "phone": "2075731979",
    "created_at": "2018-07-24 01:33:26.6676",
    "updated_at": "2018-08-24 00:39:29.017962",
    "country": "United States",
    "longitude": "-68.7728309911078",
    "latitude": "44.8001268407908",
    "tags": []
  },
  {
    "id": "geaghans-pub-and-craft-brewery",
    "name": "Geaghan's Pub & Craft Brewery",
    "brewery_type": "brewpub",
    "street": "570 Main St",
    "city": "Bangor",
    "state": "Maine",
    "postal_code": "04401-6821",
    "website_url": "http://www.geaghanspub.com",
    "phone": "2079453730",
    "created_at": "2018-07-24 01:33:27.180176",
    "updated_at": "2018-08-24 00:39:46.086423",
    "country": "United States",
    "longitude": "-68.777503",
    "latitude": "44.7867295",
    "tags": []
  },
  {
    "id": "orono-brewing-bangor-draught-room",
    "name": "Orono Brewing Bangor Draught Room",
    "brewery_type": "micro",
    "street": "26 State St",
    "city": "Bangor",
    "state": "Maine",
    "postal_code": "04401",
    "website_url": "",
    "phone": "",
    "created_at": "2018-07-24 01:33:27.703555",
    "updated_at": "2018-08-24 00:40:03.064707",
    "country": "United States",
    "longitude": "-68.7428115",
    "latitude": "44.8115948265306",
    "tags": []
  },
  {
    "id": "sea-dog-brewing-co-bangor",
    "name": "Sea Dog Brewing Co - Bangor",
    "brewery_type": "brewpub",
    "street": "26 Front St",
    "city": "Bangor",
    "state": "Maine",
    "postal_code": "04401-6418",
    "website_url": "http://www.seadogbrewing.com",
    "phone": "2079478009",
    "created_at": "2018-07-24 01:33:27.924182",
    "updated_at": "2018-08-24 00:40:09.075831",
    "country": "United States",
    "longitude": "-68.770233",
    "latitude": "44.7966948",
    "tags": []
  }
]