[
  {
    "id": "black-bear-brewery",
    "name": "Black Bear Brewery",
    "brewery_type": "micro",
    "street": "19 Mill St Ste 4",
    "city": "Orono",
    "state": "Maine",
    "postal_code": "04473-4095",
    "website_url": "http://www.blackbearmicrobrew.com",
    "phone": "2078899123",
    "created_at": "2018-07-24 01:33:26.917746",
    "updated_at": "2018-08-11 21:37:30.945281",
    "country": "United States",
    "longitude": "",
    "latitude": "",
    "tags": []
  },
  {
    "id": "marsh-island-brewing-company",
    "name": "Marsh Island Brewing Company",
    "brewery_type": "micro",
    "street": "2 Main St",
    "city": "Orono",
    "state": "Maine",
    "postal_code": "04473-4004",
    "website_url": "http://www.marshislandbrewing.com",
    "phone": "2078661277",
    "created_at": "2018-07-24 01:33:27.509116",
    "updated_at": "2018-08-24 00:39:57.150246",
    "country": "United States",
    "longitude": "-68.671416",
    "latitude": "44.884496",
    "tags": []
  },
  {
    "id": "orono-brewing-brewery-and-draught-room",
    "name": "Orono Brewing Brewery & Draught Room",
    "brewery_type": "planning",
    "street": "",
    "city": "Orono",
    "state": "Maine",
    "postal_code": "04473",
    "website_url": "",
    "phone": "",
    "created_at": "2018-07-24 01:33:27.719125",
    "updated_at": "2018-08-11 21:37:33.502402",
    "country": "United States",
    "longitude": "",
    "latitude": "",
    "tags": []
  },
  {
    "id": "orono-brewing-company",
    "name": "Orono Brewing Company",
    "brewery_type": "brewpub",
    "street": "20 Main St",
    "city": "Orono",
    "state": "Maine",
    "postal_code": "04473",
    "website_url": "http://www.oronobrewing.com",
    "phone": "2078664677",
    "created_at": "2018-07-24 01:33:27.732752",
    "updated_at": "2018-08-24 00:40:03.609309",
    "country": "United States",
    "longitude": "-68.669582",
    "latitude": "44.8875409375",
    "tags": []
  }
]