[
  {
    "id": "dl-geary-brewing-co-inc",
    "name": "D.L. Geary Brewing Co Inc.",
    "brewery_type": "micro",
    "street": "38 Evergreen Dr",
    "city": "Portland",
    "state": "Maine",
    "postal_code": "04103-1066",
    "website_url": "http://www.gearybrewing.com",
    "phone": "2078782337",
    "created_at": "2018-07-24 01:33:26.993603",
    "updated_at": "2018-08-24 00:39:39.267236",
    "country": "United States",
    "longitude": "-70.314848130679",
    "latitude": "43.7076741571514",
    "tags": []
  },
  {
    "id": "gritty-mcduffs-portland",
    "name": "Gritty McDuffs - Portland",
    "brewery_type": "brewpub",
    "street": "396 Fore St",
    "city": "Portland",
    "state": "Maine",
    "postal_code": "04101-4026",
    "website_url": "http://www.grittys.com",
    "phone": "2077722739",
    "created_at": "2018-07-24 01:33:27.26609",
    "updated_at": "2018-08-24 00:39:48.759561",
    "country": "United States",
    "longitude": "-70.2533609",
    "latitude": "43.6564108",
    "tags": []
  },
  {
    "id": "shipyard-brewing-co",
    "name": "Shipyard Brewing Co",
    "brewery_type": "regional",
    "street": "86 Newbury St",
    "city": "Portland",
    "state": "Maine",
    "postal_code": "04101-4219",
    "website_url": "http://www.shipyard.com",
    "phone": "2077610807",
    "created_at": "2018-07-24 01:33:28.019419",
    "updated_at": "2018-08-24 00:40:11.302378",
    "country": "United States",
    "longitude": "-70.2486231394133",
    "latitude": "43.6615851",
    "tags": []
  },
  {
    "id": "austin-street-brewery",
    "name": "Austin Street Brewery",
    "brewery_type": "micro",
    "street": "1 Industrial Way Ste 8",
    "city": "Portland",
    "state": "Maine",
    "postal_code": "04103-1072",
    "website_url": "http://www.austinstreetbrewery.com",
    "phone": "2072001994",
    "created_at": "2018-07-24 01:33:26.747663",
    "updated_at": "2018-08-11 21:37:30.384519",
    "country": "United States",
    "longitude": "",
    "latitude": "",
    "tags": []
  },
  {
    "id": "battery-steele-brewing",
    "name": "Battery Steele Brewing",
    "brewery_type": "micro",
    "street": "1 Industrial Way Ste 12",
    "city": "Portland",
    "state": "Maine",
    "postal_code": "04103-1072",
    "website_url": "http://www.batterysteele.com",
    "phone": "",
    "created_at": "2018-07-24 01:33:26.83569",
    "updated_at": "2018-08-11 21:37:30.649489",
    "country": "United States",
    "longitude": "",
    "latitude": "",
    "tags": []
  },
  {
    "id": "allagash-brewing-co",
    "name": "Allagash Brewing Co",
    "brewery_type": "regional",
    "street": "50 Industrial Way",
    "city": "Portland",
    "state": "Maine",
    "postal_code": "04103-1270",
    "website_url": "http://www.allagash.com",
    "phone": "2078785385",
    "created_at": "2018-07-24 01:33:26.694905",
    "updated_at": "2018-08-24 00:39:29.904503",
    "country": "United States",
    "longitude": "-70.3179518",
    "latitude": "43.7030951",
    "tags": []
  },
  {
    "id": "bunker-brewing-co",
    "name": "Bunker Brewing Co",
    "brewery_type": "micro",
    "street": "17 Westfield St Unit D",
    "city": "Portland",
    "state": "Maine",
    "postal_code": "04102-2730",
    "website_url": "http://www.bunkerbrewingco.com",
    "phone": "2074505014",
    "created_at": "2018-07-24 01:33:26.968228",
    "updated_at": "2018-08-11 21:37:31.175166",
    "country": "United States",
    "longitude": "",
    "latitude": "",
    "tags": []
  },
  {
    "id": "foundation-brewing-company",
    "name": "Foundation Brewing Company",
    "brewery_type": "micro",
    "street": "1 Industrial Way Ste 5",
    "city": "Portland",
    "state": "Maine",
    "postal_code": "04103-1072",
    "website_url": "http://www.foundationbrew.com",
    "phone": "2073708187",
    "created_at": "2018-07-24 01:33:27.113329",
    "updated_at": "2018-08-11 21:37:31.775564",
    "country": "United States",
    "longitude": "",
    "latitude": "",
    "tags": []
  },
  {
    "id": "goodfire-brewing-company",
    "name": "Goodfire Brewing Company",
    "brewery_type": "micro",
    "street": "219 Anderson St Ste 6",
    "city": "Portland",
    "state": "Maine",
    "postal_code": "04101-1401",
    "website_url": "http://www.goodfirebrewing.com",
    "phone": "2078088910",
    "created_at": "2018-07-24 01:33:27.209366",
    "updated_at": "2018-08-11 21:37:32.021603",
    "country": "United States",
    "longitude": "",
    "latitude": "",
    "tags": []
  },
  {
    "id": "liquid-riot-bottling-co",
    "name": "Liquid Riot Bottling Co.",
    "brewery_type": "brewpub",
    "street": "4 Canal Plz Ste 1",
    "city": "Portland",
    "state": "Maine",
    "postal_code": "04101-4594",
    "website_url": "http://www.novareresbiercafe.com",
    "phone": "2072218889",
    "created_at": "2018-07-24 01:33:27.409908",
    "updated_at": "2018-08-11 21:37:32.643966",
    "country": "United States",
    "longitude": "",
    "latitude": "",
    "tags": []
  },
  {
    "id": "bissell-brothers-brewing",
    "name": "Bissell Brothers Brewing",
    "brewery_type": "micro",
    "street": "4 Thompsons Pt Ste 108",
    "city": "Portland",
    "state": "Maine",
    "postal_code": "04102-2639",
    "website_url": "http://www.bissellbrothers.com",
    "phone": "2074233622",
    "created_at": "2018-07-24 01:33:26.906081",
    "updated_at": "2018-08-24 00:39:36.895031",
    "country": "United States",
    "longitude": "-70.2904097",
    "latitude": "43.6514062",
    "tags": []
  },
  {
    "id": "gruit-brewing",
    "name": "Gruit Brewing",
    "brewery_type": "micro",
    "street": "200 Anderson St",
    "city": "Portland",
    "state": "Maine",
    "postal_code": "04101-2562",
    "website_url": "http://www.fermentory.com",
    "phone": "2077738331",
    "created_at": "2018-07-24 01:33:27.281333",
    "updated_at": "2018-08-24 00:39:49.201895",
    "country": "United States",
    "longitude": "-70.255898",
    "latitude": "43.669074",
    "tags": []
  },
  {
    "id": "lone-pine-brewing-company",
    "name": "Lone Pine Brewing Company",
    "brewery_type": "micro",
    "street": "219 Anderson St #4",
    "city": "Portland",
    "state": "Maine",
    "postal_code": "04101-1400",
    "website_url": "http://www.lonepinebrewery.com",
    "phone": "2075364952",
    "created_at": "2018-07-24 01:33:27.422102",
    "updated_at": "2018-08-24 00:39:54.411148",
    "country": "United States",
    "longitude": "-70.2557731770637",
    "latitude": "43.6696532249529",
    "tags": []
  },
  {
    "id": "one-eye-open-brewing-company",
    "name": "One Eye Open Brewing Company",
    "brewery_type": "micro",
    "street": "41 Fox Street Shed A",
    "city": "Portland",
    "state": "Maine",
    "postal_code": "04101-2538",
    "website_url": "http://www.oeobrewing.com",
    "phone": "2075364176",
    "created_at": "2018-07-24 01:33:27.687667",
    "updated_at": "2018-08-11 21:37:33.446762",
    "country": "United States",
    "longitude": "",
    "latitude": "",
    "tags": []
  },
  {
    "id": "oxbow-blending-and-bottling",
    "name": "Oxbow Blending & Bottling",
    "brewery_type": "micro",
    "street": "49 Washington Ave",
    "city": "Portland",
    "state": "Maine",
    "postal_code": "04101",
    "website_url": "",
    "phone": "",
    "created_at": "2018-07-24 01:33:27.762868",
    "updated_at": "2018-08-24 00:40:04.074688",
    "country": "United States",
    "longitude": "-70.2513253",
    "latitude": "43.6649414",
    "tags": []
  },
  {
    "id": "peak-organic-brewing-co",
    "name": "Peak Organic Brewing Co",
    "brewery_type": "proprietor",
    "street": "110 Marginal Way # 802",
    "city": "Portland",
    "state": "Maine",
    "postal_code": "04101-2442",
    "website_url": "http://www.peakbrewing.com",
    "phone": "2075865586",
    "created_at": "2018-07-24 01:33:27.789558",
    "updated_at": "2018-08-24 00:40:04.990187",
    "country": "United States",
    "longitude": "-70.2645487791521",
    "latitude": "43.6624477565325",
    "tags": []
  },
  {
    "id": "rising-tide-brewing-co",
    "name": "Rising Tide Brewing Co",
    "brewery_type": "micro",
    "street": "103 Fox St",
    "city": "Portland",
    "state": "Maine",
    "postal_code": "04101-2539",
    "website_url": "http://www.risingtidebrewing.com",
    "phone": "2073702337",
    "created_at": "2018-07-24 01:33:27.83442",
    "updated_at": "2018-08-24 00:40:06.303359",
    "country": "United States",
    "longitude": "-70.2570974",
    "latitude": "43.6655545",
    "tags": []
  },
  {
    "id": "definitive-brewing-company",
    "name": "Definitive Brewing Company",
    "brewery_type": "micro",
    "street": "35 Industrial Way",
    "city": "Portland",
    "state": "Maine",
    "postal_code": "04103-1071",
    "website_url": "http://www.definitivebrewing.com",
    "phone": "",
    "created_at": "2018-07-24 01:33:27.02071",
    "updated_at": "2018-08-24 00:39:40.149564",
    "country": "United States",
    "longitude": "-70.3142737024466",
    "latitude": "43.7062952227186",
    "tags": []
  }
]