[
  {
    "id": "motorworks-brewing",
    "name": "Motorworks Brewing",
    "brewery_type": "micro",
    "street": "1014 9th St W",
    "city": "Bradenton",
    "state": "Florida",
    "postal_code": "34205-7331",
    "website_url": "http://www.motorworksbrewing.com",
    "phone": "9415676218",
    "created_at": "2018-07-24 01:33:13.772258",
    "updated_at": "2018-08-24 00:27:53.817465",
    "country": "United States",
    "longitude": "-82.57129",
    "latitude": "27.4908762853266",
    "tags": []
  },
  {
    "id": "3-keys-brewing-company-llc",
    "name": "3 Keys Brewing Company, LLC",
    "brewery_type": "brewpub",
    "street": "2505 Manatee Ave E",
    "city": "Bradenton",
    "state": "Florida",
    "postal_code": "34208-2421",
    "website_url": "http://www.3keysbrewing.com",
    "phone": "9412180396",
    "created_at": "2018-07-24 01:33:11.116708",
    "updated_at": "2018-08-24 00:26:21.54571",
    "country": "United States",
    "longitude": "-82.5339350162344",
    "latitude": "27.4964502551051",
    "tags": []
  },
  {
    "id": "darwin-brewing-co",
    "name": "Darwin Brewing Co",
    "brewery_type": "micro",
    "street": "803 17th Ave W",
    "city": "Bradenton",
    "state": "Florida",
    "postal_code": "34205-7608",
    "website_url": "http://www.darwinbrewingco.com",
    "phone": "9417471970",
    "created_at": "2018-07-24 01:33:12.471949",
    "updated_at": "2018-08-24 00:27:01.484565",
    "country": "United States",
    "longitude": "-82.5704045764443",
    "latitude": "27.4843298838169",
    "tags": []
  },
  {
    "id": "good-liquid-brewing-company",
    "name": "Good Liquid Brewing Company",
    "brewery_type": "micro",
    "street": "4824 14th St W",
    "city": "Bradenton",
    "state": "Florida",
    "postal_code": "34207-2017",
    "website_url": "http://www.thegoodliquidbrewing.com",
    "phone": "9418966381",
    "created_at": "2018-07-24 01:33:12.921896",
    "updated_at": "2018-08-24 00:27:20.213194",
    "country": "United States",
    "longitude": "-82.575274",
    "latitude": "27.470805",
    "tags": []
  },
  {
    "id": "little-giant-brewery",
    "name": "Little Giant Brewery",
    "brewery_type": "planning",
    "street": "",
    "city": "Bradenton",
    "state": "Florida",
    "postal_code": "34208-1139",
    "website_url": "",
    "phone": "9419626650",
    "created_at": "2018-07-24 01:33:13.584084",
    "updated_at": "2018-08-11 21:36:56.104684",
    "country": "United States",
    "longitude": "",
    "latitude": "",
    "tags": []
  },
  {
    "id": "naughty-monk-brewery-llc",
    "name": "Naughty Monk Brewery L.L.C.",
    "brewery_type": "micro",
    "street": "2507 Lakewood Ranch Blvd",
    "city": "Bradenton",
    "state": "Florida",
    "postal_code": "34211-4949",
    "website_url": "http://www.naughtymonkbrewery.com",
    "phone": "9417082966",
    "created_at": "2018-07-24 01:33:13.835201",
    "updated_at": "2018-08-24 00:27:56.495545",
    "country": "United States",
    "longitude": "-82.4324118",
    "latitude": "27.4519957",
    "tags": []
  }
]