[
  {
    "id": "big-storm-brewing",
    "name": "Big Storm Brewing",
    "brewery_type": "micro",
    "street": "839 Miramar St",
    "city": "Cape Coral",
    "state": "Florida",
    "postal_code": "33904-9046",
    "website_url": "",
    "phone": "",
    "created_at": "2018-07-24 01:33:11.550108",
    "updated_at": "2018-08-24 00:26:34.847576",
    "country": "United States",
    "longitude": "-81.9557454",
    "latitude": "26.5609342",
    "tags": []
  },
  {
    "id": "scottys-bierwerks",
    "name": "Scotty's Bierwerks",
    "brewery_type": "micro",
    "street": "901 E Industrial Cir Unit 1-3",
    "city": "Cape Coral",
    "state": "Florida",
    "postal_code": "33909-7446",
    "website_url": "http://www.facebook.com/scottysbierwerks",
    "phone": "2398885482",
    "created_at": "2018-07-24 01:33:14.495962",
    "updated_at": "2018-08-11 21:36:58.501437",
    "country": "United States",
    "longitude": "",
    "latitude": "",
    "tags": []
  },
  {
    "id": "big-blue-brewing",
    "name": "Big Blue Brewing",
    "brewery_type": "brewpub",
    "street": "4721 SE 10th Pl",
    "city": "Cape Coral",
    "state": "Florida",
    "postal_code": "33904-9168",
    "website_url": "http://www.bigbluebrewing.com",
    "phone": "9737693294",
    "created_at": "2018-07-24 01:33:11.525566",
    "updated_at": "2018-08-24 00:26:33.547353",
    "country": "United States",
    "longitude": "-81.952426390216",
    "latitude": "26.56445894862",
    "tags": []
  }
]