[
  {
    "id": "big-storm-brewing-co",
    "name": "Big Storm Brewing Co.",
    "brewery_type": "micro",
    "street": "12707 49th St N",
    "city": "Clearwater",
    "state": "Florida",
    "postal_code": "33762-4604",
    "website_url": "http://www.bigstormbrewery.com",
    "phone": "7274970666",
    "created_at": "2018-07-24 01:33:11.575248",
    "updated_at": "2018-08-11 21:36:51.400212",
    "country": "United States",
    "longitude": "",
    "latitude": "",
    "tags": []
  },
  {
    "id": "brewery-in-planning-clearwater-fl",
    "name": "Brewery in Planning - Clearwater, FL",
    "brewery_type": "planning",
    "street": "",
    "city": "Clearwater",
    "state": "Florida",
    "postal_code": "33760",
    "website_url": "",
    "phone": "3175196121",
    "created_at": "2018-07-24 01:33:11.810433",
    "updated_at": "2018-08-11 21:36:51.933037",
    "country": "United States",
    "longitude": "",
    "latitude": "",
    "tags": []
  },
  {
    "id": "pair-o-dice-brewing-company",
    "name": "Pair O' Dice Brewing Company",
    "brewery_type": "micro",
    "street": "4400 118th Ave N Ste 208",
    "city": "Clearwater",
    "state": "Florida",
    "postal_code": "33762-4433",
    "website_url": "http://www.pairodicebrewing.com",
    "phone": "7277553423",
    "created_at": "2018-07-24 01:33:14.073465",
    "updated_at": "2018-08-11 21:36:57.481824",
    "country": "United States",
    "longitude": "",
    "latitude": "",
    "tags": []
  },
  {
    "id": "sea-dog-brewing-co-clearwater",
    "name": "Sea Dog Brewing Co - Clearwater",
    "brewery_type": "micro",
    "street": "26200 US Highway 19 N",
    "city": "Clearwater",
    "state": "Florida",
    "postal_code": "33761-3580",
    "website_url": "http://www.seadogbrewing.com",
    "phone": "7274664916",
    "created_at": "2018-07-24 01:33:14.507929",
    "updated_at": "2018-08-11 21:36:58.528761",
    "country": "United States",
    "longitude": "",
    "latitude": "",
    "tags": []
  },
  {
    "id": "southern-lights-brewing",
    "name": "Southern Lights Brewing",
    "brewery_type": "micro",
    "street": "2045 Gulf To Bay Blvd Ste D",
    "city": "Clearwater",
    "state": "Florida",
    "postal_code": "33765-3752",
    "website_url": "http://www.southernlightsbrewing.com",
    "phone": "7276149919",
    "created_at": "2018-07-24 01:33:14.629906",
    "updated_at": "2018-08-11 21:36:58.830132",
    "country": "United States",
    "longitude": "",
    "latitude": "",
    "tags": []
  },
  {
    "id": "grindhaus-brew-lab",
    "name": "Grindhaus Brew Lab",
    "brewery_type": "micro",
    "street": "1650 N Hercules Ave Ste I",
    "city": "Clearwater",
    "state": "Florida",
    "postal_code": "33765-1969",
    "website_url": "http://www.grindhausbrewlab.com",
    "phone": "7272400804",
    "created_at": "2018-07-24 01:33:13.031876",
    "updated_at": "2018-08-11 21:36:54.81538",
    "country": "United States",
    "longitude": "",
    "latitude": "",
    "tags": []
  }
]