[
  {
    "id": "caledonia-brewing",
    "name": "Caledonia Brewing",
    "brewery_type": "micro",
    "street": "587 Main St",
    "city": "Dunedin",
    "state": "Florida",
    "postal_code": "34698-4998",
    "website_url": "http://www.caledoniabrewing.com",
    "phone": "7273515105",
    "created_at": "2018-07-24 01:33:12.056586",
    "updated_at": "2018-08-24 00:26:49.312913",
    "country": "United States",
    "longitude": "-82.7840735",
    "latitude": "28.01394225",
    "tags": []
  },
  {
    "id": "7venth-sun-brewery",
    "name": "7venth Sun Brewery",
    "brewery_type": "micro",
    "street": "1012 Broadway",
    "city": "Dunedin",
    "state": "Florida",
    "postal_code": "34698-5762",
    "website_url": "http://www.7venthsun.com",
    "phone": "7277333013",
    "created_at": "2018-07-24 01:33:11.154853",
    "updated_at": "2018-08-11 21:36:49.876439",
    "country": "United States",
    "longitude": "",
    "latitude": "",
    "tags": []
  },
  {
    "id": "cueni-brewing-co",
    "name": "Cueni Brewing Co.",
    "brewery_type": "micro",
    "street": "945 Huntley Ave",
    "city": "Dunedin",
    "state": "Florida",
    "postal_code": "34698-5722",
    "website_url": "http://www.cuenibrewing.com",
    "phone": "7272664102",
    "created_at": "2018-07-24 01:33:12.374917",
    "updated_at": "2018-08-24 00:26:58.5309",
    "country": "United States",
    "longitude": "-82.7892842320147",
    "latitude": "28.0144036833562",
    "tags": []
  },
  {
    "id": "dunedin-brewery-production-facility",
    "name": "Dunedin Brewery Production Facility",
    "brewery_type": "planning",
    "street": "",
    "city": "Dunedin",
    "state": "Florida",
    "postal_code": "34698-5061",
    "website_url": "",
    "phone": "",
    "created_at": "2018-07-24 01:33:12.682587",
    "updated_at": "2018-08-11 21:36:53.909961",
    "country": "United States",
    "longitude": "",
    "latitude": "",
    "tags": []
  },
  {
    "id": "dunedin-brewery-and-public-house",
    "name": "Dunedin Brewery & Public House",
    "brewery_type": "brewpub",
    "street": "937 Douglas Ave",
    "city": "Dunedin",
    "state": "Florida",
    "postal_code": "34698-4945",
    "website_url": "http://www.dunedinbrewery.com",
    "phone": "7277360606",
    "created_at": "2018-07-24 01:33:12.6674",
    "updated_at": "2018-08-24 00:27:10.240684",
    "country": "United States",
    "longitude": "-82.7878256086413",
    "latitude": "28.0141823132337",
    "tags": []
  },
  {
    "id": "soggy-bottom-brewing-co",
    "name": "Soggy Bottom Brewing Co.",
    "brewery_type": "micro",
    "street": "660 Main St",
    "city": "Dunedin",
    "state": "Florida",
    "postal_code": "34698",
    "website_url": "http://www.soggybottombrewery.com",
    "phone": "7276011698",
    "created_at": "2018-07-24 01:33:14.592919",
    "updated_at": "2018-08-24 00:28:28.462371",
    "country": "United States",
    "longitude": "-82.7827198075155",
    "latitude": "28.0152064022556",
    "tags": []
  },
  {
    "id": "woodwright-brewing-company",
    "name": "Woodwright Brewing Company",
    "brewery_type": "micro",
    "street": "985 Douglas Ave",
    "city": "Dunedin",
    "state": "Florida",
    "postal_code": "34698-4945",
    "website_url": "",
    "phone": "7272388717",
    "created_at": "2018-07-24 01:33:15.217344",
    "updated_at": "2018-08-24 00:28:51.988513",
    "country": "United States",
    "longitude": "-82.787809750721",
    "latitude": "28.0153997211397",
    "tags": []
  }
]