[
  {
    "id": "bury-me-brewing-company",
    "name": "Bury Me Brewing Company",
    "brewery_type": "micro",
    "street": "4224 Cleveland Ave Ste 7",
    "city": "Fort Myers",
    "state": "Florida",
    "postal_code": "33901-9051",
    "website_url": "http://www.burymebrewing.com",
    "phone": "2393322337",
    "created_at": "2018-07-24 01:33:12.018969",
    "updated_at": "2018-08-11 21:36:52.425602",
    "country": "United States",
    "longitude": "",
    "latitude": "",
    "tags": []
  },
  {
    "id": "fort-myers-brewing",
    "name": "Fort Myers Brewing",
    "brewery_type": "micro",
    "street": "12811 Commerce Lakes Dr Ste 28",
    "city": "Fort Myers",
    "state": "Florida",
    "postal_code": "33913-8649",
    "website_url": "",
    "phone": "9162343332",
    "created_at": "2018-07-24 01:33:12.858349",
    "updated_at": "2018-08-24 00:27:17.117126",
    "country": "United States",
    "longitude": "-81.7619411",
    "latitude": "26.5611037",
    "tags": []
  },
  {
    "id": "millennial-brewing-company",
    "name": "Millennial Brewing Company",
    "brewery_type": "micro",
    "street": "1811 Royal Palm Ave",
    "city": "Fort Myers",
    "state": "Florida",
    "postal_code": "33901-3023",
    "website_url": "http://www.millennialbrewing.com",
    "phone": "2392712255",
    "created_at": "2018-07-24 01:33:13.733935",
    "updated_at": "2018-08-24 00:27:52.716646",
    "country": "United States",
    "longitude": "-81.8643460982227",
    "latitude": "26.6429182",
    "tags": []
  },
  {
    "id": "old-soul-brewing",
    "name": "Old Soul Brewing",
    "brewery_type": "micro",
    "street": "10970 S Cleveland Ave Ste 402",
    "city": "Fort Myers",
    "state": "Florida",
    "postal_code": "33907-2315",
    "website_url": "http://www.oldsoulbrewcompany.com",
    "phone": "2393344334",
    "created_at": "2018-07-24 01:33:13.933023",
    "updated_at": "2018-08-11 21:36:57.133822",
    "country": "United States",
    "longitude": "",
    "latitude": "",
    "tags": []
  },
  {
    "id": "palm-city-brewing",
    "name": "Palm City Brewing",
    "brewery_type": "micro",
    "street": "7887 Drew Cir Ste 130",
    "city": "Fort Myers",
    "state": "Florida",
    "postal_code": "33967-6083",
    "website_url": "",
    "phone": "2393622862",
    "created_at": "2018-07-24 01:33:14.088103",
    "updated_at": "2018-08-11 21:36:57.511238",
    "country": "United States",
    "longitude": "",
    "latitude": "",
    "tags": []
  },
  {
    "id": "point-ybel-brewing-company",
    "name": "Point Ybel Brewing Company",
    "brewery_type": "micro",
    "street": "16120 San Carlos Blvd Ste 4",
    "city": "Fort Myers",
    "state": "Florida",
    "postal_code": "33908-3294",
    "website_url": "http://www.pointybelbrew.com",
    "phone": "2396036535",
    "created_at": "2018-07-24 01:33:14.23567",
    "updated_at": "2018-08-11 21:36:57.902937",
    "country": "United States",
    "longitude": "",
    "latitude": "",
    "tags": []
  }
]