[
  {
    "id": "americana-brewery",
    "name": "Americana Brewery",
    "brewery_type": "planning",
    "street": "",
    "city": "Fort Lauderdale",
    "state": "Florida",
    "postal_code": "33328-1606",
    "website_url": "",
    "phone": "",
    "created_at": "2018-07-24 01:33:11.303524",
    "updated_at": "2018-08-11 21:36:50.61458",
    "country": "United States",
    "longitude": "",
    "latitude": "",
    "tags": []
  },
  {
    "id": "gulf-stream-brewing",
    "name": "Gulf Stream Brewing",
    "brewery_type": "planning",
    "street": "",
    "city": "Fort Lauderdale",
    "state": "Florida",
    "postal_code": "33304-1802",
    "website_url": "http://www.gulfstreambeer.com",
    "phone": "9547664842",
    "created_at": "2018-07-24 01:33:13.0788",
    "updated_at": "2018-08-11 21:36:54.902548",
    "country": "United States",
    "longitude": "",
    "latitude": "",
    "tags": []
  },
  {
    "id": "khoffner-brewery-ltd",
    "name": "Khoffner Brewery LTD",
    "brewery_type": "micro",
    "street": "1110 NE 8th Avenue Bay #1",
    "city": "Fort Lauderdale",
    "state": "Florida",
    "postal_code": "33304",
    "website_url": "http://www.khoffner.us",
    "phone": "7547018860",
    "created_at": "2018-07-24 01:33:13.472587",
    "updated_at": "2018-08-11 21:36:55.8232",
    "country": "United States",
    "longitude": "",
    "latitude": "",
    "tags": []
  },
  {
    "id": "lauderale",
    "name": "LauderAle",
    "brewery_type": "micro",
    "street": "3305 SE 14th Ave Bldg 4",
    "city": "Fort Lauderdale",
    "state": "Florida",
    "postal_code": "33316-4212",
    "website_url": "http://www.lauderale.co",
    "phone": "9546539711",
    "created_at": "2018-07-24 01:33:13.521795",
    "updated_at": "2018-08-11 21:36:55.940216",
    "country": "United States",
    "longitude": "",
    "latitude": "",
    "tags": []
  },
  {
    "id": "invasive-species-brewing",
    "name": "Invasive Species Brewing",
    "brewery_type": "micro",
    "street": "726 NE 2nd Ave",
    "city": "Fort Lauderdale",
    "state": "Florida",
    "postal_code": "33304-2616",
    "website_url": "http://www.invasivespeciesbrewing.com",
    "phone": "7546662687",
    "created_at": "2018-07-24 01:33:13.389072",
    "updated_at": "2018-08-24 00:27:38.952322",
    "country": "United States",
    "longitude": "-80.1418016",
    "latitude": "26.1298369",
    "tags": []
  },
  {
    "id": "tarpon-river-brewing",
    "name": "Tarpon River Brewing",
    "brewery_type": "micro",
    "street": "280 SW 6th Street",
    "city": "Fort Lauderdale",
    "state": "Florida",
    "postal_code": "33301",
    "website_url": "http://www.nativebrewingco.com/index.html",
    "phone": "9545334590",
    "created_at": "2018-07-24 01:33:14.787867",
    "updated_at": "2018-08-24 00:28:36.114365",
    "country": "United States",
    "longitude": "-80.1459556172394",
    "latitude": "26.1146209161835",
    "tags": []
  }
]