[
  {
    "id": "alligator-brewing-/-tall-pauls-brewhouse",
    "name": "Alligator Brewing / Tall Paul's Brewhouse",
    "brewery_type": "micro",
    "street": "10 SE 2nd Ave",
    "city": "Gainesville",
    "state": "Florida",
    "postal_code": "32601-6232",
    "website_url": "",
    "phone": "3525050990",
    "created_at": "2018-07-24 01:33:11.261396",
    "updated_at": "2018-08-24 00:26:26.034376",
    "country": "United States",
    "longitude": "-82.3222523",
    "latitude": "29.6502615",
    "tags": []
  },
  {
    "id": "barrie-brewing-company",
    "name": "Barrie Brewing Company",
    "brewery_type": "planning",
    "street": "",
    "city": "Gainesville",
    "state": "Florida",
    "postal_code": "32607-4807",
    "website_url": "",
    "phone": "",
    "created_at": "2018-07-24 01:33:11.430825",
    "updated_at": "2018-08-11 21:36:51.048316",
    "country": "United States",
    "longitude": "",
    "latitude": "",
    "tags": []
  },
  {
    "id": "blackadder-brewing-company",
    "name": "Blackadder Brewing Company",
    "brewery_type": "micro",
    "street": "618 NW 60th St Ste A",
    "city": "Gainesville",
    "state": "Florida",
    "postal_code": "32607-6014",
    "website_url": "http://www.blackadderbrewing.com",
    "phone": "3523390324",
    "created_at": "2018-07-24 01:33:11.611761",
    "updated_at": "2018-08-11 21:36:51.477505",
    "country": "United States",
    "longitude": "",
    "latitude": "",
    "tags": []
  },
  {
    "id": "brewery-in-planning-gainesville",
    "name": "Brewery in Planning - Gainesville",
    "brewery_type": "planning",
    "street": "",
    "city": "Gainesville",
    "state": "Florida",
    "postal_code": "32607",
    "website_url": "",
    "phone": "3523162392",
    "created_at": "2018-07-24 01:33:11.834151",
    "updated_at": "2018-08-11 21:36:51.989898",
    "country": "United States",
    "longitude": "",
    "latitude": "",
    "tags": []
  },
  {
    "id": "cypress-and-grove-brewing-company",
    "name": "Cypress and Grove Brewing Company",
    "brewery_type": "micro",
    "street": "1001 NW 4th Street",
    "city": "Gainesville",
    "state": "Florida",
    "postal_code": "32601-4256",
    "website_url": "http://www.cypressandgrove.com",
    "phone": "6419900950",
    "created_at": "2018-07-24 01:33:12.415115",
    "updated_at": "2018-08-24 00:27:00.236963",
    "country": "United States",
    "longitude": "-82.328751",
    "latitude": "29.661257",
    "tags": []
  },
  {
    "id": "first-magnitude-brewing-company",
    "name": "First Magnitude Brewing Company",
    "brewery_type": "micro",
    "street": "1220 SE Veitch St",
    "city": "Gainesville",
    "state": "Florida",
    "postal_code": "32601-7917",
    "website_url": "http://www.fmbrewing.com",
    "phone": "3527274677",
    "created_at": "2018-07-24 01:33:12.783337",
    "updated_at": "2018-08-24 00:27:14.148347",
    "country": "United States",
    "longitude": "-82.3242990762445",
    "latitude": "29.6398302153528",
    "tags": []
  },
  {
    "id": "swamp-head-brewery",
    "name": "Swamp Head Brewery",
    "brewery_type": "micro",
    "street": "3650 SW 42nd Ave",
    "city": "Gainesville",
    "state": "Florida",
    "postal_code": "32608-2598",
    "website_url": "http://www.swamphead.com",
    "phone": "3525053035",
    "created_at": "2018-07-24 01:33:14.702212",
    "updated_at": "2018-08-24 00:28:32.968907",
    "country": "United States",
    "longitude": "-82.3736302",
    "latitude": "29.6142515",
    "tags": []
  }
]