[
  {
    "id": "engine-15-brewing-company",
    "name": "Engine 15 Brewing Company",
    "brewery_type": "brewpub",
    "street": "1500 Beach Blvd Ste 217",
    "city": "Jacksonville Beach",
    "state": "Florida",
    "postal_code": "32250-2624",
    "website_url": "http://www.engine15.com",
    "phone": "9042492337",
    "created_at": "2018-07-24 01:33:12.722332",
    "updated_at": "2018-08-24 00:27:11.957785",
    "country": "United States",
    "longitude": "-81.3923194",
    "latitude": "30.2882669",
    "tags": []
  },
  {
    "id": "green-room-brewing",
    "name": "Green Room Brewing",
    "brewery_type": "micro",
    "street": "228 3rd St N",
    "city": "Jacksonville Beach",
    "state": "Florida",
    "postal_code": "32250-6935",
    "website_url": "http://www.greenroombrewing.com",
    "phone": "9042019283",
    "created_at": "2018-07-24 01:33:13.015651",
    "updated_at": "2018-08-24 00:27:23.917029",
    "country": "United States",
    "longitude": "-81.3923014285714",
    "latitude": "30.2903347142857",
    "tags": []
  },
  {
    "id": "southern-swells-brewing-company",
    "name": "Southern Swells Brewing Company",
    "brewery_type": "micro",
    "street": "1312 Beach Blvd",
    "city": "Jacksonville Beach",
    "state": "Florida",
    "postal_code": "32250-3408",
    "website_url": "http://www.southernswells.com",
    "phone": "9046546425",
    "created_at": "2018-07-24 01:33:14.642118",
    "updated_at": "2018-08-24 00:28:30.665264",
    "country": "United States",
    "longitude": "-81.3923194",
    "latitude": "30.2882669",
    "tags": []
  },
  {
    "id": "zeta-brewing-company",
    "name": "Zeta Brewing Company",
    "brewery_type": "brewpub",
    "street": "131 1st Ave N",
    "city": "Jacksonville Beach",
    "state": "Florida",
    "postal_code": "32250-6912",
    "website_url": "http://www.zetabrewing.com",
    "phone": "9043720727",
    "created_at": "2018-07-24 01:33:15.280557",
    "updated_at": "2018-08-24 00:28:54.861812",
    "country": "United States",
    "longitude": "-81.3902910408163",
    "latitude": "30.2903879591837",
    "tags": []
  }
]