[
  {
    "id": "river-city-brewing-co",
    "name": "River City Brewing Co",
    "brewery_type": "brewpub",
    "street": "835 Museum Cir",
    "city": "Jacksonville",
    "state": "Florida",
    "postal_code": "32207-9003",
    "website_url": "http://www.rivercitybrewing.com",
    "phone": "9043982299",
    "created_at": "2018-07-24 01:33:14.362386",
    "updated_at": "2018-08-24 00:28:19.259372",
    "country": "United States",
    "longitude": "-81.6611172653061",
    "latitude": "30.3186263877551",
    "tags": []
  },
  {
    "id": "aardwolf-brewing-company",
    "name": "Aardwolf Brewing Company",
    "brewery_type": "micro",
    "street": "1461 Hendricks Ave",
    "city": "Jacksonville",
    "state": "Florida",
    "postal_code": "32207-8622",
    "website_url": "http://www.aardwolfbrewing.com",
    "phone": "9043010755",
    "created_at": "2018-07-24 01:33:11.215243",
    "updated_at": "2018-08-24 00:26:24.399512",
    "country": "United States",
    "longitude": "-81.6545197",
    "latitude": "30.3108962",
    "tags": []
  },
  {
    "id": "bold-city-brewery",
    "name": "Bold City Brewery",
    "brewery_type": "micro",
    "street": "2670 Rosselle St Ste 7",
    "city": "Jacksonville",
    "state": "Florida",
    "postal_code": "32204-3004",
    "website_url": "http://www.boldcitybrewery.com",
    "phone": "9043796551",
    "created_at": "2018-07-24 01:33:11.659938",
    "updated_at": "2018-08-11 21:36:51.600543",
    "country": "United States",
    "longitude": "",
    "latitude": "",
    "tags": []
  },
  {
    "id": "anheuser-busch-inc-a-jacksonville",
    "name": "Anheuser-Busch Inc â Jacksonville",
    "brewery_type": "large",
    "street": "111 Busch Dr",
    "city": "Jacksonville",
    "state": "Florida",
    "postal_code": "32218-5546",
    "website_url": "",
    "phone": "9047510700",
    "created_at": "2018-07-24 01:33:11.344175",
    "updated_at": "2018-08-24 00:26:28.960782",
    "country": "United States",
    "longitude": "-81.6481156",
    "latitude": "30.4319552",
    "tags": []
  },
  {
    "id": "bold-city-brewery",
    "name": "Bold City Brewery",
    "brewery_type": "micro",
    "street": "109 E Bay St",
    "city": "Jacksonville",
    "state": "Florida",
    "postal_code": "32202-3414",
    "website_url": "http://www.boldcitybrewery.com",
    "phone": "9045037682",
    "created_at": "2018-07-24 01:33:11.648445",
    "updated_at": "2018-08-24 00:26:38.643995",
    "country": "United States",
    "longitude": "-81.656519",
    "latitude": "30.326002",
    "tags": []
  },
  {
    "id": "engine-15-brewing-company",
    "name": "Engine 15 Brewing Company",
    "brewery_type": "micro",
    "street": "633 N Myrtle Ave",
    "city": "Jacksonville",
    "state": "Florida",
    "postal_code": "32204-1319",
    "website_url": "http://www.engine15.com",
    "phone": "9045519429",
    "created_at": "2018-07-24 01:33:12.708912",
    "updated_at": "2018-08-11 21:36:53.988068",
    "country": "United States",
    "longitude": "",
    "latitude": "",
    "tags": []
  },
  {
    "id": "hyperion-brewing",
    "name": "Hyperion Brewing",
    "brewery_type": "micro",
    "street": "1740 N Main St",
    "city": "Jacksonville",
    "state": "Florida",
    "postal_code": "32206-4404",
    "website_url": "http://www.hyperionbrewing.com",
    "phone": "9045185131",
    "created_at": "2018-07-24 01:33:13.23083",
    "updated_at": "2018-08-11 21:36:55.238194",
    "country": "United States",
    "longitude": "",
    "latitude": "",
    "tags": []
  },
  {
    "id": "keen-brewing",
    "name": "Keen Brewing",
    "brewery_type": "planning",
    "street": "",
    "city": "Jacksonville",
    "state": "Florida",
    "postal_code": "32204-1806",
    "website_url": "",
    "phone": "9044698266",
    "created_at": "2018-07-24 01:33:13.460753",
    "updated_at": "2018-08-11 21:36:55.795316",
    "country": "United States",
    "longitude": "",
    "latitude": "",
    "tags": []
  },
  {
    "id": "legacy-ale-works",
    "name": "Legacy Ale Works",
    "brewery_type": "planning",
    "street": "",
    "city": "Jacksonville",
    "state": "Florida",
    "postal_code": "32258",
    "website_url": "http://www.legacyaleworks.com",
    "phone": "9043253195",
    "created_at": "2018-07-24 01:33:13.546066",
    "updated_at": "2018-08-11 21:36:56.006768",
    "country": "United States",
    "longitude": "",
    "latitude": "",
    "tags": []
  },
  {
    "id": "main-and-six-brewing-company",
    "name": "Main & Six Brewing Company",
    "brewery_type": "micro",
    "street": "1636 N Main St",
    "city": "Jacksonville",
    "state": "Florida",
    "postal_code": "32206-4402",
    "website_url": "",
    "phone": "9046730144",
    "created_at": "2018-07-24 01:33:13.633585",
    "updated_at": "2018-08-11 21:36:56.244985",
    "country": "United States",
    "longitude": "",
    "latitude": "",
    "tags": []
  },
  {
    "id": "intuition-ale-works",
    "name": "Intuition Ale Works",
    "brewery_type": "micro",
    "street": "929 E Bay St",
    "city": "Jacksonville",
    "state": "Florida",
    "postal_code": "32202-2307",
    "website_url": "http://www.intuitionaleworks.com",
    "phone": "9046837720",
    "created_at": "2018-07-24 01:33:13.36238",
    "updated_at": "2018-08-24 00:27:37.864609",
    "country": "United States",
    "longitude": "-81.6449079166667",
    "latitude": "30.3233619166667",
    "tags": []
  },
  {
    "id": "intuition-ale-works-production-facility",
    "name": "Intuition Ale Works Production Facility",
    "brewery_type": "micro",
    "street": "720 King St",
    "city": "Jacksonville",
    "state": "Florida",
    "postal_code": "32204-3440",
    "website_url": "",
    "phone": "",
    "created_at": "2018-07-24 01:33:13.37492",
    "updated_at": "2018-08-24 00:27:38.37517",
    "country": "United States",
    "longitude": "-81.6970237142857",
    "latitude": "30.3179953809524",
    "tags": []
  },
  {
    "id": "tabula-rasa-brewing",
    "name": "Tabula Rasa Brewing",
    "brewery_type": "planning",
    "street": "",
    "city": "Jacksonville",
    "state": "Florida",
    "postal_code": "32204-1705",
    "website_url": "",
    "phone": "",
    "created_at": "2018-07-24 01:33:14.739667",
    "updated_at": "2018-08-11 21:36:59.100713",
    "country": "United States",
    "longitude": "",
    "latitude": "",
    "tags": []
  },
  {
    "id": "veterans-united-craft-brewery",
    "name": "Veterans United Craft Brewery",
    "brewery_type": "micro",
    "street": "8999 Western Way Ste 104",
    "city": "Jacksonville",
    "state": "Florida",
    "postal_code": "32256",
    "website_url": "http://www.vubrew.com",
    "phone": "9042533326",
    "created_at": "2018-07-24 01:33:15.109494",
    "updated_at": "2018-08-24 00:28:47.242075",
    "country": "United States",
    "longitude": "-81.5570848",
    "latitude": "30.2008038",
    "tags": []
  },
  {
    "id": "wicked-barley-brewing-co",
    "name": "Wicked Barley Brewing Co.",
    "brewery_type": "brewpub",
    "street": "4100 Baymeadows Rd",
    "city": "Jacksonville",
    "state": "Florida",
    "postal_code": "32217-4602",
    "website_url": "http://www.wickedbarley.com",
    "phone": "9043797077",
    "created_at": "2018-07-24 01:33:15.181849",
    "updated_at": "2018-08-24 00:28:50.669287",
    "country": "United States",
    "longitude": "-81.5779846",
    "latitude": "30.2208765",
    "tags": []
  },
  {
    "id": "seven-bridges-grille-and-brewery",
    "name": "Seven Bridges Grille and Brewery",
    "brewery_type": "brewpub",
    "street": "9735 Gate Pkwy N",
    "city": "Jacksonville",
    "state": "Florida",
    "postal_code": "32246-8221",
    "website_url": "http://www.7bridgesgrille.com",
    "phone": "9049971999",
    "created_at": "2018-07-24 01:33:14.532829",
    "updated_at": "2018-08-24 00:28:26.284257",
    "country": "United States",
    "longitude": "-81.5531219312785",
    "latitude": "30.2612958196082",
    "tags": []
  }
]