[
  {
    "id": "bay-brewing-company",
    "name": "Bay Brewing Company",
    "brewery_type": "planning",
    "street": "",
    "city": "Miami",
    "state": "Florida",
    "postal_code": "33130-3488",
    "website_url": "",
    "phone": "18134763767",
    "created_at": "2018-07-24 01:33:11.461162",
    "updated_at": "2018-08-11 21:36:51.113658",
    "country": "United States",
    "longitude": "",
    "latitude": "",
    "tags": []
  },
  {
    "id": "biscayne-bay-brewing-co",
    "name": "Biscayne Bay Brewing Co",
    "brewery_type": "micro",
    "street": "8000 NW 25th St Ste 500",
    "city": "Miami",
    "state": "Florida",
    "postal_code": "33122-1631",
    "website_url": "",
    "phone": "",
    "created_at": "2018-07-24 01:33:11.599324",
    "updated_at": "2018-08-11 21:36:51.450155",
    "country": "United States",
    "longitude": "",
    "latitude": "",
    "tags": []
  },
  {
    "id": "bob-loblaw-brewing",
    "name": "Bob Loblaw Brewing",
    "brewery_type": "planning",
    "street": "",
    "city": "Miami",
    "state": "Florida",
    "postal_code": "33179",
    "website_url": "http://www.bobloblawbrewing.com",
    "phone": "3052495628",
    "created_at": "2018-07-24 01:33:11.624498",
    "updated_at": "2018-08-11 21:36:51.504816",
    "country": "United States",
    "longitude": "",
    "latitude": "",
    "tags": []
  },
  {
    "id": "bousa-brewing-company",
    "name": "Bousa Brewing Company",
    "brewery_type": "micro",
    "street": "7235 NE 4th Ave",
    "city": "Miami",
    "state": "Florida",
    "postal_code": "33138-5315",
    "website_url": "http://www.bousabrewing.com",
    "phone": "3053635166",
    "created_at": "2018-07-24 01:33:11.695365",
    "updated_at": "2018-08-24 00:26:40.943635",
    "country": "United States",
    "longitude": "-80.1894101699335",
    "latitude": "25.8414586990821",
    "tags": []
  },
  {
    "id": "cervecentro",
    "name": "Cervecentro",
    "brewery_type": "planning",
    "street": "",
    "city": "Miami",
    "state": "Florida",
    "postal_code": "33181-3404",
    "website_url": "http://www.cervecentro.com.ve",
    "phone": "3055171656",
    "created_at": "2018-07-24 01:33:12.11961",
    "updated_at": "2018-08-11 21:36:52.637468",
    "country": "United States",
    "longitude": "",
    "latitude": "",
    "tags": []
  },
  {
    "id": "cerveza-guajira",
    "name": "Cerveza Guajira",
    "brewery_type": "planning",
    "street": "",
    "city": "Miami",
    "state": "Florida",
    "postal_code": "33137",
    "website_url": "",
    "phone": "3056005692",
    "created_at": "2018-07-24 01:33:12.14508",
    "updated_at": "2018-08-11 21:36:52.665968",
    "country": "United States",
    "longitude": "",
    "latitude": "",
    "tags": []
  },
  {
    "id": "d-manatee-holdings-llc",
    "name": "D. MANATEE HOLDINGS, LLC",
    "brewery_type": "planning",
    "street": "",
    "city": "Miami",
    "state": "Florida",
    "postal_code": "33131-1210",
    "website_url": "http://www.tiliaventure.com",
    "phone": "",
    "created_at": "2018-07-24 01:33:12.444331",
    "updated_at": "2018-08-11 21:36:53.3203",
    "country": "United States",
    "longitude": "",
    "latitude": "",
    "tags": []
  },
  {
    "id": "concrete-beach-brewery",
    "name": "Concrete Beach Brewery",
    "brewery_type": "micro",
    "street": "325 NW 24th St",
    "city": "Miami",
    "state": "Florida",
    "postal_code": "33127-4325",
    "website_url": "http://www.concretebeachbrewery.com/",
    "phone": "3057962727",
    "created_at": "2018-07-24 01:33:12.256009",
    "updated_at": "2018-08-24 00:26:53.817152",
    "country": "United States",
    "longitude": "-80.2009170923563",
    "latitude": "25.800254",
    "tags": []
  },
  {
    "id": "j-wakefield-brewing",
    "name": "J Wakefield Brewing",
    "brewery_type": "micro",
    "street": "120 NW 24th St",
    "city": "Miami",
    "state": "Florida",
    "postal_code": "33127-4414",
    "website_url": "http://www.jwakefieldbrewing.com",
    "phone": "7862547779",
    "created_at": "2018-07-24 01:33:13.43636",
    "updated_at": "2018-08-24 00:27:41.517481",
    "country": "United States",
    "longitude": "-80.1975286711708",
    "latitude": "25.7995437",
    "tags": []
  },
  {
    "id": "lincolns-beard-brewing-co",
    "name": "Lincoln's Beard Brewing Co.",
    "brewery_type": "micro",
    "street": "7360 SW 41st St",
    "city": "Miami",
    "state": "Florida",
    "postal_code": "33155-4504",
    "website_url": "http://lincolnsbeardbrewing.com/",
    "phone": "3059127390",
    "created_at": "2018-07-24 01:33:13.571768",
    "updated_at": "2018-08-24 00:27:45.984835",
    "country": "United States",
    "longitude": "-80.3143531",
    "latitude": "25.732096",
    "tags": []
  },
  {
    "id": "nightlife-brewing-co",
    "name": "NightLife Brewing Co",
    "brewery_type": "micro",
    "street": "1588 Nw 7th St",
    "city": "Miami",
    "state": "Florida",
    "postal_code": "33125",
    "website_url": "http://www.nightlifebrewingco.com",
    "phone": "7867872337",
    "created_at": "2018-07-24 01:33:13.860487",
    "updated_at": "2018-08-24 00:27:57.768605",
    "country": "United States",
    "longitude": "-80.2213134285714",
    "latitude": "25.7800687040816",
    "tags": []
  },
  {
    "id": "sweet-mercy-brewing-co",
    "name": "Sweet Mercy Brewing Co.",
    "brewery_type": "planning",
    "street": "",
    "city": "Miami",
    "state": "Florida",
    "postal_code": "33143",
    "website_url": "http://www.sweetmercybrewing.com",
    "phone": "3057999260",
    "created_at": "2018-07-24 01:33:14.726595",
    "updated_at": "2018-08-11 21:36:59.067118",
    "country": "United States",
    "longitude": "",
    "latitude": "",
    "tags": []
  },
  {
    "id": "the-tank-brewing-company",
    "name": "The Tank Brewing Company",
    "brewery_type": "micro",
    "street": "5100 NW 72nd Ave. Bay A-1",
    "city": "Miami",
    "state": "Florida",
    "postal_code": "33166",
    "website_url": "http://www.thetankbrewing.com",
    "phone": "7868011554",
    "created_at": "2018-07-24 01:33:14.905266",
    "updated_at": "2018-08-11 21:36:59.471156",
    "country": "United States",
    "longitude": "",
    "latitude": "",
    "tags": []
  },
  {
    "id": "titanic-brewing-co",
    "name": "Titanic Brewing Co",
    "brewery_type": "brewpub",
    "street": "5813 Ponce de Leon Blvd",
    "city": "Miami",
    "state": "Florida",
    "postal_code": "33146-2422",
    "website_url": "http://www.titanicbrewery.com",
    "phone": "3056672537",
    "created_at": "2018-07-24 01:33:14.941299",
    "updated_at": "2018-08-24 00:28:41.940005",
    "country": "United States",
    "longitude": "-80.271314",
    "latitude": "25.719812",
    "tags": []
  },
  {
    "id": "veza-sur-brewing-co",
    "name": "Veza Sur Brewing Co",
    "brewery_type": "large",
    "street": "55 NW 25th St",
    "city": "Miami",
    "state": "Florida",
    "postal_code": "33127-4415",
    "website_url": "",
    "phone": "",
    "created_at": "2018-07-24 01:33:15.121319",
    "updated_at": "2018-08-24 00:28:47.834355",
    "country": "United States",
    "longitude": "-80.1961487142857",
    "latitude": "25.8008973265306",
    "tags": []
  },
  {
    "id": "wynwood-brewing-company",
    "name": "Wynwood Brewing Company",
    "brewery_type": "micro",
    "street": "565 NW 24th St",
    "city": "Miami",
    "state": "Florida",
    "postal_code": "33127-4327",
    "website_url": "http://www.wynwoodbrewing.com",
    "phone": "3056405043",
    "created_at": "2018-07-24 01:33:15.242822",
    "updated_at": "2018-08-24 00:28:53.258676",
    "country": "United States",
    "longitude": "-80.2044925",
    "latitude": "25.8003759",
    "tags": []
  }
]