[
  {
    "id": "ankrolab-brewing-company",
    "name": "Ankrolab Brewing Company",
    "brewery_type": "planning",
    "street": "",
    "city": "Naples",
    "state": "Florida",
    "postal_code": "34112-6363",
    "website_url": "http://ankrolab.com",
    "phone": "2394511223",
    "created_at": "2018-07-24 01:33:11.356109",
    "updated_at": "2018-08-11 21:36:50.782319",
    "country": "United States",
    "longitude": "",
    "latitude": "",
    "tags": []
  },
  {
    "id": "bone-hook-brewing-company",
    "name": "Bone Hook Brewing Company",
    "brewery_type": "micro",
    "street": "1514 Immokalee Rd Unit 106",
    "city": "Naples",
    "state": "Florida",
    "postal_code": "34110-1454",
    "website_url": "http://www.bonehookbrewing.com",
    "phone": "2396318522",
    "created_at": "2018-07-24 01:33:11.671966",
    "updated_at": "2018-08-11 21:36:51.628413",
    "country": "United States",
    "longitude": "",
    "latitude": "",
    "tags": []
  },
  {
    "id": "fantasy-brewmasters-llc",
    "name": "Fantasy Brewmasters, LLC",
    "brewery_type": "contract",
    "street": "5825 Dogwood Way",
    "city": "Naples",
    "state": "Florida",
    "postal_code": "34116-4909",
    "website_url": "",
    "phone": "2392063247",
    "created_at": "2018-07-24 01:33:12.747152",
    "updated_at": "2018-08-11 21:36:54.076626",
    "country": "United States",
    "longitude": "",
    "latitude": "",
    "tags": []
  },
  {
    "id": "naples-beach-brewery",
    "name": "Naples Beach Brewery",
    "brewery_type": "micro",
    "street": "4110 Enterprise Ave Ste 217",
    "city": "Naples",
    "state": "Florida",
    "postal_code": "34104-7084",
    "website_url": "http://www.naplesbeachbrewery.com",
    "phone": "2393048795",
    "created_at": "2018-07-24 01:33:13.811035",
    "updated_at": "2018-08-11 21:36:56.756991",
    "country": "United States",
    "longitude": "",
    "latitude": "",
    "tags": []
  },
  {
    "id": "south-cypress-brewing",
    "name": "South Cypress Brewing",
    "brewery_type": "brewpub",
    "street": "895 Wiggins Pass Rd",
    "city": "Naples",
    "state": "Florida",
    "postal_code": "34110-6118",
    "website_url": "",
    "phone": "2396316397",
    "created_at": "2018-07-24 01:33:14.605551",
    "updated_at": "2018-08-11 21:36:58.769463",
    "country": "United States",
    "longitude": "",
    "latitude": "",
    "tags": []
  },
  {
    "id": "riptide-brewing-company",
    "name": "Riptide Brewing Company",
    "brewery_type": "micro",
    "street": "987 3rd Ave N",
    "city": "Naples",
    "state": "Florida",
    "postal_code": "34102-5810",
    "website_url": "http://www.riptidebrewingcompany.com",
    "phone": "2392286533",
    "created_at": "2018-07-24 01:33:14.350524",
    "updated_at": "2018-08-24 00:28:18.748702",
    "country": "United States",
    "longitude": "-81.7949267959184",
    "latitude": "26.1508859591837",
    "tags": []
  }
]