[
  {
    "id": "redlight-redlight-beer-parlour-and-brewery",
    "name": "Redlight Redlight Beer Parlour and Brewery",
    "brewery_type": "micro",
    "street": "2810 Corrine Dr",
    "city": "Orlando",
    "state": "Florida",
    "postal_code": "32803-2226",
    "website_url": "http://www.redlightredlightbeerparlour.com",
    "phone": "4078939832",
    "created_at": "2018-07-24 01:33:14.326646",
    "updated_at": "2018-08-24 00:28:17.540003",
    "country": "United States",
    "longitude": "-81.3485175701754",
    "latitude": "28.567899",
    "tags": []
  },
  {
    "id": "broken-cauldron-taproom-and-brewery",
    "name": "Broken Cauldron Taproom and Brewery",
    "brewery_type": "micro",
    "street": "1012 W Church St",
    "city": "Orlando",
    "state": "Florida",
    "postal_code": "32805-2216",
    "website_url": "http://www.brokencauldrontaproom.com",
    "phone": "4079861012",
    "created_at": "2018-07-24 01:33:11.949579",
    "updated_at": "2018-08-11 21:36:52.289103",
    "country": "United States",
    "longitude": "",
    "latitude": "",
    "tags": []
  },
  {
    "id": "dead-lizard-brewing-company",
    "name": "Dead Lizard Brewing Company",
    "brewery_type": "micro",
    "street": "4507 36th St Ste C",
    "city": "Orlando",
    "state": "Florida",
    "postal_code": "32811-6520",
    "website_url": "http://www.deadlizardbrewing.com",
    "phone": "4077108949",
    "created_at": "2018-07-24 01:33:12.510179",
    "updated_at": "2018-08-11 21:36:53.475307",
    "country": "United States",
    "longitude": "",
    "latitude": "",
    "tags": []
  },
  {
    "id": "dees-brothers-brewery",
    "name": "Dees Brothers Brewery",
    "brewery_type": "planning",
    "street": "",
    "city": "Orlando",
    "state": "Florida",
    "postal_code": "32807-1633",
    "website_url": "http://www.deesbrosbrew.com",
    "phone": "4072575104",
    "created_at": "2018-07-24 01:33:12.54695",
    "updated_at": "2018-08-11 21:36:53.567681",
    "country": "United States",
    "longitude": "",
    "latitude": "",
    "tags": []
  },
  {
    "id": "ellipsis-brewing",
    "name": "Ellipsis Brewing",
    "brewery_type": "micro",
    "street": "7500 Tpc Blvd Ste 8",
    "city": "Orlando",
    "state": "Florida",
    "postal_code": "32822-5181",
    "website_url": "",
    "phone": "4072505848",
    "created_at": "2018-07-24 01:33:12.695232",
    "updated_at": "2018-08-11 21:36:53.94847",
    "country": "United States",
    "longitude": "",
    "latitude": "",
    "tags": []
  },
  {
    "id": "half-barrel-beer-project",
    "name": "Half Barrel Beer Project",
    "brewery_type": "brewpub",
    "street": "9650 Universal Blvd Ste 143",
    "city": "Orlando",
    "state": "Florida",
    "postal_code": "32819-9383",
    "website_url": "http://www.halfbarrelproject.com",
    "phone": "4072033946",
    "created_at": "2018-07-24 01:33:13.094278",
    "updated_at": "2018-08-24 00:27:26.226311",
    "country": "United States",
    "longitude": "-81.4660672217048",
    "latitude": "28.4344107302959",
    "tags": []
  },
  {
    "id": "ivanhoe-park-brewing-company",
    "name": "Ivanhoe Park Brewing Company",
    "brewery_type": "micro",
    "street": "1300 Alden Rd",
    "city": "Orlando",
    "state": "Florida",
    "postal_code": "32803-1822",
    "website_url": "http://www.IvanhoeParkBrewing.com",
    "phone": "7144254756",
    "created_at": "2018-07-24 01:33:13.424011",
    "updated_at": "2018-08-24 00:27:40.848798",
    "country": "United States",
    "longitude": "-81.3718448",
    "latitude": "28.5631918",
    "tags": []
  },
  {
    "id": "orange-blossom-brewing-company",
    "name": "Orange Blossom Brewing Company",
    "brewery_type": "proprietor",
    "street": "44 W Illiana St Ste 102",
    "city": "Orlando",
    "state": "Florida",
    "postal_code": "32806-4439",
    "website_url": "http://www.orangeblossombrewing.com",
    "phone": "4077540045",
    "created_at": "2018-07-24 01:33:13.968521",
    "updated_at": "2018-08-11 21:36:57.233856",
    "country": "United States",
    "longitude": "",
    "latitude": "",
    "tags": []
  },
  {
    "id": "orange-county-brewers",
    "name": "Orange County Brewers",
    "brewery_type": "brewpub",
    "street": "131 N Orange Ave Ste 106",
    "city": "Orlando",
    "state": "Florida",
    "postal_code": "32801-2385",
    "website_url": "http://www.theocbrewers.com",
    "phone": "3864538936",
    "created_at": "2018-07-24 01:33:13.980604",
    "updated_at": "2018-08-11 21:36:57.265606",
    "country": "United States",
    "longitude": "",
    "latitude": "",
    "tags": []
  },
  {
    "id": "ocean-sun-brewing",
    "name": "Ocean Sun Brewing",
    "brewery_type": "micro",
    "street": "3030 Curry Ford Road",
    "city": "Orlando",
    "state": "Florida",
    "postal_code": "32806-3376",
    "website_url": "",
    "phone": "4077455551",
    "created_at": "2018-07-24 01:33:13.897698",
    "updated_at": "2018-08-24 00:27:59.481463",
    "country": "United States",
    "longitude": "-81.3249533",
    "latitude": "28.5243367",
    "tags": []
  },
  {
    "id": "orlando-brewing-partners-inc",
    "name": "Orlando Brewing Partners, Inc.",
    "brewery_type": "micro",
    "street": "1301 Atlanta Ave",
    "city": "Orlando",
    "state": "Florida",
    "postal_code": "32806-3908",
    "website_url": "http://www.orlandobrewing.com",
    "phone": "4078721117",
    "created_at": "2018-07-24 01:33:14.006751",
    "updated_at": "2018-08-24 00:28:04.756497",
    "country": "United States",
    "longitude": "-81.3830449947888",
    "latitude": "28.5269182574091",
    "tags": []
  },
  {
    "id": "rockpit-brewing",
    "name": "RockPit Brewing",
    "brewery_type": "micro",
    "street": "10 West Illiana St",
    "city": "Orlando",
    "state": "Florida",
    "postal_code": "32806",
    "website_url": "http://www.rockpitbrewing.com",
    "phone": "4076906612",
    "created_at": "2018-07-24 01:33:14.386086",
    "updated_at": "2018-08-24 00:28:20.424034",
    "country": "United States",
    "longitude": "-81.3788259172192",
    "latitude": "28.5110165711627",
    "tags": []
  },
  {
    "id": "ten-10-brewing-co",
    "name": "Ten 10 Brewing Co",
    "brewery_type": "brewpub",
    "street": "1010 Virginia Dr",
    "city": "Orlando",
    "state": "Florida",
    "postal_code": "32803-2532",
    "website_url": "http://www.ten10brewingcompany.com",
    "phone": "4079308993",
    "created_at": "2018-07-24 01:33:14.803795",
    "updated_at": "2018-08-24 00:28:36.703323",
    "country": "United States",
    "longitude": "-81.3659204444445",
    "latitude": "28.5639768888889",
    "tags": []
  },
  {
    "id": "whisper-creek-farm-kitchen-and-brewery",
    "name": "Whisper Creek Farm: Kitchen and Brewery",
    "brewery_type": "brewpub",
    "street": "4040 Central Florida Pkwy",
    "city": "Orlando",
    "state": "Florida",
    "postal_code": "32837-7662",
    "website_url": "http://www.grandelakes.com",
    "phone": "4073934755",
    "created_at": "2018-07-24 01:33:15.169936",
    "updated_at": "2018-08-24 00:28:49.988957",
    "country": "United States",
    "longitude": "-81.4286180077757",
    "latitude": "28.40168865",
    "tags": []
  }
]