[
  {
    "id": "a-little-madness-brewing-company",
    "name": "A Little Madness Brewing Company",
    "brewery_type": "planning",
    "street": "",
    "city": "Pensacola",
    "state": "Florida",
    "postal_code": "32514-8122",
    "website_url": "http://www.ALittleMadnessBrewingCompany.com",
    "phone": "",
    "created_at": "2018-07-24 01:33:11.196684",
    "updated_at": "2018-08-11 21:36:49.981873",
    "country": "United States",
    "longitude": "",
    "latitude": "",
    "tags": []
  },
  {
    "id": "goat-lips-chew-and-brewhouse-/-redneck-riviera-brewing",
    "name": "Goat Lips Chew and Brewhouse / Redneck Riviera Brewing",
    "brewery_type": "brewpub",
    "street": "2811 Copter Rd",
    "city": "Pensacola",
    "state": "Florida",
    "postal_code": "32514-7606",
    "website_url": "http://www.goatlips.com",
    "phone": "8504741919",
    "created_at": "2018-07-24 01:33:12.908261",
    "updated_at": "2018-08-11 21:36:54.537555",
    "country": "United States",
    "longitude": "",
    "latitude": "",
    "tags": []
  },
  {
    "id": "gulf-coast-brewery-llc",
    "name": "Gulf Coast Brewery LLC",
    "brewery_type": "micro",
    "street": "500 E Heinberg St",
    "city": "Pensacola",
    "state": "Florida",
    "postal_code": "32502-4145",
    "website_url": "http://www.gulfcoastbrewery.net",
    "phone": "8506962335",
    "created_at": "2018-07-24 01:33:13.06406",
    "updated_at": "2018-08-24 00:27:25.568979",
    "country": "United States",
    "longitude": "-87.2055227418521",
    "latitude": "30.4179910292336",
    "tags": []
  },
  {
    "id": "mcguires-irish-pub-and-brewery-pensacola",
    "name": "McGuire's Irish Pub and Brewery - Pensacola",
    "brewery_type": "brewpub",
    "street": "600 E Gregory St",
    "city": "Pensacola",
    "state": "Florida",
    "postal_code": "32502-4153",
    "website_url": "http://www.mcguiresirishpub.com",
    "phone": "8504336789",
    "created_at": "2018-07-24 01:33:13.7094",
    "updated_at": "2018-08-24 00:27:51.641113",
    "country": "United States",
    "longitude": "-87.2024655",
    "latitude": "30.4180618",
    "tags": []
  },
  {
    "id": "pensacola-bay-brewery",
    "name": "Pensacola Bay Brewery",
    "brewery_type": "micro",
    "street": "225 E Zaragoza St",
    "city": "Pensacola",
    "state": "Florida",
    "postal_code": "32502-6048",
    "website_url": "http://www.pbbrew.com",
    "phone": "8504343353",
    "created_at": "2018-07-24 01:33:14.128648",
    "updated_at": "2018-08-11 21:36:57.61427",
    "country": "United States",
    "longitude": "",
    "latitude": "",
    "tags": []
  },
  {
    "id": "perfect-plain-brewing-co",
    "name": "Perfect Plain Brewing Co.",
    "brewery_type": "micro",
    "street": "50 E Garden St",
    "city": "Pensacola",
    "state": "Florida",
    "postal_code": "32502-5604",
    "website_url": "http://www.perfectplain.com",
    "phone": "",
    "created_at": "2018-07-24 01:33:14.14029",
    "updated_at": "2018-08-24 00:28:09.566723",
    "country": "United States",
    "longitude": "-87.214831",
    "latitude": "30.4132165",
    "tags": []
  },
  {
    "id": "spahr-brewing-company",
    "name": "Spahr Brewing Company",
    "brewery_type": "micro",
    "street": "3541 W Fairfield Dr",
    "city": "Pensacola",
    "state": "Florida",
    "postal_code": "32505-4862",
    "website_url": "http://www.spahrbrewingcompany.com",
    "phone": "8504395362",
    "created_at": "2018-07-24 01:33:14.654065",
    "updated_at": "2018-08-24 00:28:31.339563",
    "country": "United States",
    "longitude": "-87.2566306330935",
    "latitude": "30.4418437625899",
    "tags": []
  }
]