[
  {
    "id": "odd-breed-wild-ales",
    "name": "Odd Breed Wild Ales",
    "brewery_type": "micro",
    "street": "50 NE 1st St",
    "city": "Pompano Beach",
    "state": "Florida",
    "postal_code": "33060-6602",
    "website_url": "http://www.oddbreed.com",
    "phone": "8646506210",
    "created_at": "2018-07-24 01:33:13.909777",
    "updated_at": "2018-08-24 00:28:00.066412",
    "country": "United States",
    "longitude": "-80.1247919998543",
    "latitude": "26.2323404937182",
    "tags": []
  },
  {
    "id": "26-degree-brewing-company",
    "name": "26 Degree Brewing Company",
    "brewery_type": "micro",
    "street": "2600 E Atlantic Blvd",
    "city": "Pompano Beach",
    "state": "Florida",
    "postal_code": "33062-4940",
    "website_url": "",
    "phone": "9545326964",
    "created_at": "2018-07-24 01:33:11.091144",
    "updated_at": "2018-08-24 00:26:20.25201",
    "country": "United States",
    "longitude": "-80.1224169",
    "latitude": "26.2316338",
    "tags": []
  },
  {
    "id": "bangin-banjo-brewing-company",
    "name": "Bangin' Banjo Brewing Company",
    "brewery_type": "micro",
    "street": "3200 NW 23rd Ave Ste 500",
    "city": "Pompano Beach",
    "state": "Florida",
    "postal_code": "33069-5909",
    "website_url": "http://www.banginbanjobrewing.com",
    "phone": "9549783113",
    "created_at": "2018-07-24 01:33:11.404774",
    "updated_at": "2018-08-11 21:36:50.964917",
    "country": "United States",
    "longitude": "",
    "latitude": "",
    "tags": []
  },
  {
    "id": "dangerous-minds-brewing-co",
    "name": "Dangerous Minds Brewing Co",
    "brewery_type": "planning",
    "street": "",
    "city": "Pompano Beach",
    "state": "Florida",
    "postal_code": "33062",
    "website_url": "https://dangerousmindsbrewing.com/",
    "phone": "9549181698",
    "created_at": "2018-07-24 01:33:12.457905",
    "updated_at": "2018-08-11 21:36:53.350576",
    "country": "United States",
    "longitude": "",
    "latitude": "",
    "tags": []
  },
  {
    "id": "holy-mackerel-small-batch-beers",
    "name": "Holy Mackerel Small Batch Beers",
    "brewery_type": "micro",
    "street": "3260 NW 23rd Ave Ste 400E",
    "city": "Pompano Beach",
    "state": "Florida",
    "postal_code": "33069-5937",
    "website_url": "http://www.holymackerelbeers.com",
    "phone": "9545320196",
    "created_at": "2018-07-24 01:33:13.18629",
    "updated_at": "2018-08-11 21:36:55.157879",
    "country": "United States",
    "longitude": "",
    "latitude": "",
    "tags": []
  }
]