[
  {
    "id": "ancient-city-brewing-co",
    "name": "Ancient City Brewing Co.",
    "brewery_type": "micro",
    "street": "3420 Agricultural Center Dr Ste 8",
    "city": "Saint Augustine",
    "state": "Florida",
    "postal_code": "32092-0690",
    "website_url": "http://www.ancientcitybrewing.com",
    "phone": "9044299654",
    "created_at": "2018-07-24 01:33:11.316332",
    "updated_at": "2018-08-11 21:36:50.649657",
    "country": "United States",
    "longitude": "",
    "latitude": "",
    "tags": []
  },
  {
    "id": "bog-brewing-company",
    "name": "Bog Brewing Company",
    "brewery_type": "micro",
    "street": "218 W King St",
    "city": "Saint Augustine",
    "state": "Florida",
    "postal_code": "32084-4144",
    "website_url": "http://www.bogbrewery.com",
    "phone": "9046793146",
    "created_at": "2018-07-24 01:33:11.636163",
    "updated_at": "2018-08-24 00:26:38.128246",
    "country": "United States",
    "longitude": "-81.3267969",
    "latitude": "29.8908994",
    "tags": []
  },
  {
    "id": "dog-rose-brewing-company",
    "name": "Dog Rose Brewing Company",
    "brewery_type": "micro",
    "street": "77 Bridge St",
    "city": "Saint Augustine",
    "state": "Florida",
    "postal_code": "32084-4335",
    "website_url": "http://www.dogrosebrewing.com",
    "phone": "9042173355",
    "created_at": "2018-07-24 01:33:12.641552",
    "updated_at": "2018-08-24 00:27:09.14473",
    "country": "United States",
    "longitude": "-81.3130666785714",
    "latitude": "29.8894814642857",
    "tags": []
  },
  {
    "id": "old-coast-ales",
    "name": "Old Coast Ales",
    "brewery_type": "micro",
    "street": "300 Anastasia Blvd Ste C",
    "city": "Saint Augustine",
    "state": "Florida",
    "postal_code": "32080-4759",
    "website_url": "http://www.oldcoastales.com",
    "phone": "9045018575",
    "created_at": "2018-07-24 01:33:13.921477",
    "updated_at": "2018-08-11 21:36:57.092471",
    "country": "United States",
    "longitude": "",
    "latitude": "",
    "tags": []
  }
]