[
  {
    "id": "cycle-brewing-production-and-warehouse",
    "name": "Cycle Brewing Production and Warehouse",
    "brewery_type": "micro",
    "street": "2135 5th Ave S",
    "city": "Saint Petersburg",
    "state": "Florida",
    "postal_code": "33712-1304",
    "website_url": "",
    "phone": "",
    "created_at": "2018-07-24 01:33:12.401875",
    "updated_at": "2018-08-24 00:26:59.700599",
    "country": "United States",
    "longitude": "-82.6622215778581",
    "latitude": "27.766635437218",
    "tags": []
  },
  {
    "id": "dissent-craft-brewing-company-llc",
    "name": "Dissent Craft Brewing Company, LLC",
    "brewery_type": "micro",
    "street": "5518 Haines Rd N",
    "city": "Saint Petersburg",
    "state": "Florida",
    "postal_code": "33714-1999",
    "website_url": "http://www.dissentcraftbrewing.com",
    "phone": "7273420255",
    "created_at": "2018-07-24 01:33:12.617803",
    "updated_at": "2018-08-24 00:27:07.981353",
    "country": "United States",
    "longitude": "-82.6699867630801",
    "latitude": "27.8222578098218",
    "tags": []
  },
  {
    "id": "3-daughters-brewing",
    "name": "3 Daughters Brewing",
    "brewery_type": "micro",
    "street": "222 22nd St S",
    "city": "Saint Petersburg",
    "state": "Florida",
    "postal_code": "33712-1240",
    "website_url": "http://www.3dbrewing.com",
    "phone": "7274956002",
    "created_at": "2018-07-24 01:33:11.104614",
    "updated_at": "2018-08-24 00:26:20.918139",
    "country": "United States",
    "longitude": "-82.6629721020408",
    "latitude": "27.7689902244898",
    "tags": []
  },
  {
    "id": "brewers-tasting-room",
    "name": "Brewers Tasting Room",
    "brewery_type": "brewpub",
    "street": "11270 4th St N Ste 202",
    "city": "Saint Petersburg",
    "state": "Florida",
    "postal_code": "33716-2937",
    "website_url": "http://www.brewerstastingroom.com",
    "phone": "7278733900",
    "created_at": "2018-07-24 01:33:11.785216",
    "updated_at": "2018-08-11 21:36:51.896112",
    "country": "United States",
    "longitude": "",
    "latitude": "",
    "tags": []
  },
  {
    "id": "cage-brewing",
    "name": "Cage Brewing",
    "brewery_type": "micro",
    "street": "2001 1st Ave S",
    "city": "Saint Petersburg",
    "state": "Florida",
    "postal_code": "33712-1201",
    "website_url": "",
    "phone": "7272014278",
    "created_at": "2018-07-24 01:33:12.044271",
    "updated_at": "2018-08-24 00:26:48.633942",
    "country": "United States",
    "longitude": "-82.660409",
    "latitude": "27.770292",
    "tags": []
  },
  {
    "id": "green-bench-brewing-co",
    "name": "Green Bench Brewing Co",
    "brewery_type": "micro",
    "street": "1133 Baum Ave N",
    "city": "Saint Petersburg",
    "state": "Florida",
    "postal_code": "33705-1555",
    "website_url": "http://www.greenbenchbrewing.com",
    "phone": "7278007836",
    "created_at": "2018-07-24 01:33:13.001113",
    "updated_at": "2018-08-24 00:27:23.376502",
    "country": "United States",
    "longitude": "-82.65067185",
    "latitude": "27.7717121",
    "tags": []
  },
  {
    "id": "overflow-brewing-company",
    "name": "Overflow Brewing Company",
    "brewery_type": "micro",
    "street": "770 1st Ave N",
    "city": "Saint Petersburg",
    "state": "Florida",
    "postal_code": "33701",
    "website_url": "http://www.overflowbrewingco.com",
    "phone": "",
    "created_at": "2018-07-24 01:33:14.033605",
    "updated_at": "2018-08-24 00:28:05.892668",
    "country": "United States",
    "longitude": "-82.644494",
    "latitude": "27.7719674285714",
    "tags": []
  },
  {
    "id": "pesky-pelican-brewpub",
    "name": "Pesky Pelican Brewpub",
    "brewery_type": "brewpub",
    "street": "923 72nd St N",
    "city": "Saint Petersburg",
    "state": "Florida",
    "postal_code": "33710-4666",
    "website_url": "http://www.peskypelicanbrewpub.com",
    "phone": "7273029600",
    "created_at": "2018-07-24 01:33:14.163025",
    "updated_at": "2018-08-24 00:28:10.679611",
    "country": "United States",
    "longitude": "-82.7374394827586",
    "latitude": "27.7824819310345",
    "tags": []
  },
  {
    "id": "pinellas-ale-works",
    "name": "Pinellas Ale Works",
    "brewery_type": "micro",
    "street": "1962 1st Ave S",
    "city": "Saint Petersburg",
    "state": "Florida",
    "postal_code": "33712-1345",
    "website_url": "http://www.pawbeer.com",
    "phone": "7272350970",
    "created_at": "2018-07-24 01:33:14.174442",
    "updated_at": "2018-08-24 00:28:11.168836",
    "country": "United States",
    "longitude": "-82.6597328979592",
    "latitude": "27.7701286326531",
    "tags": []
  },
  {
    "id": "right-around-the-corner",
    "name": "Right Around The Corner",
    "brewery_type": "micro",
    "street": "2244 Central Ave",
    "city": "Saint Petersburg",
    "state": "Florida",
    "postal_code": "33712",
    "website_url": "",
    "phone": "7273319395",
    "created_at": "2018-07-24 01:33:14.338536",
    "updated_at": "2018-08-24 00:28:18.236406",
    "country": "United States",
    "longitude": "-82.6636939387755",
    "latitude": "27.7709513673469",
    "tags": []
  },
  {
    "id": "st-pete-brewing-company",
    "name": "St. Pete Brewing Company",
    "brewery_type": "micro",
    "street": "544 1st Ave NÂ ",
    "city": "Saint Petersburg",
    "state": "Florida",
    "postal_code": "33701-3702",
    "website_url": "http://www.stpetebrewingcompany.com",
    "phone": "7276928809",
    "created_at": "2018-07-24 01:33:14.666124",
    "updated_at": "2018-08-24 00:28:31.961593",
    "country": "United States",
    "longitude": "-82.641020875248",
    "latitude": "27.77179015",
    "tags": []
  },
  {
    "id": "urban-comfort-restaurant-and-brewery",
    "name": "Urban Comfort Restaurant and Brewery",
    "brewery_type": "brewpub",
    "street": "2601 Central Ave",
    "city": "Saint Petersburg",
    "state": "Florida",
    "postal_code": "33713-8722",
    "website_url": "http://www.urbancomfortstpete.com",
    "phone": "7272018157",
    "created_at": "2018-07-24 01:33:15.096939",
    "updated_at": "2018-08-24 00:28:46.628952",
    "country": "United States",
    "longitude": "-82.668678",
    "latitude": "27.771098",
    "tags": []
  },
  {
    "id": "brewery-in-planning-v-twin-brewing",
    "name": "Brewery In Planning - V-Twin Brewing",
    "brewery_type": "planning",
    "street": "",
    "city": "Saint Petersburg",
    "state": "Florida",
    "postal_code": "33705-5929",
    "website_url": "",
    "phone": "",
    "created_at": "2018-07-24 01:33:11.913316",
    "updated_at": "2018-08-11 21:36:52.184828",
    "country": "United States",
    "longitude": "",
    "latitude": "",
    "tags": []
  }
]