[
  {
    "id": "brewery-in-planning-sanford-fl",
    "name": "Brewery in Planning - Sanford, FL",
    "brewery_type": "planning",
    "street": "",
    "city": "Sanford",
    "state": "Florida",
    "postal_code": "32773",
    "website_url": "",
    "phone": "4073888286",
    "created_at": "2018-07-24 01:33:11.863184",
    "updated_at": "2018-08-11 21:36:52.059117",
    "country": "United States",
    "longitude": "",
    "latitude": "",
    "tags": []
  },
  {
    "id": "deviant-wolfe-brewing",
    "name": "Deviant Wolfe Brewing",
    "brewery_type": "micro",
    "street": "121 W 1st St",
    "city": "Sanford",
    "state": "Florida",
    "postal_code": "32771-1201",
    "website_url": "http://www.facebook.com/DeviantWolfeBrewing",
    "phone": "4078786239",
    "created_at": "2018-07-24 01:33:12.582467",
    "updated_at": "2018-08-11 21:36:53.652806",
    "country": "United States",
    "longitude": "",
    "latitude": "",
    "tags": []
  },
  {
    "id": "inner-compass-brewing",
    "name": "Inner Compass Brewing",
    "brewery_type": "micro",
    "street": "300 E 2nd St",
    "city": "Sanford",
    "state": "Florida",
    "postal_code": "32771-1312",
    "website_url": "http://www.innercompassbrewing.com",
    "phone": "4074071792",
    "created_at": "2018-07-24 01:33:13.326006",
    "updated_at": "2018-08-24 00:27:36.018882",
    "country": "United States",
    "longitude": "-81.270294",
    "latitude": "28.810888",
    "tags": []
  },
  {
    "id": "sanford-brewing-company",
    "name": "Sanford Brewing Company",
    "brewery_type": "brewpub",
    "street": "400 Sanford Ave",
    "city": "Sanford",
    "state": "Florida",
    "postal_code": "32771-1971",
    "website_url": "http://www.sanfordbrewing.com",
    "phone": "4077326419",
    "created_at": "2018-07-24 01:33:14.471186",
    "updated_at": "2018-08-24 00:28:23.560966",
    "country": "United States",
    "longitude": "-81.265044",
    "latitude": "28.808877",
    "tags": []
  },
  {
    "id": "wopshops-brewing-company",
    "name": "WopsHops Brewing Company",
    "brewery_type": "brewpub",
    "street": "419 Sanford Ave",
    "city": "Sanford",
    "state": "Florida",
    "postal_code": "32771-1970",
    "website_url": "http://www.wopshopsbrewing.com",
    "phone": "4078787819",
    "created_at": "2018-07-24 01:33:15.231081",
    "updated_at": "2018-08-24 00:28:52.521004",
    "country": "United States",
    "longitude": "-81.2648542202581",
    "latitude": "28.8087552889962",
    "tags": []
  }
]