[
  {
    "id": "brew-life-brewing",
    "name": "Brew Life Brewing",
    "brewery_type": "micro",
    "street": "5767 Beneva Rd",
    "city": "Sarasota",
    "state": "Florida",
    "postal_code": "34233-4105",
    "website_url": "http://www.brewlifebrewing.com",
    "phone": "9419523831",
    "created_at": "2018-07-24 01:33:11.771342",
    "updated_at": "2018-08-24 00:26:44.207882",
    "country": "United States",
    "longitude": "-82.4975180588235",
    "latitude": "27.2700131176471",
    "tags": []
  },
  {
    "id": "big-top-brewing-company",
    "name": "Big Top Brewing Company",
    "brewery_type": "micro",
    "street": "6111 Porter Way Unit B",
    "city": "Sarasota",
    "state": "Florida",
    "postal_code": "34232-6224",
    "website_url": "http://Bigtopbrewing.com",
    "phone": "",
    "created_at": "2018-07-24 01:33:11.587155",
    "updated_at": "2018-08-11 21:36:51.425044",
    "country": "United States",
    "longitude": "",
    "latitude": "",
    "tags": []
  },
  {
    "id": "cnb-brewpub",
    "name": "CNB Brewpub",
    "brewery_type": "planning",
    "street": "",
    "city": "Sarasota",
    "state": "Florida",
    "postal_code": "34242-3811",
    "website_url": "",
    "phone": "9418096760",
    "created_at": "2018-07-24 01:33:12.228984",
    "updated_at": "2018-08-11 21:36:52.835624",
    "country": "United States",
    "longitude": "",
    "latitude": "",
    "tags": []
  },
  {
    "id": "jdubs-brewing-co",
    "name": "JDub's Brewing Co.",
    "brewery_type": "micro",
    "street": "1215 Mango Ave",
    "city": "Sarasota",
    "state": "Florida",
    "postal_code": "34237-2816",
    "website_url": "http://www.jdubsbrewing.com",
    "phone": "9419552739",
    "created_at": "2018-07-24 01:33:13.448321",
    "updated_at": "2018-08-24 00:27:42.040858",
    "country": "United States",
    "longitude": "-82.5252582277781",
    "latitude": "27.3487779832697",
    "tags": []
  },
  {
    "id": "sarasota-brewing-co",
    "name": "Sarasota Brewing Co",
    "brewery_type": "brewpub",
    "street": "6607 Gateway Ave",
    "city": "Sarasota",
    "state": "Florida",
    "postal_code": "34231-5805",
    "website_url": "http://www.sarasotabrewing.com",
    "phone": "9419252337",
    "created_at": "2018-07-24 01:33:14.483423",
    "updated_at": "2018-08-24 00:28:24.096193",
    "country": "United States",
    "longitude": "-82.5163258989692",
    "latitude": "27.2600789696686",
    "tags": []
  },
  {
    "id": "calusa-brewing-company",
    "name": "Calusa Brewing Company",
    "brewery_type": "micro",
    "street": "5701 Derek Ave",
    "city": "Sarasota",
    "state": "Florida",
    "postal_code": "34233-2413",
    "website_url": "http://www.calusabrewing.com",
    "phone": "9419228150",
    "created_at": "2018-07-24 01:33:12.06979",
    "updated_at": "2018-08-24 00:26:50.192225",
    "country": "United States",
    "longitude": "-82.483799",
    "latitude": "27.269363",
    "tags": []
  }
]