[
  {
    "id": "proof-brewing-co",
    "name": "Proof Brewing Co",
    "brewery_type": "micro",
    "street": "644 McDonnell Dr",
    "city": "Tallahassee",
    "state": "Florida",
    "postal_code": "32310-4808",
    "website_url": "http://www.proofbrewingco.com",
    "phone": "",
    "created_at": "2018-07-24 01:33:14.250553",
    "updated_at": "2018-08-24 00:28:14.290278",
    "country": "United States",
    "longitude": "-84.2911601134599",
    "latitude": "30.4329351226509",
    "tags": []
  },
  {
    "id": "lake-tribe-brewing",
    "name": "Lake Tribe Brewing",
    "brewery_type": "micro",
    "street": "3357 Garber Dr Unit 4",
    "city": "Tallahassee",
    "state": "Florida",
    "postal_code": "32303-1123",
    "website_url": "http://www.laketribebrewing.com",
    "phone": "",
    "created_at": "2018-07-24 01:33:13.509713",
    "updated_at": "2018-08-11 21:36:55.904578",
    "country": "United States",
    "longitude": "",
    "latitude": "",
    "tags": []
  },
  {
    "id": "deep-brewing-company",
    "name": "Deep Brewing Company",
    "brewery_type": "micro",
    "street": "2524 Cathay Ct STE 2",
    "city": "Tallahassee",
    "state": "Florida",
    "postal_code": "32308-4248",
    "website_url": "http://www.deepbrewing.com",
    "phone": "8505701478",
    "created_at": "2018-07-24 01:33:12.534864",
    "updated_at": "2018-08-11 21:36:53.534449",
    "country": "United States",
    "longitude": "",
    "latitude": "",
    "tags": []
  },
  {
    "id": "grasslands-brewing-co",
    "name": "Grasslands Brewing Co",
    "brewery_type": "micro",
    "street": "603 W Gaines St Ste 7",
    "city": "Tallahassee",
    "state": "Florida",
    "postal_code": "32304-4447",
    "website_url": "http://www.grasslandsbrewery.com",
    "phone": "8507653014",
    "created_at": "2018-07-24 01:33:12.934093",
    "updated_at": "2018-08-11 21:36:54.601996",
    "country": "United States",
    "longitude": "",
    "latitude": "",
    "tags": []
  },
  {
    "id": "ology-brewing-co",
    "name": "Ology Brewing Co",
    "brewery_type": "micro",
    "street": "118 E 6th Ave",
    "city": "Tallahassee",
    "state": "Florida",
    "postal_code": "32303",
    "website_url": "http://www.ologybrewing.com",
    "phone": "8505662463",
    "created_at": "2018-07-24 01:33:13.944717",
    "updated_at": "2018-08-24 00:28:02.153038",
    "country": "United States",
    "longitude": "-84.2815823956569",
    "latitude": "30.456465167236",
    "tags": []
  },
  {
    "id": "roosterbragh-brewing-company-llc",
    "name": "RoosterBragh Brewing Company, LLC",
    "brewery_type": "planning",
    "street": "",
    "city": "Tallahassee",
    "state": "Florida",
    "postal_code": "32312-8000",
    "website_url": "http://www.roosterbragh.com",
    "phone": "8507924458",
    "created_at": "2018-07-24 01:33:14.397791",
    "updated_at": "2018-08-11 21:36:58.284234",
    "country": "United States",
    "longitude": "",
    "latitude": "",
    "tags": []
  },
  {
    "id": "fools-fire-brewing-company-at-fermentation-lounge",
    "name": "Fools Fire Brewing Company At Fermentation Lounge",
    "brewery_type": "brewpub",
    "street": "415 Saint Francis Street Unit 112",
    "city": "Tallahassee",
    "state": "Florida",
    "postal_code": "32301-2201",
    "website_url": "http://www.foolsfire.com",
    "phone": "8507274033",
    "created_at": "2018-07-24 01:33:12.846178",
    "updated_at": "2018-08-11 21:36:54.383901",
    "country": "United States",
    "longitude": "",
    "latitude": "",
    "tags": []
  }
]