[
  {
    "id": "angry-chair-brewing-llc",
    "name": "Angry Chair Brewing, LLC.",
    "brewery_type": "micro",
    "street": "6401 N Florida Ave",
    "city": "Tampa",
    "state": "Florida",
    "postal_code": "33604-6007",
    "website_url": "http://www.angrychairbrewing.com",
    "phone": "8138921651",
    "created_at": "2018-07-24 01:33:11.331693",
    "updated_at": "2018-08-24 00:26:28.503972",
    "country": "United States",
    "longitude": "-82.459381",
    "latitude": "28.005127",
    "tags": []
  },
  {
    "id": "southern-brewing-and-winemaking-brewery",
    "name": "Southern Brewing & Winemaking Brewery",
    "brewery_type": "brewpub",
    "street": "4500 N Nebraska Ave",
    "city": "Tampa",
    "state": "Florida",
    "postal_code": "33603-4149",
    "website_url": "http://www.southernbrewingwinemaking.com",
    "phone": "8132387800",
    "created_at": "2018-07-24 01:33:14.617773",
    "updated_at": "2018-08-24 00:28:29.404869",
    "country": "United States",
    "longitude": "-82.4500207",
    "latitude": "27.9495902",
    "tags": []
  },
  {
    "id": "brewery-in-planning-tampa",
    "name": "Brewery in Planning - Tampa",
    "brewery_type": "planning",
    "street": "",
    "city": "Tampa",
    "state": "Florida",
    "postal_code": "33605-2706",
    "website_url": "",
    "phone": "",
    "created_at": "2018-07-24 01:33:11.901388",
    "updated_at": "2018-08-11 21:36:52.155219",
    "country": "United States",
    "longitude": "",
    "latitude": "",
    "tags": []
  },
  {
    "id": "81bay-brewing-company",
    "name": "81Bay Brewing Company",
    "brewery_type": "micro",
    "street": "4465 W Gandy Blvd Ste 600",
    "city": "Tampa",
    "state": "Florida",
    "postal_code": "33611-3379",
    "website_url": "http://81baybrewco.com",
    "phone": "8133722739",
    "created_at": "2018-07-24 01:33:11.182748",
    "updated_at": "2018-08-11 21:36:49.948225",
    "country": "United States",
    "longitude": "",
    "latitude": "",
    "tags": []
  },
  {
    "id": "7venth-sun-tampa",
    "name": "7venth Sun Tampa",
    "brewery_type": "micro",
    "street": "6809 N Nebraska Ave",
    "city": "Tampa",
    "state": "Florida",
    "postal_code": "33604-5660",
    "website_url": "",
    "phone": "8132315900",
    "created_at": "2018-07-24 01:33:11.168711",
    "updated_at": "2018-08-24 00:26:23.322891",
    "country": "United States",
    "longitude": "-82.4500207",
    "latitude": "27.9495902",
    "tags": []
  },
  {
    "id": "bastet-brewing",
    "name": "Bastet Brewing",
    "brewery_type": "planning",
    "street": "",
    "city": "Tampa",
    "state": "Florida",
    "postal_code": "33613-1254",
    "website_url": "http://www.bastetbrewing.com",
    "phone": "",
    "created_at": "2018-07-24 01:33:11.446088",
    "updated_at": "2018-08-11 21:36:51.082446",
    "country": "United States",
    "longitude": "",
    "latitude": "",
    "tags": []
  },
  {
    "id": "brew-bus-brewing",
    "name": "Brew Bus Brewing",
    "brewery_type": "brewpub",
    "street": "4101 N Florida Ave",
    "city": "Tampa",
    "state": "Florida",
    "postal_code": "33603-3817",
    "website_url": "http://www.brewbususa.com",
    "phone": "8139907310",
    "created_at": "2018-07-24 01:33:11.745996",
    "updated_at": "2018-08-24 00:26:42.985305",
    "country": "United States",
    "longitude": "-82.4586495",
    "latitude": "27.9826232",
    "tags": []
  },
  {
    "id": "cigar-city-airport-location",
    "name": "Cigar City Airport Location",
    "brewery_type": "planning",
    "street": "",
    "city": "Tampa",
    "state": "Florida",
    "postal_code": "33607",
    "website_url": "",
    "phone": "",
    "created_at": "2018-07-24 01:33:12.172154",
    "updated_at": "2018-08-11 21:36:52.723265",
    "country": "United States",
    "longitude": "",
    "latitude": "",
    "tags": []
  },
  {
    "id": "cigar-city-brewing-co",
    "name": "Cigar City Brewing Co",
    "brewery_type": "regional",
    "street": "3924 W Spruce St",
    "city": "Tampa",
    "state": "Florida",
    "postal_code": "33607-2441",
    "website_url": "http://www.cigarcitybrewing.com",
    "phone": "8133486363",
    "created_at": "2018-07-24 01:33:12.1859",
    "updated_at": "2018-08-24 00:26:51.916982",
    "country": "United States",
    "longitude": "-82.509195",
    "latitude": "27.959172",
    "tags": []
  },
  {
    "id": "coppertail-brewing",
    "name": "Coppertail Brewing",
    "brewery_type": "micro",
    "street": "2601 E 2nd Ave",
    "city": "Tampa",
    "state": "Florida",
    "postal_code": "33605-5503",
    "website_url": "http://www.coppertailbrewing.com",
    "phone": "8132471500",
    "created_at": "2018-07-24 01:33:12.293778",
    "updated_at": "2018-08-24 00:26:55.632696",
    "country": "United States",
    "longitude": "-82.430498",
    "latitude": "27.956553",
    "tags": []
  },
  {
    "id": "d-g-yuengling-and-son-inc",
    "name": "D. G. Yuengling and Son Inc",
    "brewery_type": "regional",
    "street": "11111 N 30th St",
    "city": "Tampa",
    "state": "Florida",
    "postal_code": "33612-6439",
    "website_url": "http://www.yuengling.com",
    "phone": "8139728552",
    "created_at": "2018-07-24 01:33:12.427994",
    "updated_at": "2018-08-24 00:27:00.943011",
    "country": "United States",
    "longitude": "-82.4260891836735",
    "latitude": "28.0476797755102",
    "tags": []
  },
  {
    "id": "hidden-springs-ale-works",
    "name": "Hidden Springs Ale Works",
    "brewery_type": "micro",
    "street": "1631 N Franklin St",
    "city": "Tampa",
    "state": "Florida",
    "postal_code": "33602-2621",
    "website_url": "http://www.Hiddenspringsaleworks.com",
    "phone": "8132262739",
    "created_at": "2018-07-24 01:33:13.14731",
    "updated_at": "2018-08-24 00:27:28.50531",
    "country": "United States",
    "longitude": "-82.4600853673469",
    "latitude": "27.9587823061224",
    "tags": []
  },
  {
    "id": "mr-dunderbaks-biergarten-and-brewery-/-dunderbrau-brewing",
    "name": "Mr Dunderbaks Biergarten and Brewery / Dunderbrau Brewing",
    "brewery_type": "brewpub",
    "street": "14929 Bruce B Downs Blvd",
    "city": "Tampa",
    "state": "Florida",
    "postal_code": "33613-2860",
    "website_url": "http://www.dunderbaks.ieasysite.com",
    "phone": "8139774104",
    "created_at": "2018-07-24 01:33:13.798646",
    "updated_at": "2018-08-24 00:27:54.825363",
    "country": "United States",
    "longitude": "-82.4138298965517",
    "latitude": "28.0823729310345",
    "tags": []
  },
  {
    "id": "six-ten-brewing",
    "name": "Six Ten Brewing",
    "brewery_type": "micro",
    "street": "7052 Benjamin Rd",
    "city": "Tampa",
    "state": "Florida",
    "postal_code": "33634-3034",
    "website_url": "",
    "phone": "8138860610",
    "created_at": "2018-07-24 01:33:14.58054",
    "updated_at": "2018-08-11 21:36:58.706979",
    "country": "United States",
    "longitude": "",
    "latitude": "",
    "tags": []
  },
  {
    "id": "tampa-bay-brewing-co-brewpub",
    "name": "Tampa Bay Brewing Co Brewpub",
    "brewery_type": "micro",
    "street": "1600 E 8th Ave Ste A123",
    "city": "Tampa",
    "state": "Florida",
    "postal_code": "33605-3760",
    "website_url": "http://tbbc.beer",
    "phone": "8132471422",
    "created_at": "2018-07-24 01:33:14.751973",
    "updated_at": "2018-08-11 21:36:59.1277",
    "country": "United States",
    "longitude": "",
    "latitude": "",
    "tags": []
  },
  {
    "id": "tampa-bay-brewing-co-production-brewery",
    "name": "Tampa Bay Brewing Co Production Brewery",
    "brewery_type": "brewpub",
    "street": "13937 Monroes Business Park",
    "city": "Tampa",
    "state": "Florida",
    "postal_code": "33635-6309",
    "website_url": "",
    "phone": "8132471422",
    "created_at": "2018-07-24 01:33:14.763765",
    "updated_at": "2018-08-11 21:36:59.157156",
    "country": "United States",
    "longitude": "",
    "latitude": "",
    "tags": []
  },
  {
    "id": "tampa-beer-works",
    "name": "Tampa Beer Works",
    "brewery_type": "micro",
    "street": "333 N Falkenburg Rd Ste D407",
    "city": "Tampa",
    "state": "Florida",
    "postal_code": "33619-7895",
    "website_url": "http://www.esbbrewing.com",
    "phone": "8136851909",
    "created_at": "2018-07-24 01:33:14.775906",
    "updated_at": "2018-08-11 21:36:59.193365",
    "country": "United States",
    "longitude": "",
    "latitude": "",
    "tags": []
  },
  {
    "id": "the-wild-rover-brewery",
    "name": "The Wild Rover Brewery",
    "brewery_type": "micro",
    "street": "13921 Lynmar Blvd",
    "city": "Tampa",
    "state": "Florida",
    "postal_code": "33626",
    "website_url": "http://www.thewildroverbrewery.com",
    "phone": "8134755995",
    "created_at": "2018-07-24 01:33:14.917215",
    "updated_at": "2018-08-11 21:36:59.498294",
    "country": "United States",
    "longitude": "",
    "latitude": "",
    "tags": []
  },
  {
    "id": "ulele-spring-brewery",
    "name": "Ulele Spring Brewery",
    "brewery_type": "brewpub",
    "street": "1810 N Highland Ave",
    "city": "Tampa",
    "state": "Florida",
    "postal_code": "33602-2605",
    "website_url": "",
    "phone": "",
    "created_at": "2018-07-24 01:33:15.060929",
    "updated_at": "2018-08-24 00:28:45.396653",
    "country": "United States",
    "longitude": "-82.4628190391185",
    "latitude": "27.9599097",
    "tags": []
  },
  {
    "id": "zydeco-brew-werks",
    "name": "Zydeco Brew Werks",
    "brewery_type": "brewpub",
    "street": "1902 E 7th Ave",
    "city": "Tampa",
    "state": "Florida",
    "postal_code": "33605-3810",
    "website_url": "",
    "phone": "8132524541",
    "created_at": "2018-07-24 01:33:15.293319",
    "updated_at": "2018-08-24 00:28:55.447699",
    "country": "United States",
    "longitude": "-82.4378322857143",
    "latitude": "27.9603437959184",
    "tags": []
  }
]