[
  {
    "id": "playalinda-brewing-company",
    "name": "Playalinda Brewing Company",
    "brewery_type": "micro",
    "street": "305 S Washington Ave",
    "city": "Titusville",
    "state": "Florida",
    "postal_code": "32796-3539",
    "website_url": "http://www.playalindabrewingcompany.com",
    "phone": "3212258978",
    "created_at": "2018-07-24 01:33:14.209853",
    "updated_at": "2018-08-11 21:36:57.83839",
    "country": "United States",
    "longitude": "",
    "latitude": "",
    "tags": []
  },
  {
    "id": "wild-hordeum-brewing-co",
    "name": "Wild Hordeum Brewing Co.",
    "brewery_type": "planning",
    "street": "",
    "city": "Titusville",
    "state": "Florida",
    "postal_code": "32796-2357",
    "website_url": "",
    "phone": "7274886300",
    "created_at": "2018-07-24 01:33:15.193668",
    "updated_at": "2018-08-11 21:37:00.351082",
    "country": "United States",
    "longitude": "",
    "latitude": "",
    "tags": []
  },
  {
    "id": "playalinda-brewing-company-brix-project",
    "name": "Playalinda Brewing Company -  Brix Project",
    "brewery_type": "brewpub",
    "street": "5220 S Washington Ave",
    "city": "Titusville",
    "state": "Florida",
    "postal_code": "32780-7316",
    "website_url": "http://www.playalindabrewingcompany.com",
    "phone": "",
    "created_at": "2018-07-24 01:33:14.222135",
    "updated_at": "2018-08-11 21:36:57.872235",
    "country": "United States",
    "longitude": "",
    "latitude": "",
    "tags": []
  }
]