[
  {
    "id": "american-icon-brewery",
    "name": "American Icon Brewery",
    "brewery_type": "brewpub",
    "street": "1133 19th Place",
    "city": "Vero Beach",
    "state": "Florida",
    "postal_code": "32960",
    "website_url": "http://www.americaniconbrewery.com",
    "phone": "7729344266",
    "created_at": "2018-07-24 01:33:11.290491",
    "updated_at": "2018-08-24 00:26:27.276841",
    "country": "United States",
    "longitude": "-80.3955066999903",
    "latitude": "27.6367436059729",
    "tags": []
  },
  {
    "id": "orchid-island-brewery",
    "name": "Orchid Island Brewery",
    "brewery_type": "micro",
    "street": "2855 Ocean Dr Ste C1",
    "city": "Vero Beach",
    "state": "Florida",
    "postal_code": "32963-2038",
    "website_url": "http://www.orchidislandbrewery.com",
    "phone": "7722052436",
    "created_at": "2018-07-24 01:33:13.992541",
    "updated_at": "2018-08-11 21:36:57.298335",
    "country": "United States",
    "longitude": "",
    "latitude": "",
    "tags": []
  },
  {
    "id": "walking-tree-brewery",
    "name": "Walking Tree Brewery",
    "brewery_type": "micro",
    "street": "3209 Dodger Rd",
    "city": "Vero Beach",
    "state": "Florida",
    "postal_code": "32960-7976",
    "website_url": "http://www.walkingtreebrewery.com",
    "phone": "3055623717",
    "created_at": "2018-07-24 01:33:15.133052",
    "updated_at": "2018-08-24 00:28:48.432532",
    "country": "United States",
    "longitude": "-80.4185247525615",
    "latitude": "27.6455742",
    "tags": []
  }
]