[
  {
    "id": "the-ravenous-pig-/-cask-and-larder",
    "name": "The Ravenous Pig / Cask & Larder",
    "brewery_type": "brewpub",
    "street": "565 W Fairbanks Ave",
    "city": "Winter Park",
    "state": "Florida",
    "postal_code": "32789-5005",
    "website_url": "http://www.caskandlarder.com",
    "phone": "3212804200",
    "created_at": "2018-07-24 01:33:14.893482",
    "updated_at": "2018-08-24 00:28:39.976532",
    "country": "United States",
    "longitude": "-81.3558211",
    "latitude": "28.5933111",
    "tags": []
  },
  {
    "id": "beer-religion",
    "name": "Beer Religion",
    "brewery_type": "planning",
    "street": "",
    "city": "Winter Park",
    "state": "Florida",
    "postal_code": "32792-5111",
    "website_url": "",
    "phone": "",
    "created_at": "2018-07-24 01:33:11.500436",
    "updated_at": "2018-08-11 21:36:51.209398",
    "country": "United States",
    "longitude": "",
    "latitude": "",
    "tags": []
  },
  {
    "id": "deadly-sins-brewing",
    "name": "Deadly Sins Brewing",
    "brewery_type": "micro",
    "street": "750 Jackson Ave Ste 102",
    "city": "Winter Park",
    "state": "Florida",
    "postal_code": "32789-4673",
    "website_url": "http://www.deadlysinsbrewing.com",
    "phone": "4079008726",
    "created_at": "2018-07-24 01:33:12.522152",
    "updated_at": "2018-08-11 21:36:53.505029",
    "country": "United States",
    "longitude": "",
    "latitude": "",
    "tags": []
  },
  {
    "id": "the-bear-and-peacock",
    "name": "The Bear And Peacock",
    "brewery_type": "micro",
    "street": "1288 Orange Ave",
    "city": "Winter Park",
    "state": "Florida",
    "postal_code": "32789-4940",
    "website_url": "http://www.thebearandpeacock.com",
    "phone": "4078012714",
    "created_at": "2018-07-24 01:33:14.845012",
    "updated_at": "2018-08-24 00:28:38.380884",
    "country": "United States",
    "longitude": "-81.3566559",
    "latitude": "28.5929429",
    "tags": []
  }
]