[
  {
    "id": "bonn-place-brewing",
    "name": "Bonn Place Brewing",
    "brewery_type": "micro",
    "street": "310 Taylor St",
    "city": "Bethlehem",
    "state": "Pennsylvania",
    "postal_code": "18015",
    "website_url": "http://www.bonnbrewing.com",
    "phone": "6104196660",
    "created_at": "2018-07-24 01:34:09.131756",
    "updated_at": "2018-08-24 16:06:52.341679",
    "country": "United States",
    "longitude": "-75.3745048",
    "latitude": "40.6116536",
    "tags": []
  },
  {
    "id": "cave-brewing-co",
    "name": "Cave Brewing Co",
    "brewery_type": "micro",
    "street": "1407 Seidersville Rd",
    "city": "Bethlehem",
    "state": "Pennsylvania",
    "postal_code": "18015-4219",
    "website_url": "http://www.cavebrewing.com",
    "phone": "6107391381",
    "created_at": "2018-07-24 01:34:09.68935",
    "updated_at": "2018-08-24 16:07:21.175219",
    "country": "United States",
    "longitude": "-75.3464618",
    "latitude": "40.5910341",
    "tags": []
  },
  {
    "id": "hop-hill-brewing-company",
    "name": "Hop Hill Brewing Company",
    "brewery_type": "micro",
    "street": "1988 Blair Ave",
    "city": "Bethlehem",
    "state": "Pennsylvania",
    "postal_code": "18015-5307",
    "website_url": "http://www.hophillbeer.com",
    "phone": "4848930767",
    "created_at": "2018-07-24 01:34:10.933837",
    "updated_at": "2018-08-11 21:39:27.413245",
    "country": "United States",
    "longitude": "",
    "latitude": "",
    "tags": []
  },
  {
    "id": "seven-sirens-brewing-company",
    "name": "Seven Sirens Brewing Company",
    "brewery_type": "planning",
    "street": "",
    "city": "Bethlehem",
    "state": "Pennsylvania",
    "postal_code": "18015",
    "website_url": "",
    "phone": "4842396544",
    "created_at": "2018-07-24 01:34:12.56181",
    "updated_at": "2018-08-11 21:39:31.134487",
    "country": "United States",
    "longitude": "",
    "latitude": "",
    "tags": []
  }
]