[
  {
    "id": "old-forge-brewing-co",
    "name": "Old Forge Brewing Co",
    "brewery_type": "micro",
    "street": "401 Railroad St Ste 104",
    "city": "Danville",
    "state": "Pennsylvania",
    "postal_code": "17821-1593",
    "website_url": "http://www.oldforgebrewingcompany.com",
    "phone": "5702758151",
    "created_at": "2018-07-24 01:34:11.893896",
    "updated_at": "2018-08-11 21:39:29.570754",
    "country": "United States",
    "longitude": "",
    "latitude": "",
    "tags": []
  },
  {
    "id": "roundback-brewery-llc",
    "name": "Roundback Brewery LLC",
    "brewery_type": "planning",
    "street": "",
    "city": "Danville",
    "state": "Pennsylvania",
    "postal_code": "17821-7746",
    "website_url": "http://roundbackbrewery.com",
    "phone": "5708548067",
    "created_at": "2018-07-24 01:34:12.395012",
    "updated_at": "2018-08-11 21:39:30.752735",
    "country": "United States",
    "longitude": "",
    "latitude": "",
    "tags": []
  },
  {
    "id": "rock-god-brewing-company",
    "name": "Rock God Brewing Company",
    "brewery_type": "micro",
    "street": "459 Rooney Ave",
    "city": "Danville",
    "state": "Pennsylvania",
    "postal_code": "17821-1897",
    "website_url": "http://rockgodbeer.com",
    "phone": "5702844096",
    "created_at": "2018-07-24 01:34:12.286151",
    "updated_at": "2018-08-24 16:11:28.127627",
    "country": "United States",
    "longitude": "-76.618447",
    "latitude": "40.962031",
    "tags": []
  },
  {
    "id": "old-forge-brewing-co",
    "name": "Old Forge Brewing Co",
    "brewery_type": "brewpub",
    "street": "532 Mill St",
    "city": "Danville",
    "state": "Pennsylvania",
    "postal_code": "17821-1015",
    "website_url": "http://www.oldforgebrewingcompany.com",
    "phone": "5702758151",
    "created_at": "2018-07-24 01:34:11.907368",
    "updated_at": "2018-08-24 16:10:51.843999",
    "country": "United States",
    "longitude": "-76.6160076294016",
    "latitude": "40.9654799905837",
    "tags": []
  }
]