[
  {
    "id": "brewery-in-planning-erie",
    "name": "Brewery in Planning - Erie",
    "brewery_type": "planning",
    "street": "",
    "city": "Erie",
    "state": "Pennsylvania",
    "postal_code": "16505-4202",
    "website_url": "",
    "phone": "",
    "created_at": "2018-07-24 01:34:09.361175",
    "updated_at": "2018-08-11 21:39:23.779781",
    "country": "United States",
    "longitude": "",
    "latitude": "",
    "tags": []
  },
  {
    "id": "brewerie-at-union-station-the",
    "name": "Brewerie at Union Station, The",
    "brewery_type": "brewpub",
    "street": "123 W 14th St",
    "city": "Erie",
    "state": "Pennsylvania",
    "postal_code": "16501-1717",
    "website_url": "http://www.brewerie.com",
    "phone": "8144542200",
    "created_at": "2018-07-24 01:34:09.277268",
    "updated_at": "2018-08-24 16:07:01.6713",
    "country": "United States",
    "longitude": "-80.0819415",
    "latitude": "42.1211965",
    "tags": []
  },
  {
    "id": "daugherty-brewing-company",
    "name": "Daugherty Brewing Company",
    "brewery_type": "planning",
    "street": "",
    "city": "Erie",
    "state": "Pennsylvania",
    "postal_code": "16510-3680",
    "website_url": "http://www.daughertybrewingcompany.com",
    "phone": "",
    "created_at": "2018-07-24 01:34:10.163156",
    "updated_at": "2018-08-11 21:39:25.717528",
    "country": "United States",
    "longitude": "",
    "latitude": "",
    "tags": []
  },
  {
    "id": "erie-ale-works",
    "name": "Erie Ale Works",
    "brewery_type": "micro",
    "street": "416 W 12th St",
    "city": "Erie",
    "state": "Pennsylvania",
    "postal_code": "16501-1506",
    "website_url": "http://www.eriealeworks.com",
    "phone": "8143149089",
    "created_at": "2018-07-24 01:34:10.432718",
    "updated_at": "2018-08-24 16:08:27.062663",
    "country": "United States",
    "longitude": "-80.1219366",
    "latitude": "42.108963",
    "tags": []
  },
  {
    "id": "lavery-brewing-co",
    "name": "Lavery Brewing Co",
    "brewery_type": "micro",
    "street": "128 W 12th St",
    "city": "Erie",
    "state": "Pennsylvania",
    "postal_code": "16501-1750",
    "website_url": "http://www.laverybrewing.com",
    "phone": "8144540405",
    "created_at": "2018-07-24 01:34:11.281088",
    "updated_at": "2018-08-24 16:09:50.789609",
    "country": "United States",
    "longitude": "-80.1219366",
    "latitude": "42.108963",
    "tags": []
  },
  {
    "id": "millcreek-brewing-company",
    "name": "Millcreek Brewing Company",
    "brewery_type": "brewpub",
    "street": "4102 W Lake Rd",
    "city": "Erie",
    "state": "Pennsylvania",
    "postal_code": "16505-1561",
    "website_url": "http://www.millcreekbrew.com",
    "phone": "8146162739",
    "created_at": "2018-07-24 01:34:11.644664",
    "updated_at": "2018-08-24 16:10:23.503394",
    "country": "United States",
    "longitude": "-80.3312655",
    "latitude": "42.029976",
    "tags": []
  },
  {
    "id": "erie-brewing-co",
    "name": "Erie Brewing Co",
    "brewery_type": "micro",
    "street": "6008 Knowledge Pkwy # A",
    "city": "Erie",
    "state": "Pennsylvania",
    "postal_code": "16510-4676",
    "website_url": "http://www.eriebrewingco.com",
    "phone": "8144597741",
    "created_at": "2018-07-24 01:34:10.447226",
    "updated_at": "2018-08-11 21:39:26.320136",
    "country": "United States",
    "longitude": "",
    "latitude": "",
    "tags": []
  }
]