[
  {
    "id": "zeroday-brewing-company",
    "name": "Zeroday Brewing Company",
    "brewery_type": "brewpub",
    "street": "250 Reily St Ste 103",
    "city": "Harrisburg",
    "state": "Pennsylvania",
    "postal_code": "17102-2550",
    "website_url": "http://www.zerodaybrewing.com",
    "phone": "7177456218",
    "created_at": "2018-07-24 01:34:13.632107",
    "updated_at": "2018-08-24 16:13:31.172053",
    "country": "United States",
    "longitude": "-76.8915931",
    "latitude": "40.2717061",
    "tags": []
  },
  {
    "id": "brewery-in-planning-harrisburg",
    "name": "Brewery in Planning - Harrisburg",
    "brewery_type": "planning",
    "street": "",
    "city": "Harrisburg",
    "state": "Pennsylvania",
    "postal_code": "17111-2231",
    "website_url": "",
    "phone": "",
    "created_at": "2018-07-24 01:34:09.409102",
    "updated_at": "2018-08-11 21:39:23.852953",
    "country": "United States",
    "longitude": "",
    "latitude": "",
    "tags": []
  },
  {
    "id": "appalachian-brewing-co-harrisburg",
    "name": "Appalachian Brewing Co - Harrisburg",
    "brewery_type": "brewpub",
    "street": "50 N Cameron St",
    "city": "Harrisburg",
    "state": "Pennsylvania",
    "postal_code": "17101-2407",
    "website_url": "http://www.abcbrew.com",
    "phone": "7172211080",
    "created_at": "2018-07-24 01:34:08.754966",
    "updated_at": "2018-08-24 16:06:18.037738",
    "country": "United States",
    "longitude": "-76.8816961",
    "latitude": "40.291059",
    "tags": []
  },
  {
    "id": "boneshire-brew-works",
    "name": "Boneshire Brew Works",
    "brewery_type": "micro",
    "street": "7462 Derry St",
    "city": "Harrisburg",
    "state": "Pennsylvania",
    "postal_code": "17111-5228",
    "website_url": "http://www.boneshire.com",
    "phone": "7174127814",
    "created_at": "2018-07-24 01:34:09.116662",
    "updated_at": "2018-08-24 16:06:50.894982",
    "country": "United States",
    "longitude": "-76.8712077",
    "latitude": "40.2633825",
    "tags": []
  },
  {
    "id": "spring-gate-brewery",
    "name": "Spring Gate Brewery",
    "brewery_type": "micro",
    "street": "5790 Devonshire Rd",
    "city": "Harrisburg",
    "state": "Pennsylvania",
    "postal_code": "17112-3508",
    "website_url": "http://www.springgatebrewery.com",
    "phone": "7174800066",
    "created_at": "2018-07-24 01:34:12.734456",
    "updated_at": "2018-08-11 21:39:31.560811",
    "country": "United States",
    "longitude": "",
    "latitude": "",
    "tags": []
  },
  {
    "id": "the-millworks-brewery",
    "name": "The Millworks Brewery",
    "brewery_type": "brewpub",
    "street": "340 Verbeke St",
    "city": "Harrisburg",
    "state": "Pennsylvania",
    "postal_code": "17102-2052",
    "website_url": "http://www.millworksharrisburg.com",
    "phone": "7176954888",
    "created_at": "2018-07-24 01:34:13.057738",
    "updated_at": "2018-08-24 16:12:36.758265",
    "country": "United States",
    "longitude": "-76.8874206",
    "latitude": "40.270538",
    "tags": []
  },
  {
    "id": "the-vegetable-hunter",
    "name": "The Vegetable Hunter",
    "brewery_type": "brewpub",
    "street": "614 N 2nd St",
    "city": "Harrisburg",
    "state": "Pennsylvania",
    "postal_code": "17101-1001",
    "website_url": "http://www.TheVegetableHunter.com",
    "phone": "7176956229",
    "created_at": "2018-07-24 01:34:13.116259",
    "updated_at": "2018-08-24 16:12:42.745093",
    "country": "United States",
    "longitude": "-76.8881545",
    "latitude": "40.2638045",
    "tags": []
  },
  {
    "id": "wolf-brewing-company",
    "name": "Wolf Brewing Company",
    "brewery_type": "planning",
    "street": "",
    "city": "Harrisburg",
    "state": "Pennsylvania",
    "postal_code": "17112-1550",
    "website_url": "http://www.wolfbrewingco.com",
    "phone": "7176452752",
    "created_at": "2018-07-24 01:34:13.536106",
    "updated_at": "2018-08-11 21:39:33.466397",
    "country": "United States",
    "longitude": "",
    "latitude": "",
    "tags": []
  }
]