[
  {
    "id": "spring-house-brewery",
    "name": "Spring House Brewery",
    "brewery_type": "micro",
    "street": "209 Hazel St",
    "city": "Lancaster",
    "state": "Pennsylvania",
    "postal_code": "17603-5629",
    "website_url": "http://www.springhousebeer.com",
    "phone": "7178720925",
    "created_at": "2018-07-24 01:34:12.749971",
    "updated_at": "2018-08-24 15:49:13.355408",
    "country": "United States",
    "longitude": "-76.3071090416667",
    "latitude": "40.029367375",
    "tags": []
  },
  {
    "id": "wacker-brewing-co",
    "name": "Wacker Brewing Co",
    "brewery_type": "micro",
    "street": "417 W Grant St",
    "city": "Lancaster",
    "state": "Pennsylvania",
    "postal_code": "17603",
    "website_url": "http://www.wackerbrewing.com",
    "phone": "7176172711",
    "created_at": "2018-07-24 01:34:13.418162",
    "updated_at": "2018-08-24 16:13:11.214864",
    "country": "United States",
    "longitude": "-76.3136543877551",
    "latitude": "40.0379942653061",
    "tags": []
  },
  {
    "id": "lancaster-brewing-co",
    "name": "Lancaster Brewing Co",
    "brewery_type": "micro",
    "street": "302 N Plum St # 304",
    "city": "Lancaster",
    "state": "Pennsylvania",
    "postal_code": "17602-2402",
    "website_url": "http://www.lancasterbrewing.com",
    "phone": "7173916258",
    "created_at": "2018-07-24 01:34:11.25645",
    "updated_at": "2018-08-24 16:09:47.600221",
    "country": "United States",
    "longitude": "-76.2985330081352",
    "latitude": "40.0438635",
    "tags": []
  },
  {
    "id": "fetish-brewing-co",
    "name": "Fetish Brewing Co",
    "brewery_type": "micro",
    "street": "325 Ice Ave",
    "city": "Lancaster",
    "state": "Pennsylvania",
    "postal_code": "17602-1930",
    "website_url": "http://fetishbrewing.tumblr.com",
    "phone": "",
    "created_at": "2018-07-24 01:34:10.518343",
    "updated_at": "2018-08-24 16:08:35.958967",
    "country": "United States",
    "longitude": "-76.3011427142857",
    "latitude": "40.052413",
    "tags": []
  },
  {
    "id": "iron-hill-brewery-and-restaurant-lancaster",
    "name": "Iron Hill Brewery & Restaurant - Lancaster",
    "brewery_type": "brewpub",
    "street": "781 Harrisburg Pike",
    "city": "Lancaster",
    "state": "Pennsylvania",
    "postal_code": "17603-2655",
    "website_url": "http://www.ironhillbrewery.com",
    "phone": "7172919800",
    "created_at": "2018-07-24 01:34:11.036367",
    "updated_at": "2018-08-24 16:09:24.907942",
    "country": "United States",
    "longitude": "-76.3188136",
    "latitude": "40.0506816",
    "tags": []
  }
]