[
  {
    "id": "crowded-castle-brewing-co-inc",
    "name": "Crowded Castle Brewing Co. Inc.",
    "brewery_type": "brewpub",
    "street": "242 Bridge St",
    "city": "Phoenixville",
    "state": "Pennsylvania",
    "postal_code": "19460-3450",
    "website_url": "http://www.crowdedcastle.com",
    "phone": "4842520077",
    "created_at": "2018-07-24 01:34:10.06467",
    "updated_at": "2018-08-24 16:07:58.623503",
    "country": "United States",
    "longitude": "-75.5176281428571",
    "latitude": "40.1337041428571",
    "tags": []
  },
  {
    "id": "iron-hill-brewery-and-restaurant-phoenixville",
    "name": "Iron Hill Brewery & Restaurant - Phoenixville",
    "brewery_type": "brewpub",
    "street": "130 Bridge St",
    "city": "Phoenixville",
    "state": "Pennsylvania",
    "postal_code": "19460-3448",
    "website_url": "http://www.ironhillbrewery.com",
    "phone": "6109839333",
    "created_at": "2018-07-24 01:34:11.076993",
    "updated_at": "2018-08-24 16:09:29.651022",
    "country": "United States",
    "longitude": "-75.51335",
    "latitude": "40.13418",
    "tags": []
  },
  {
    "id": "sly-fox-brewhouse-and-eatery",
    "name": "Sly Fox Brewhouse and Eatery",
    "brewery_type": "micro",
    "street": "520 Kimberton Rd Pikeland Village Square",
    "city": "Phoenixville",
    "state": "Pennsylvania",
    "postal_code": "19460-4737",
    "website_url": "http://www.slyfoxbeer.com",
    "phone": "6109354540",
    "created_at": "2018-07-24 01:34:12.61482",
    "updated_at": "2018-08-11 21:39:31.269494",
    "country": "United States",
    "longitude": "",
    "latitude": "",
    "tags": []
  },
  {
    "id": "root-down-brewing-company",
    "name": "Root Down Brewing Company",
    "brewery_type": "brewpub",
    "street": "1 N Main St",
    "city": "Phoenixville",
    "state": "Pennsylvania",
    "postal_code": "19460-3419",
    "website_url": "http://www.rootdownbrewing.com",
    "phone": "4843932337",
    "created_at": "2018-07-24 01:34:12.333538",
    "updated_at": "2018-08-24 16:11:31.087525",
    "country": "United States",
    "longitude": "-75.515616",
    "latitude": "40.137147",
    "tags": []
  },
  {
    "id": "stable-12-brewing-company",
    "name": "Stable 12 Brewing Company",
    "brewery_type": "brewpub",
    "street": "368 Bridge St",
    "city": "Phoenixville",
    "state": "Pennsylvania",
    "postal_code": "19460-3358",
    "website_url": "http://www.stable12.com",
    "phone": "",
    "created_at": "2018-07-24 01:34:12.779021",
    "updated_at": "2018-08-24 16:12:09.771505",
    "country": "United States",
    "longitude": "-75.5195231",
    "latitude": "40.1335808",
    "tags": []
  }
]