[
  {
    "id": "allegheny-city-brewing",
    "name": "Allegheny City Brewing",
    "brewery_type": "micro",
    "street": "507 Foreland St",
    "city": "Pittsburgh",
    "state": "Pennsylvania",
    "postal_code": "15212-4910",
    "website_url": "http://www.alleghenycitybrewing.com",
    "phone": "4129043732",
    "created_at": "2018-07-24 01:34:08.67521",
    "updated_at": "2018-08-24 16:06:09.640176",
    "country": "United States",
    "longitude": "-80.0006107346519",
    "latitude": "40.454249330209",
    "tags": []
  },
  {
    "id": "couch-brewery",
    "name": "Couch Brewery",
    "brewery_type": "micro",
    "street": "1351 Washington Blvd",
    "city": "Pittsburgh",
    "state": "Pennsylvania",
    "postal_code": "15206-1801",
    "website_url": "http://www.couchbrewery.com",
    "phone": "4124411724",
    "created_at": "2018-07-24 01:34:09.941572",
    "updated_at": "2018-08-24 16:07:49.623262",
    "country": "United States",
    "longitude": "-79.9090141",
    "latitude": "40.4695304",
    "tags": []
  },
  {
    "id": "hofbrauhaus-pittsburgh",
    "name": "Hofbrauhaus Pittsburgh",
    "brewery_type": "brewpub",
    "street": "2705 S Water St",
    "city": "Pittsburgh",
    "state": "Pennsylvania",
    "postal_code": "15203",
    "website_url": "http://www.hofbrauhauspittsburgh.com",
    "phone": "4122242328",
    "created_at": "2018-07-24 01:34:10.882479",
    "updated_at": "2018-08-24 16:09:09.168298",
    "country": "United States",
    "longitude": "-79.9639442",
    "latitude": "40.4279919",
    "tags": []
  },
  {
    "id": "pennsylvania-brewing-co",
    "name": "Pennsylvania Brewing Co",
    "brewery_type": "micro",
    "street": "800 Vinial St",
    "city": "Pittsburgh",
    "state": "Pennsylvania",
    "postal_code": "15212-5151",
    "website_url": "http://www.pennbrew.com",
    "phone": "4122379402",
    "created_at": "2018-07-24 01:34:11.958862",
    "updated_at": "2018-08-24 16:10:58.189349",
    "country": "United States",
    "longitude": "-79.9916372219515",
    "latitude": "40.457132",
    "tags": []
  },
  {
    "id": "copper-kettle-brewing-co",
    "name": "Copper Kettle Brewing Co",
    "brewery_type": "micro",
    "street": "557 Greenfield Ave",
    "city": "Pittsburgh",
    "state": "Pennsylvania",
    "postal_code": "15207-1093",
    "website_url": "",
    "phone": "",
    "created_at": "2018-07-24 01:34:09.914643",
    "updated_at": "2018-08-24 16:07:46.643113",
    "country": "United States",
    "longitude": "-79.9404082589853",
    "latitude": "40.426118665802",
    "tags": []
  },
  {
    "id": "bayonet-cider-company",
    "name": "Bayonet Cider Company",
    "brewery_type": "planning",
    "street": "",
    "city": "Pittsburgh",
    "state": "Pennsylvania",
    "postal_code": "15206-5111",
    "website_url": "",
    "phone": "5134841943",
    "created_at": "2018-07-24 01:34:08.910952",
    "updated_at": "2018-08-11 21:39:22.688364",
    "country": "United States",
    "longitude": "",
    "latitude": "",
    "tags": []
  },
  {
    "id": "aurochs-brewing-company",
    "name": "Aurochs Brewing Company",
    "brewery_type": "micro",
    "street": "8321 Ohio River Blvd",
    "city": "Pittsburgh",
    "state": "Pennsylvania",
    "postal_code": "15202-1451",
    "website_url": "",
    "phone": "7242608737",
    "created_at": "2018-07-24 01:34:08.836782",
    "updated_at": "2018-08-24 16:06:25.638197",
    "country": "United States",
    "longitude": "-80.0221567",
    "latitude": "40.4488158",
    "tags": []
  },
  {
    "id": "church-brew-works/lawrenceville-brewery-inc",
    "name": "Church Brew Works/Lawrenceville Brewery Inc.",
    "brewery_type": "brewpub",
    "street": "3525 Liberty Ave",
    "city": "Pittsburgh",
    "state": "Pennsylvania",
    "postal_code": "15201-1324",
    "website_url": "http://www.churchbrew.com",
    "phone": "4126888200",
    "created_at": "2018-07-24 01:34:09.749027",
    "updated_at": "2018-08-24 16:07:27.27617",
    "country": "United States",
    "longitude": "-79.9643613",
    "latitude": "40.4620769",
    "tags": []
  },
  {
    "id": "cinderlands-beer-co",
    "name": "Cinderlands Beer Co.",
    "brewery_type": "brewpub",
    "street": "3705 Butler St",
    "city": "Pittsburgh",
    "state": "Pennsylvania",
    "postal_code": "15201-1819",
    "website_url": "http://www.cinderlands.com",
    "phone": "4122510656",
    "created_at": "2018-07-24 01:34:09.763356",
    "updated_at": "2018-08-24 16:07:29.113559",
    "country": "United States",
    "longitude": "-79.9224894",
    "latitude": "40.4884044",
    "tags": []
  },
  {
    "id": "costar-brewing-inc",
    "name": "CoStar Brewing Inc.",
    "brewery_type": "micro",
    "street": "919 N Saint Clair St",
    "city": "Pittsburgh",
    "state": "Pennsylvania",
    "postal_code": "15206-2133",
    "website_url": "",
    "phone": "",
    "created_at": "2018-07-24 01:34:09.928602",
    "updated_at": "2018-08-24 16:07:48.130124",
    "country": "United States",
    "longitude": "-79.9232026",
    "latitude": "40.4726062",
    "tags": []
  },
  {
    "id": "dancing-gnome-beer",
    "name": "Dancing Gnome Beer",
    "brewery_type": "micro",
    "street": "925 Main St",
    "city": "Pittsburgh",
    "state": "Pennsylvania",
    "postal_code": "15215-2301",
    "website_url": "http://www.dancinggnomebeer.com",
    "phone": "4124082083",
    "created_at": "2018-07-24 01:34:10.147225",
    "updated_at": "2018-08-24 16:08:06.065415",
    "country": "United States",
    "longitude": "-79.8411685918367",
    "latitude": "40.3986205102041",
    "tags": []
  },
  {
    "id": "grist-house-craft-brewery",
    "name": "Grist House Craft Brewery",
    "brewery_type": "micro",
    "street": "10 Sherman St",
    "city": "Pittsburgh",
    "state": "Pennsylvania",
    "postal_code": "15209-2728",
    "website_url": "http://www.gristhouse.com",
    "phone": "4124471442",
    "created_at": "2018-07-24 01:34:10.706591",
    "updated_at": "2018-08-11 21:39:26.90763",
    "country": "United States",
    "longitude": "",
    "latitude": "",
    "tags": []
  },
  {
    "id": "duquesne-brewing-of-pittsburgh",
    "name": "Duquesne Brewing of Pittsburgh",
    "brewery_type": "contract",
    "street": "932 W North Ave",
    "city": "Pittsburgh",
    "state": "Pennsylvania",
    "postal_code": "15233-1606",
    "website_url": "",
    "phone": "4128312779",
    "created_at": "2018-07-24 01:34:10.316395",
    "updated_at": "2018-08-24 16:08:18.131648",
    "country": "United States",
    "longitude": "-80.0179069090485",
    "latitude": "40.453467547885",
    "tags": []
  },
  {
    "id": "east-end-brewing-co",
    "name": "East End Brewing Co",
    "brewery_type": "micro",
    "street": "147 Julius St",
    "city": "Pittsburgh",
    "state": "Pennsylvania",
    "postal_code": "15206",
    "website_url": "http://www.eastendbrewing.com",
    "phone": "4125372337",
    "created_at": "2018-07-24 01:34:10.358507",
    "updated_at": "2018-08-24 16:08:22.529482",
    "country": "United States",
    "longitude": "-79.9116269587993",
    "latitude": "40.4589113721929",
    "tags": []
  },
  {
    "id": "eleventh-hour-brewing-co",
    "name": "Eleventh Hour Brewing Co",
    "brewery_type": "micro",
    "street": "3711 Charlotte St",
    "city": "Pittsburgh",
    "state": "Pennsylvania",
    "postal_code": "15201-3201",
    "website_url": "http://www.11thhourbrews.com",
    "phone": "4127165107",
    "created_at": "2018-07-24 01:34:10.387993",
    "updated_at": "2018-08-24 16:08:23.989367",
    "country": "United States",
    "longitude": "-79.965533165784",
    "latitude": "40.4668040264767",
    "tags": []
  },
  {
    "id": "hitchhiker-brewing-co",
    "name": "Hitchhiker Brewing Co.",
    "brewery_type": "brewpub",
    "street": "190 Castle Shannon Blvd",
    "city": "Pittsburgh",
    "state": "Pennsylvania",
    "postal_code": "15228-2267",
    "website_url": "http://www.hitchhikerbrewing.com",
    "phone": "4123431950",
    "created_at": "2018-07-24 01:34:10.869666",
    "updated_at": "2018-08-11 21:39:27.249916",
    "country": "United States",
    "longitude": "",
    "latitude": "",
    "tags": []
  },
  {
    "id": "lincoln-avenue-brewery",
    "name": "Lincoln Avenue Brewery",
    "brewery_type": "planning",
    "street": "",
    "city": "Pittsburgh",
    "state": "Pennsylvania",
    "postal_code": "15202",
    "website_url": "",
    "phone": "4124274078",
    "created_at": "2018-07-24 01:34:11.342101",
    "updated_at": "2018-08-11 21:39:28.349308",
    "country": "United States",
    "longitude": "",
    "latitude": "",
    "tags": []
  },
  {
    "id": "links-brewing-company",
    "name": "Links Brewing Company",
    "brewery_type": "planning",
    "street": "",
    "city": "Pittsburgh",
    "state": "Pennsylvania",
    "postal_code": "15212",
    "website_url": "",
    "phone": "4123239774",
    "created_at": "2018-07-24 01:34:11.366381",
    "updated_at": "2018-08-11 21:39:28.415947",
    "country": "United States",
    "longitude": "",
    "latitude": "",
    "tags": []
  },
  {
    "id": "hop-farm-brewing-co",
    "name": "Hop Farm Brewing Co",
    "brewery_type": "micro",
    "street": "5601 Butler St",
    "city": "Pittsburgh",
    "state": "Pennsylvania",
    "postal_code": "15201-2326",
    "website_url": "",
    "phone": "",
    "created_at": "2018-07-24 01:34:10.921467",
    "updated_at": "2018-08-24 16:09:12.419217",
    "country": "United States",
    "longitude": "-79.9224894",
    "latitude": "40.4884044",
    "tags": []
  },
  {
    "id": "pittsburgh-brewing-co",
    "name": "Pittsburgh Brewing Co",
    "brewery_type": "contract",
    "street": "3340 Liberty Ave",
    "city": "Pittsburgh",
    "state": "Pennsylvania",
    "postal_code": "15201-1394",
    "website_url": "http://www.pittsburghbrewing.com",
    "phone": "4126827400",
    "created_at": "2018-07-24 01:34:12.039393",
    "updated_at": "2018-08-24 16:11:04.274998",
    "country": "United States",
    "longitude": "-79.9657026122449",
    "latitude": "40.461612877551",
    "tags": []
  },
  {
    "id": "spoonwood-brewing-company",
    "name": "Spoonwood Brewing Company",
    "brewery_type": "brewpub",
    "street": "5981 Baptist Rd",
    "city": "Pittsburgh",
    "state": "Pennsylvania",
    "postal_code": "15236-3303",
    "website_url": "http://www.spoonwoodbrewing.com",
    "phone": "4128330333",
    "created_at": "2018-07-24 01:34:12.703527",
    "updated_at": "2018-08-11 21:39:31.488248",
    "country": "United States",
    "longitude": "",
    "latitude": "",
    "tags": []
  },
  {
    "id": "roundabout-brewery",
    "name": "Roundabout Brewery",
    "brewery_type": "micro",
    "street": "4901 Butler St",
    "city": "Pittsburgh",
    "state": "Pennsylvania",
    "postal_code": "15201-2718",
    "website_url": "http://roundaboutbeer.com",
    "phone": "4126210540",
    "created_at": "2018-07-24 01:34:12.380932",
    "updated_at": "2018-08-24 16:11:35.532799",
    "country": "United States",
    "longitude": "-79.956943",
    "latitude": "40.477161",
    "tags": []
  },
  {
    "id": "southern-tier-brewing-co",
    "name": "Southern Tier Brewing Co",
    "brewery_type": "brewpub",
    "street": "316 N Shore Dr",
    "city": "Pittsburgh",
    "state": "Pennsylvania",
    "postal_code": "15212-5870",
    "website_url": "http://www.stbcbeer.com",
    "phone": "4123012337",
    "created_at": "2018-07-24 01:34:12.690218",
    "updated_at": "2018-08-24 16:12:03.789764",
    "country": "United States",
    "longitude": "-80.008595",
    "latitude": "40.4464115",
    "tags": []
  },
  {
    "id": "strange-roots-experimental-ales",
    "name": "Strange Roots Experimental Ales",
    "brewery_type": "micro",
    "street": "501 E Ohio St",
    "city": "Pittsburgh",
    "state": "Pennsylvania",
    "postal_code": "15209-2671",
    "website_url": "http://www.strangerootsbeer.com",
    "phone": "4124072506",
    "created_at": "2018-07-24 01:34:12.880465",
    "updated_at": "2018-08-24 16:12:18.934725",
    "country": "United States",
    "longitude": "-79.9951469",
    "latitude": "40.4546063",
    "tags": []
  },
  {
    "id": "national-beer-museum-development-group",
    "name": "National Beer Museum Development Group",
    "brewery_type": "planning",
    "street": "",
    "city": "Pittsburgh",
    "state": "Pennsylvania",
    "postal_code": "15212",
    "website_url": "http://www.BrewMuseum.com",
    "phone": "4123983236",
    "created_at": "2018-07-24 01:34:11.791502",
    "updated_at": "2018-08-11 21:39:29.333329",
    "country": "United States",
    "longitude": "",
    "latitude": "",
    "tags": []
  },
  {
    "id": "rooneys-beer-company",
    "name": "Rooney's Beer Company",
    "brewery_type": "micro",
    "street": "800 Vinial St Ste B204",
    "city": "Pittsburgh",
    "state": "Pennsylvania",
    "postal_code": "15212-5151",
    "website_url": "http://rooneysbeer.com",
    "phone": "4122515995",
    "created_at": "2018-07-24 01:34:12.316677",
    "updated_at": "2018-08-11 21:39:30.618359",
    "country": "United States",
    "longitude": "",
    "latitude": "",
    "tags": []
  }
]