[
  {
    "id": "lion-brewery-inc-the",
    "name": "Lion Brewery Inc, The",
    "brewery_type": "regional",
    "street": "700 N Pennsylvania Ave",
    "city": "Wilkes Barre",
    "state": "Pennsylvania",
    "postal_code": "18705-2451",
    "website_url": "http://www.lionbrewery.com",
    "phone": "5708238801",
    "created_at": "2018-07-24 01:34:11.37894",
    "updated_at": "2018-08-24 16:09:56.820557",
    "country": "United States",
    "longitude": "-75.859363",
    "latitude": "41.254896",
    "tags": []
  },
  {
    "id": "benny-brewing-co",
    "name": "Benny Brewing Co.",
    "brewery_type": "micro",
    "street": "1429 Sans Souci Pkwy",
    "city": "Wilkes Barre",
    "state": "Pennsylvania",
    "postal_code": "18706-6025",
    "website_url": "http://www.martysblueroom.com",
    "phone": "5702356995",
    "created_at": "2018-07-24 01:34:08.937018",
    "updated_at": "2018-08-11 21:39:22.75046",
    "country": "United States",
    "longitude": "",
    "latitude": "",
    "tags": []
  },
  {
    "id": "american-honor-beer-co",
    "name": "American Honor Beer Co",
    "brewery_type": "contract",
    "street": "700 N Pennsylvania Ave",
    "city": "Wilkes Barre",
    "state": "Pennsylvania",
    "postal_code": "18705-2451",
    "website_url": "http://www.BoondoggleBeer.com",
    "phone": "",
    "created_at": "2018-07-24 01:34:08.715065",
    "updated_at": "2018-08-24 16:06:13.170045",
    "country": "United States",
    "longitude": "-75.859363",
    "latitude": "41.254896",
    "tags": []
  },
  {
    "id": "breaker-brewing-company",
    "name": "Breaker Brewing Company",
    "brewery_type": "brewpub",
    "street": "787 E Northampton St",
    "city": "Wilkes Barre",
    "state": "Pennsylvania",
    "postal_code": "18702-7521",
    "website_url": "",
    "phone": "",
    "created_at": "2018-07-24 01:34:09.220927",
    "updated_at": "2018-08-24 16:06:57.234186",
    "country": "United States",
    "longitude": "-75.8739352",
    "latitude": "41.2338879",
    "tags": []
  }
]