[
  {
    "id": "boom-city-brewing",
    "name": "Boom City Brewing",
    "brewery_type": "brewpub",
    "street": "317 Pine St",
    "city": "Williamsport",
    "state": "Pennsylvania",
    "postal_code": "17701-6509",
    "website_url": "http://www.boomcitybrewing.com",
    "phone": "2722022956",
    "created_at": "2018-07-24 01:34:09.147265",
    "updated_at": "2018-08-24 16:06:53.820607",
    "country": "United States",
    "longitude": "-77.0033123203125",
    "latitude": "41.2410856405481",
    "tags": []
  },
  {
    "id": "bullfrog-brewery",
    "name": "Bullfrog Brewery",
    "brewery_type": "brewpub",
    "street": "229 W 4th St",
    "city": "Williamsport",
    "state": "Pennsylvania",
    "postal_code": "17701-6112",
    "website_url": "http://www.bullfrogbrewery.com",
    "phone": "5703264700",
    "created_at": "2018-07-24 01:34:09.612845",
    "updated_at": "2018-08-24 16:07:14.62147",
    "country": "United States",
    "longitude": "-77.051529",
    "latitude": "41.2399548",
    "tags": []
  },
  {
    "id": "bullfrog-brewery-production-only",
    "name": "Bullfrog Brewery - Production Only",
    "brewery_type": "micro",
    "street": "229 W 4th St",
    "city": "Williamsport",
    "state": "Pennsylvania",
    "postal_code": "17701-6112",
    "website_url": "",
    "phone": "5703264700",
    "created_at": "2018-07-24 01:34:09.626615",
    "updated_at": "2018-08-24 16:07:16.609864",
    "country": "United States",
    "longitude": "-77.051529",
    "latitude": "41.2399548",
    "tags": []
  },
  {
    "id": "new-trail-brewing-company",
    "name": "New Trail Brewing Company",
    "brewery_type": "micro",
    "street": "240 Arch St Bldg 18",
    "city": "Williamsport",
    "state": "Pennsylvania",
    "postal_code": "17701-7810",
    "website_url": "http://www.newtrailbrewing.com",
    "phone": "",
    "created_at": "2018-07-24 01:34:11.818151",
    "updated_at": "2018-08-11 21:39:29.393323",
    "country": "United States",
    "longitude": "",
    "latitude": "",
    "tags": []
  },
  {
    "id": "riepstines-pub",
    "name": "Riepstines Pub",
    "brewery_type": "brewpub",
    "street": "913 Arch St",
    "city": "Williamsport",
    "state": "Pennsylvania",
    "postal_code": "17701-5630",
    "website_url": "http://www.riepstinespub.com",
    "phone": "5703292739",
    "created_at": "2018-07-24 01:34:12.16647",
    "updated_at": "2018-08-24 16:11:17.613758",
    "country": "United States",
    "longitude": "-77.0529960328378",
    "latitude": "41.2399728450491",
    "tags": []
  }
]