[
  {
    "id": "collusion-tap-works",
    "name": "Collusion Tap Works",
    "brewery_type": "brewpub",
    "street": "105 S Howard St",
    "city": "York",
    "state": "Pennsylvania",
    "postal_code": "17401-2001",
    "website_url": "http://www.collusiontapworks.com",
    "phone": "7178488400",
    "created_at": "2018-07-24 01:34:09.834191",
    "updated_at": "2018-08-24 16:07:36.762293",
    "country": "United States",
    "longitude": "-76.723937348533",
    "latitude": "39.9618356970659",
    "tags": []
  },
  {
    "id": "crystal-ball-brewing",
    "name": "Crystal Ball Brewing",
    "brewery_type": "micro",
    "street": "1612 W King St",
    "city": "York",
    "state": "Pennsylvania",
    "postal_code": "17404-5618",
    "website_url": "http://www.crystalballbrewing.com",
    "phone": "",
    "created_at": "2018-07-24 01:34:10.085595",
    "updated_at": "2018-08-24 16:08:00.170146",
    "country": "United States",
    "longitude": "-76.7627365219678",
    "latitude": "39.9489198414443",
    "tags": []
  },
  {
    "id": "liquid-hero-brewery",
    "name": "Liquid Hero Brewery",
    "brewery_type": "micro",
    "street": "50 E North St",
    "city": "York",
    "state": "Pennsylvania",
    "postal_code": "17401-2421",
    "website_url": "http://www.liquidhero.com",
    "phone": "7178149250",
    "created_at": "2018-07-24 01:34:11.391569",
    "updated_at": "2018-08-24 16:09:59.167571",
    "country": "United States",
    "longitude": "-76.7437525425244",
    "latitude": "39.9585420306257",
    "tags": []
  },
  {
    "id": "mexitaly-brick-oven-brewhouse",
    "name": "Mexitaly Brick Oven Brewhouse",
    "brewery_type": "brewpub",
    "street": "2440 E Market St",
    "city": "York",
    "state": "Pennsylvania",
    "postal_code": "17402-2409",
    "website_url": "http://www.mexitaly.com",
    "phone": "7176008226",
    "created_at": "2018-07-24 01:34:11.624807",
    "updated_at": "2018-08-24 16:10:21.941794",
    "country": "United States",
    "longitude": "-76.6781639",
    "latitude": "39.9735865",
    "tags": []
  },
  {
    "id": "mudhook-brewing-co",
    "name": "Mudhook Brewing Co",
    "brewery_type": "brewpub",
    "street": "34 N Cherry Ln",
    "city": "York",
    "state": "Pennsylvania",
    "postal_code": "17401-5306",
    "website_url": "http://www.mudhookbrewing.com",
    "phone": "7177473605",
    "created_at": "2018-07-24 01:34:11.765718",
    "updated_at": "2018-08-24 16:10:36.908262",
    "country": "United States",
    "longitude": "-76.7293529661274",
    "latitude": "39.9631106852444",
    "tags": []
  }
]