[
  {
    "id": "pileated-brewing-co",
    "name": "Pileated Brewing Co",
    "brewery_type": "micro",
    "street": "2290 South Industrial Highway",
    "city": "Ann Arbor",
    "state": "Michigan",
    "postal_code": "48104",
    "website_url": "http://www.pileatedbrewing.com",
    "phone": "7343696290",
    "created_at": "2018-07-24 01:33:36.12199",
    "updated_at": "2018-08-24 00:43:55.050139",
    "country": "United States",
    "longitude": "-83.7338530381679",
    "latitude": "42.2528624961832",
    "tags": []
  },
  {
    "id": "arbor-brewing-co",
    "name": "Arbor Brewing Co",
    "brewery_type": "brewpub",
    "street": "114 E Washington St",
    "city": "Ann Arbor",
    "state": "Michigan",
    "postal_code": "48104-1905",
    "website_url": "http://www.arborbrewing.com",
    "phone": "7342131393",
    "created_at": "2018-07-24 01:33:32.602846",
    "updated_at": "2018-08-24 00:42:03.795036",
    "country": "United States",
    "longitude": "-83.7482247142857",
    "latitude": "42.2804102857143",
    "tags": []
  },
  {
    "id": "biercamp",
    "name": "Biercamp",
    "brewery_type": "brewpub",
    "street": "1643 S State St",
    "city": "Ann Arbor",
    "state": "Michigan",
    "postal_code": "48104-4302",
    "website_url": "http://www.bier-camp.com",
    "phone": "7349952437",
    "created_at": "2018-07-24 01:33:33.00743",
    "updated_at": "2018-08-24 00:42:16.384344",
    "country": "United States",
    "longitude": "-83.740111",
    "latitude": "42.2586786",
    "tags": []
  },
  {
    "id": "edelbrau-brewing-company",
    "name": "Edelbrau Brewing Company",
    "brewery_type": "planning",
    "street": "",
    "city": "Ann Arbor",
    "state": "Michigan",
    "postal_code": "48108-3393",
    "website_url": "http://www.edelbrau.com",
    "phone": "7347075184",
    "created_at": "2018-07-24 01:33:34.102563",
    "updated_at": "2018-08-11 21:37:48.535207",
    "country": "United States",
    "longitude": "",
    "latitude": "",
    "tags": []
  },
  {
    "id": "homes-brewery",
    "name": "HOMES Brewery",
    "brewery_type": "brewpub",
    "street": "2321 Jackson Ave",
    "city": "Ann Arbor",
    "state": "Michigan",
    "postal_code": "48103-3814",
    "website_url": "http://www.homesbrewery.com",
    "phone": "7349546637",
    "created_at": "2018-07-24 01:33:34.834967",
    "updated_at": "2018-08-24 00:43:13.467385",
    "country": "United States",
    "longitude": "-83.7784521082709",
    "latitude": "42.28032635",
    "tags": []
  },
  {
    "id": "jolly-pumpkin-cafe-and-brewery",
    "name": "Jolly Pumpkin Cafe and Brewery",
    "brewery_type": "brewpub",
    "street": "311 S Main St",
    "city": "Ann Arbor",
    "state": "Michigan",
    "postal_code": "48104-2107",
    "website_url": "http://www.jollypumpkin.com",
    "phone": "7349132730",
    "created_at": "2018-07-24 01:33:35.042168",
    "updated_at": "2018-08-24 00:43:19.086348",
    "country": "United States",
    "longitude": "-83.7484551",
    "latitude": "42.2791598",
    "tags": []
  },
  {
    "id": "pointless-brewery",
    "name": "Pointless Brewery",
    "brewery_type": "micro",
    "street": "3014 Packard St",
    "city": "Ann Arbor",
    "state": "Michigan",
    "postal_code": "48108-1935",
    "website_url": "http://www.pointlessbrew.com",
    "phone": "9894554484",
    "created_at": "2018-07-24 01:33:36.134554",
    "updated_at": "2018-08-24 00:43:55.536408",
    "country": "United States",
    "longitude": "-83.7297662",
    "latitude": "42.260633",
    "tags": []
  },
  {
    "id": "townies-brewery",
    "name": "Townies Brewery",
    "brewery_type": "brewpub",
    "street": "2350 W Liberty Rd",
    "city": "Ann Arbor",
    "state": "Michigan",
    "postal_code": "48103",
    "website_url": "",
    "phone": "",
    "created_at": "2018-07-24 01:33:37.193774",
    "updated_at": "2018-08-24 00:44:29.937015",
    "country": "United States",
    "longitude": "-83.7891745",
    "latitude": "42.2730356",
    "tags": []
  },
  {
    "id": "wolverine-state-brewing-co",
    "name": "Wolverine State Brewing Co",
    "brewery_type": "brewpub",
    "street": "2019 W Stadium Blvd # 103",
    "city": "Ann Arbor",
    "state": "Michigan",
    "postal_code": "48103-4557",
    "website_url": "http://www.wolverinebeer.com",
    "phone": "7343692990",
    "created_at": "2018-07-24 01:33:37.532106",
    "updated_at": "2018-08-24 00:44:41.788227",
    "country": "United States",
    "longitude": "-83.7745473",
    "latitude": "42.2694316",
    "tags": []
  },
  {
    "id": "grizzly-peak-brewing-co",
    "name": "Grizzly Peak Brewing Co",
    "brewery_type": "brewpub",
    "street": "120 W Washington St Ste 1",
    "city": "Ann Arbor",
    "state": "Michigan",
    "postal_code": "48104-1356",
    "website_url": "http://www.grizzlypeak.net",
    "phone": "7347417325",
    "created_at": "2018-07-24 01:33:34.674177",
    "updated_at": "2018-08-11 21:37:50.120598",
    "country": "United States",
    "longitude": "",
    "latitude": "",
    "tags": []
  },
  {
    "id": "blue-tractor-brewing-co",
    "name": "Blue Tractor Brewing Co",
    "brewery_type": "brewpub",
    "street": "207 E Washington St",
    "city": "Ann Arbor",
    "state": "Michigan",
    "postal_code": "48104-2007",
    "website_url": "",
    "phone": "7342224095",
    "created_at": "2018-07-24 01:33:33.261124",
    "updated_at": "2018-08-24 00:42:24.126825",
    "country": "United States",
    "longitude": "-83.7470457755102",
    "latitude": "42.2805275918367",
    "tags": []
  }
]