[
  {
    "id": "bier-distillery",
    "name": "Bier Distillery",
    "brewery_type": "micro",
    "street": "5295 West River Dr NE Ste 100",
    "city": "Comstock Park",
    "state": "Michigan",
    "postal_code": "49321-8030",
    "website_url": "http://bierdistillery.com",
    "phone": "6168889746",
    "created_at": "2018-07-24 01:33:32.993293",
    "updated_at": "2018-08-11 21:37:45.910487",
    "country": "United States",
    "longitude": "",
    "latitude": "",
    "tags": []
  },
  {
    "id": "elk-brewing-co",
    "name": "Elk Brewing Co",
    "brewery_type": "brewpub",
    "street": "400 Dodge Rd NE",
    "city": "Comstock Park",
    "state": "Michigan",
    "postal_code": "49321-8041",
    "website_url": "",
    "phone": "6162385227",
    "created_at": "2018-07-24 01:33:34.116076",
    "updated_at": "2018-08-11 21:37:48.570278",
    "country": "United States",
    "longitude": "",
    "latitude": "",
    "tags": []
  },
  {
    "id": "speciation-artisan-ales",
    "name": "Speciation Artisan Ales",
    "brewery_type": "micro",
    "street": "3720 West River Dr NE Ste 201",
    "city": "Comstock Park",
    "state": "Michigan",
    "postal_code": "49321-8980",
    "website_url": "http://speciationartisanales.com",
    "phone": "6166666783",
    "created_at": "2018-07-24 01:33:36.656813",
    "updated_at": "2018-08-11 21:37:56.520635",
    "country": "United States",
    "longitude": "",
    "latitude": "",
    "tags": []
  },
  {
    "id": "perrin-brewing-company",
    "name": "Perrin Brewing Company",
    "brewery_type": "regional",
    "street": "5910 Comstock Park Dr NW",
    "city": "Comstock Park",
    "state": "Michigan",
    "postal_code": "49321-8256",
    "website_url": "http://www.perrinbrewing.com",
    "phone": "6165511957",
    "created_at": "2018-07-24 01:33:36.058873",
    "updated_at": "2018-08-11 21:37:54.546364",
    "country": "United States",
    "longitude": "",
    "latitude": "",
    "tags": []
  }
]