[
  {
    "id": "brewery-faisan",
    "name": "Brewery Faisan",
    "brewery_type": "planning",
    "street": "",
    "city": "Detroit",
    "state": "Michigan",
    "postal_code": "48207",
    "website_url": "http://www.breweryfaisan.com",
    "phone": "5867032030",
    "created_at": "2018-07-24 01:33:33.362323",
    "updated_at": "2018-08-11 21:37:46.808609",
    "country": "United States",
    "longitude": "",
    "latitude": "",
    "tags": []
  },
  {
    "id": "american-badass-beer",
    "name": "American Badass Beer",
    "brewery_type": "contract",
    "street": "1401 Abbott St Corktown",
    "city": "Detroit",
    "state": "Michigan",
    "postal_code": "48216-1946",
    "website_url": "http://www.americanbadassbeer.com",
    "phone": "",
    "created_at": "2018-07-24 01:33:32.566279",
    "updated_at": "2018-08-11 21:37:44.799454",
    "country": "United States",
    "longitude": "",
    "latitude": "",
    "tags": []
  },
  {
    "id": "atwater-brewing-co",
    "name": "Atwater Brewing Co",
    "brewery_type": "regional",
    "street": "237 Joseph Campau St",
    "city": "Detroit",
    "state": "Michigan",
    "postal_code": "48207-4107",
    "website_url": "http://www.atwaterbeer.com",
    "phone": "3138779205",
    "created_at": "2018-07-24 01:33:32.679859",
    "updated_at": "2018-08-24 00:42:06.885141",
    "country": "United States",
    "longitude": "-83.072904",
    "latitude": "42.4190883",
    "tags": []
  },
  {
    "id": "batch-brewing-co",
    "name": "Batch Brewing Co",
    "brewery_type": "brewpub",
    "street": "1400 Porter St",
    "city": "Detroit",
    "state": "Michigan",
    "postal_code": "48216-1934",
    "website_url": "http://www.BatchBrewingCompany.com",
    "phone": "3133388008",
    "created_at": "2018-07-24 01:33:32.868186",
    "updated_at": "2018-08-24 00:42:12.702031",
    "country": "United States",
    "longitude": "-83.088689",
    "latitude": "42.3184806",
    "tags": []
  },
  {
    "id": "brew-detroit",
    "name": "Brew Detroit",
    "brewery_type": "micro",
    "street": "1401 Abbott St",
    "city": "Detroit",
    "state": "Michigan",
    "postal_code": "48216-1946",
    "website_url": "http://www.brewdetroit.com",
    "phone": "3139747366",
    "created_at": "2018-07-24 01:33:33.312448",
    "updated_at": "2018-08-24 00:42:26.008157",
    "country": "United States",
    "longitude": "-83.0619768993289",
    "latitude": "42.327702885906",
    "tags": []
  },
  {
    "id": "detroit-beer-co",
    "name": "Detroit Beer Co",
    "brewery_type": "brewpub",
    "street": "1529 Broadway St Ste 100",
    "city": "Detroit",
    "state": "Michigan",
    "postal_code": "48226-2141",
    "website_url": "http://www.detroitbeerco.com",
    "phone": "3139621529",
    "created_at": "2018-07-24 01:33:33.919112",
    "updated_at": "2018-08-24 00:42:42.965652",
    "country": "United States",
    "longitude": "-83.0487178571428",
    "latitude": "42.335962",
    "tags": []
  },
  {
    "id": "eastern-market-brewing-company",
    "name": "Eastern Market Brewing Company",
    "brewery_type": "micro",
    "street": "2515 Riopelle St",
    "city": "Detroit",
    "state": "Michigan",
    "postal_code": "48207-4526",
    "website_url": "http://www.easternmarket.beer",
    "phone": "",
    "created_at": "2018-07-24 01:33:34.063631",
    "updated_at": "2018-08-24 00:42:47.859573",
    "country": "United States",
    "longitude": "-83.0387622857143",
    "latitude": "42.346625",
    "tags": []
  },
  {
    "id": "founders-brewing-co",
    "name": "Founders Brewing Co",
    "brewery_type": "regional",
    "street": "456 Charlotte St",
    "city": "Detroit",
    "state": "Michigan",
    "postal_code": "48201-2640",
    "website_url": "",
    "phone": "",
    "created_at": "2018-07-24 01:33:34.347274",
    "updated_at": "2018-08-24 00:42:57.111959",
    "country": "United States",
    "longitude": "-83.0605729011145",
    "latitude": "42.34299565",
    "tags": []
  },
  {
    "id": "granite-city-food-and-brewery",
    "name": "Granite City Food & Brewery",
    "brewery_type": "brewpub",
    "street": "100 Renaissance Ctr",
    "city": "Detroit",
    "state": "Michigan",
    "postal_code": "48243-1114",
    "website_url": "",
    "phone": "",
    "created_at": "2018-07-24 01:33:34.533926",
    "updated_at": "2018-08-24 00:43:02.975856",
    "country": "United States",
    "longitude": "-83.0405393062553",
    "latitude": "42.32916295",
    "tags": []
  },
  {
    "id": "motor-city-brewing-works",
    "name": "Motor City Brewing Works",
    "brewery_type": "brewpub",
    "street": "470 W Canfield St",
    "city": "Detroit",
    "state": "Michigan",
    "postal_code": "48201-1220",
    "website_url": "http://www.motorcitybeer.com",
    "phone": "3138322700",
    "created_at": "2018-07-24 01:33:35.558851",
    "updated_at": "2018-08-24 00:43:37.231648",
    "country": "United States",
    "longitude": "-83.0660373282061",
    "latitude": "42.3518156",
    "tags": []
  },
  {
    "id": "motor-city-brewing-works-warehouse",
    "name": "Motor City Brewing Works Warehouse",
    "brewery_type": "micro",
    "street": "441 W Canfield St",
    "city": "Detroit",
    "state": "Michigan",
    "postal_code": "48201-1231",
    "website_url": "",
    "phone": "",
    "created_at": "2018-07-24 01:33:35.572309",
    "updated_at": "2018-08-24 00:43:37.667735",
    "country": "United States",
    "longitude": "-83.0647489292929",
    "latitude": "42.351519969697",
    "tags": []
  },
  {
    "id": "vivios-food",
    "name": "Vivio's Food",
    "brewery_type": "planning",
    "street": "",
    "city": "Detroit",
    "state": "Michigan",
    "postal_code": "48207-4516",
    "website_url": "http://www.viviosdetroit.com",
    "phone": "3133931711",
    "created_at": "2018-07-24 01:33:37.416252",
    "updated_at": "2018-08-11 21:37:58.334809",
    "country": "United States",
    "longitude": "",
    "latitude": "",
    "tags": []
  },
  {
    "id": "traffic-jam-and-snug",
    "name": "Traffic Jam and Snug",
    "brewery_type": "brewpub",
    "street": "4268 2nd Ave",
    "city": "Detroit",
    "state": "Michigan",
    "postal_code": "48201-1706",
    "website_url": "http://www.trafficjamdetroit.com",
    "phone": "3138319470",
    "created_at": "2018-07-24 01:33:37.206024",
    "updated_at": "2018-08-24 00:44:30.488016",
    "country": "United States",
    "longitude": "-83.086546",
    "latitude": "42.384371",
    "tags": []
  }
]