[
  {
    "id": "brewery-vivant",
    "name": "Brewery Vivant",
    "brewery_type": "brewpub",
    "street": "925 Cherry St SE",
    "city": "Grand Rapids",
    "state": "Michigan",
    "postal_code": "49506-1403",
    "website_url": "http://www.breweryvivant.com",
    "phone": "6167191604",
    "created_at": "2018-07-24 01:33:33.476624",
    "updated_at": "2018-08-24 00:42:28.729346",
    "country": "United States",
    "longitude": "-85.6468380909091",
    "latitude": "42.9596159090909",
    "tags": []
  },
  {
    "id": "fountain-hill-brewery",
    "name": "Fountain Hill Brewery",
    "brewery_type": "brewpub",
    "street": "151 Fountain St NE",
    "city": "Grand Rapids",
    "state": "Michigan",
    "postal_code": "49503-3263",
    "website_url": "",
    "phone": "6162343690",
    "created_at": "2018-07-24 01:33:34.372302",
    "updated_at": "2018-08-24 00:42:58.010927",
    "country": "United States",
    "longitude": "-85.664754",
    "latitude": "42.965489",
    "tags": []
  },
  {
    "id": "the-mitten-brewing-co",
    "name": "The Mitten Brewing Co",
    "brewery_type": "brewpub",
    "street": "527 Leonard St NW",
    "city": "Grand Rapids",
    "state": "Michigan",
    "postal_code": "49504-4278",
    "website_url": "http://www.mittenbrewing.com",
    "phone": "6166085612",
    "created_at": "2018-07-24 01:33:37.017318",
    "updated_at": "2018-08-24 00:44:24.797963",
    "country": "United States",
    "longitude": "-85.68101",
    "latitude": "42.9850773333333",
    "tags": []
  },
  {
    "id": "atwater-grand-rapids",
    "name": "Atwater Grand Rapids",
    "brewery_type": "brewpub",
    "street": "201 Michigan St NW",
    "city": "Grand Rapids",
    "state": "Michigan",
    "postal_code": "49503-2323",
    "website_url": "",
    "phone": "6166493020",
    "created_at": "2018-07-24 01:33:32.696386",
    "updated_at": "2018-08-24 00:42:07.327179",
    "country": "United States",
    "longitude": "-85.672454",
    "latitude": "42.970463",
    "tags": []
  },
  {
    "id": "bobs-brewery",
    "name": "B.O.B's Brewery",
    "brewery_type": "brewpub",
    "street": "20 Monroe Ave NW",
    "city": "Grand Rapids",
    "state": "Michigan",
    "postal_code": "49503-6208",
    "website_url": "http://thebobsbrewery.thebob.com",
    "phone": "6163562000",
    "created_at": "2018-07-24 01:33:32.758021",
    "updated_at": "2018-08-24 00:42:09.24303",
    "country": "United States",
    "longitude": "-85.6724844626685",
    "latitude": "42.9638257",
    "tags": []
  },
  {
    "id": "city-built-brewing-company",
    "name": "City Built Brewing Company",
    "brewery_type": "brewpub",
    "street": "820 Monroe Ave NW Ste 155",
    "city": "Grand Rapids",
    "state": "Michigan",
    "postal_code": "49503-1413",
    "website_url": "http://www.citybuiltbrewing.com",
    "phone": "6168055755",
    "created_at": "2018-07-24 01:33:33.690927",
    "updated_at": "2018-08-11 21:37:47.599318",
    "country": "United States",
    "longitude": "",
    "latitude": "",
    "tags": []
  },
  {
    "id": "crankers-restaurant-and-brewery",
    "name": "Cranker's Restaurant & Brewery",
    "brewery_type": "brewpub",
    "street": "454 68th St SW",
    "city": "Grand Rapids",
    "state": "Michigan",
    "postal_code": "49548-7115",
    "website_url": "http://www.crankersbrewery.com",
    "phone": "6168271919",
    "created_at": "2018-07-24 01:33:33.842799",
    "updated_at": "2018-08-11 21:37:47.936886",
    "country": "United States",
    "longitude": "",
    "latitude": "",
    "tags": []
  },
  {
    "id": "creston-brewery",
    "name": "Creston Brewery",
    "brewery_type": "brewpub",
    "street": "1504 Plainfield Ave NE",
    "city": "Grand Rapids",
    "state": "Michigan",
    "postal_code": "49505-4923",
    "website_url": "http://www.crestonbrewery.com",
    "phone": "6168054523",
    "created_at": "2018-07-24 01:33:33.867188",
    "updated_at": "2018-08-24 00:42:41.01232",
    "country": "United States",
    "longitude": "-85.6625266122449",
    "latitude": "42.9912019183674",
    "tags": []
  },
  {
    "id": "east-west-brewing-co",
    "name": "East West Brewing Co",
    "brewery_type": "brewpub",
    "street": "1400 Lake Dr SE",
    "city": "Grand Rapids",
    "state": "Michigan",
    "postal_code": "49506",
    "website_url": "http://www.eastwestbrewingcompany.com",
    "phone": "6162885250",
    "created_at": "2018-07-24 01:33:34.051538",
    "updated_at": "2018-08-24 00:42:47.337728",
    "country": "United States",
    "longitude": "-85.634947",
    "latitude": "42.957318",
    "tags": []
  },
  {
    "id": "elk-brewing-co",
    "name": "Elk Brewing Co",
    "brewery_type": "brewpub",
    "street": "700 Wealthy St SE",
    "city": "Grand Rapids",
    "state": "Michigan",
    "postal_code": "49503-5539",
    "website_url": "http://www.elkbrewing.com",
    "phone": "6162385227",
    "created_at": "2018-07-24 01:33:34.12904",
    "updated_at": "2018-08-24 00:42:49.6573",
    "country": "United States",
    "longitude": "-85.6515221",
    "latitude": "42.9554463",
    "tags": []
  },
  {
    "id": "founders-brewing-co",
    "name": "Founders Brewing Co",
    "brewery_type": "regional",
    "street": "235 Grandville Ave SW",
    "city": "Grand Rapids",
    "state": "Michigan",
    "postal_code": "49503-4037",
    "website_url": "http://www.foundersbrewing.com",
    "phone": "6167761195",
    "created_at": "2018-07-24 01:33:34.335177",
    "updated_at": "2018-08-24 00:42:56.692161",
    "country": "United States",
    "longitude": "-85.6765753",
    "latitude": "42.9524964",
    "tags": []
  },
  {
    "id": "founders-brewing-production-facility",
    "name": "Founders Brewing Production Facility",
    "brewery_type": "regional",
    "street": "900 Hynes Ave SW",
    "city": "Grand Rapids",
    "state": "Michigan",
    "postal_code": "49507-1085",
    "website_url": "",
    "phone": "",
    "created_at": "2018-07-24 01:33:34.359991",
    "updated_at": "2018-08-24 00:42:57.565599",
    "country": "United States",
    "longitude": "-85.6752332261306",
    "latitude": "42.9466223417085",
    "tags": []
  },
  {
    "id": "grand-rapids-brewing-company",
    "name": "Grand Rapids Brewing Company",
    "brewery_type": "brewpub",
    "street": "1 Ionia Ave SW Ste 100",
    "city": "Grand Rapids",
    "state": "Michigan",
    "postal_code": "49503-5122",
    "website_url": "http://www.grbrewingcompany.com",
    "phone": "6164587000",
    "created_at": "2018-07-24 01:33:34.485229",
    "updated_at": "2018-08-11 21:37:49.582249",
    "country": "United States",
    "longitude": "",
    "latitude": "",
    "tags": []
  },
  {
    "id": "hideout-brewing-co",
    "name": "Hideout Brewing Co",
    "brewery_type": "brewpub",
    "street": "3113 Plaza Dr NE",
    "city": "Grand Rapids",
    "state": "Michigan",
    "postal_code": "49525-2901",
    "website_url": "http://www.hideoutbrewing.com",
    "phone": "6163619658",
    "created_at": "2018-07-24 01:33:34.799002",
    "updated_at": "2018-08-11 21:37:50.574169",
    "country": "United States",
    "longitude": "",
    "latitude": "",
    "tags": []
  },
  {
    "id": "hopcat",
    "name": "Hopcat",
    "brewery_type": "brewpub",
    "street": "25 Ionia Ave SW Ste 100",
    "city": "Grand Rapids",
    "state": "Michigan",
    "postal_code": "49503-4179",
    "website_url": "http://www.hopcat.com",
    "phone": "6164514677",
    "created_at": "2018-07-24 01:33:34.885891",
    "updated_at": "2018-08-11 21:37:50.847941",
    "country": "United States",
    "longitude": "",
    "latitude": "",
    "tags": []
  },
  {
    "id": "greyline-brewing",
    "name": "Greyline Brewing",
    "brewery_type": "brewpub",
    "street": "1727 Alpine Ave NW",
    "city": "Grand Rapids",
    "state": "Michigan",
    "postal_code": "49504-",
    "website_url": "",
    "phone": "6168213786",
    "created_at": "2018-07-24 01:33:34.646681",
    "updated_at": "2018-08-24 00:43:06.981508",
    "country": "United States",
    "longitude": "-85.6884354936709",
    "latitude": "42.9947437468354",
    "tags": []
  },
  {
    "id": "harmony-brewing-co",
    "name": "Harmony Brewing Co",
    "brewery_type": "brewpub",
    "street": "1551 Lake Dr SE",
    "city": "Grand Rapids",
    "state": "Michigan",
    "postal_code": "49506-2705",
    "website_url": "",
    "phone": "6162330063",
    "created_at": "2018-07-24 01:33:34.701989",
    "updated_at": "2018-08-24 00:43:08.419007",
    "country": "United States",
    "longitude": "-85.6306684615385",
    "latitude": "42.9550134615385",
    "tags": []
  },
  {
    "id": "harmony-brewing-company-harmony-hall",
    "name": "Harmony Brewing Company - Harmony Hall",
    "brewery_type": "brewpub",
    "street": "401 Stocking Ave NW",
    "city": "Grand Rapids",
    "state": "Michigan",
    "postal_code": "49504-5501",
    "website_url": "",
    "phone": "",
    "created_at": "2018-07-24 01:33:34.713865",
    "updated_at": "2018-08-24 00:43:08.887929",
    "country": "United States",
    "longitude": "-85.684118",
    "latitude": "42.970732",
    "tags": []
  },
  {
    "id": "jaden-james-brewery-the-cascade-winery",
    "name": "Jaden James Brewery @ The Cascade Winery",
    "brewery_type": "brewpub",
    "street": "4665 Broadmoor Ave SE Ste 135",
    "city": "Grand Rapids",
    "state": "Michigan",
    "postal_code": "49512-5387",
    "website_url": "http://jadenjamesbrewery.com",
    "phone": "6166564665",
    "created_at": "2018-07-24 01:33:34.947964",
    "updated_at": "2018-08-24 00:43:16.734355",
    "country": "United States",
    "longitude": "-85.583194",
    "latitude": "42.909899",
    "tags": []
  },
  {
    "id": "jolly-pumpkin-pizzeria-and-brewery",
    "name": "Jolly Pumpkin Pizzeria and Brewery",
    "brewery_type": "brewpub",
    "street": "428 Bridge St NW",
    "city": "Grand Rapids",
    "state": "Michigan",
    "postal_code": "49504",
    "website_url": "",
    "phone": "6164194676",
    "created_at": "2018-07-24 01:33:35.05488",
    "updated_at": "2018-08-24 00:43:19.590619",
    "country": "United States",
    "longitude": "-85.6800865",
    "latitude": "42.970511",
    "tags": []
  },
  {
    "id": "schmohz-brewery",
    "name": "Schmohz Brewery",
    "brewery_type": "micro",
    "street": "2600 Patterson Ave SE Ste 1",
    "city": "Grand Rapids",
    "state": "Michigan",
    "postal_code": "49546-6394",
    "website_url": "http://www.schmohz.com",
    "phone": "6169490860",
    "created_at": "2018-07-24 01:33:36.502814",
    "updated_at": "2018-08-11 21:37:55.974199",
    "country": "United States",
    "longitude": "",
    "latitude": "",
    "tags": []
  },
  {
    "id": "the-knickerbocker/-new-holland-brewing",
    "name": "The Knickerbocker/ New Holland Brewing",
    "brewery_type": "brewpub",
    "street": "417 Bridge St NW",
    "city": "Grand Rapids",
    "state": "Michigan",
    "postal_code": "49504-5305",
    "website_url": "",
    "phone": "6163455642",
    "created_at": "2018-07-24 01:33:36.95944",
    "updated_at": "2018-08-24 00:44:23.432457",
    "country": "United States",
    "longitude": "-85.680443122449",
    "latitude": "42.9706821428571",
    "tags": []
  },
  {
    "id": "the-mitten-brewing-company-production-facility",
    "name": "The Mitten Brewing Company Production Facility",
    "brewery_type": "micro",
    "street": "540 Leonard St NW",
    "city": "Grand Rapids",
    "state": "Michigan",
    "postal_code": "49504-4260",
    "website_url": "",
    "phone": "",
    "created_at": "2018-07-24 01:33:37.058119",
    "updated_at": "2018-08-24 00:44:25.732724",
    "country": "United States",
    "longitude": "-85.6810027631579",
    "latitude": "42.9849126578947",
    "tags": []
  },
  {
    "id": "thornapple-brewing-company",
    "name": "Thornapple Brewing Company",
    "brewery_type": "micro",
    "street": "6262 28th st SE",
    "city": "Grand rapids",
    "state": "Michigan",
    "postal_code": "49546",
    "website_url": "http://Www.thornapplebrewing.com",
    "phone": "6164226209",
    "created_at": "2018-07-24 01:33:37.132875",
    "updated_at": "2018-08-24 00:44:27.983382",
    "country": "United States",
    "longitude": "-85.6506666",
    "latitude": "42.9128114",
    "tags": []
  },
  {
    "id": "vander-mill",
    "name": "Vander Mill",
    "brewery_type": "brewpub",
    "street": "505 Ball Ave NE",
    "city": "Grand Rapids",
    "state": "Michigan",
    "postal_code": "49503-2011",
    "website_url": "http://www.vandermill.com",
    "phone": "6162598828",
    "created_at": "2018-07-24 01:33:37.379397",
    "updated_at": "2018-08-24 00:44:36.386543",
    "country": "United States",
    "longitude": "-85.6305954",
    "latitude": "42.9712724",
    "tags": []
  },
  {
    "id": "brass-ring-brewery",
    "name": "Brass Ring Brewery",
    "brewery_type": "brewpub",
    "street": "2404 Eastern Ave SE",
    "city": "Grand Rapids",
    "state": "Michigan",
    "postal_code": "49507-3632",
    "website_url": "http://www.brassringbrewing.com",
    "phone": "6164601587",
    "created_at": "2018-07-24 01:33:33.287448",
    "updated_at": "2018-08-24 00:42:25.097761",
    "country": "United States",
    "longitude": "-85.647414877551",
    "latitude": "42.9198742244898",
    "tags": []
  }
]