[
  {
    "id": "hawkpeak-brewing-company-dba-grand-haven-brew-house",
    "name": "HawkPeak Brewing Company DBA Grand Haven Brew House",
    "brewery_type": "brewpub",
    "street": "101 Washington Ave # 2B",
    "city": "Grand Haven",
    "state": "Michigan",
    "postal_code": "49417-1302",
    "website_url": "http://www.grandhavenbrewhouse.com",
    "phone": "6166072060",
    "created_at": "2018-07-24 01:33:34.749676",
    "updated_at": "2018-08-11 21:37:50.425669",
    "country": "United States",
    "longitude": "",
    "latitude": "",
    "tags": []
  },
  {
    "id": "grand-armory-brewing-co",
    "name": "Grand Armory Brewing Co",
    "brewery_type": "micro",
    "street": "17 S 2nd St",
    "city": "Grand Haven",
    "state": "Michigan",
    "postal_code": "49417-3328",
    "website_url": "http://www.grandarmorybrewing.com",
    "phone": "6164147822",
    "created_at": "2018-07-24 01:33:34.460298",
    "updated_at": "2018-08-24 00:43:00.735239",
    "country": "United States",
    "longitude": "-86.2312557959184",
    "latitude": "43.0637875918367",
    "tags": []
  },
  {
    "id": "grand-armory-brewing-production-facility",
    "name": "Grand Armory Brewing Production Facility",
    "brewery_type": "micro",
    "street": "1734 Airpark Dr",
    "city": "Grand Haven",
    "state": "Michigan",
    "postal_code": "49417-8943",
    "website_url": "",
    "phone": "3106978958",
    "created_at": "2018-07-24 01:33:34.472467",
    "updated_at": "2018-08-24 00:43:01.1691",
    "country": "United States",
    "longitude": "-86.197742815284",
    "latitude": "43.038621467135",
    "tags": []
  },
  {
    "id": "odd-side-ales",
    "name": "Odd Side Ales",
    "brewery_type": "micro",
    "street": "41 Washington Ave Ste 160",
    "city": "Grand Haven",
    "state": "Michigan",
    "postal_code": "49417-1392",
    "website_url": "http://www.oddsideales.com",
    "phone": "6169357326",
    "created_at": "2018-07-24 01:33:35.751572",
    "updated_at": "2018-08-11 21:37:53.448712",
    "country": "United States",
    "longitude": "",
    "latitude": "",
    "tags": []
  },
  {
    "id": "odd-side-ales-production-facility",
    "name": "Odd Side Ales Production Facility",
    "brewery_type": "micro",
    "street": "1810 Industrial Dr",
    "city": "Grand Haven",
    "state": "Michigan",
    "postal_code": "49417-8930",
    "website_url": "",
    "phone": "",
    "created_at": "2018-07-24 01:33:35.76399",
    "updated_at": "2018-08-24 00:43:44.317452",
    "country": "United States",
    "longitude": "-86.1983973013331",
    "latitude": "43.0312440758437",
    "tags": []
  }
]