[
  {
    "id": "bam-entertainment-center",
    "name": "Bam Entertainment Center",
    "brewery_type": "brewpub",
    "street": "478 E 16th St",
    "city": "Holland",
    "state": "Michigan",
    "postal_code": "49423-3793",
    "website_url": "http://www.gobamgo.com",
    "phone": "6163927086",
    "created_at": "2018-07-24 01:33:32.804686",
    "updated_at": "2018-08-24 00:42:10.759389",
    "country": "United States",
    "longitude": "-86.0855515638507",
    "latitude": "42.7812873",
    "tags": []
  },
  {
    "id": "brewery-4-two-4",
    "name": "Brewery 4 Two 4",
    "brewery_type": "micro",
    "street": "321 Douglas Ave Ste 120",
    "city": "Holland",
    "state": "Michigan",
    "postal_code": "49424-6599",
    "website_url": "http://brewery424.com",
    "phone": "6163777773",
    "created_at": "2018-07-24 01:33:33.337408",
    "updated_at": "2018-08-11 21:37:46.743468",
    "country": "United States",
    "longitude": "",
    "latitude": "",
    "tags": []
  },
  {
    "id": "big-lake-brewing",
    "name": "Big Lake Brewing",
    "brewery_type": "micro",
    "street": "13 W 7th St",
    "city": "Holland",
    "state": "Michigan",
    "postal_code": "49423-2821",
    "website_url": "http://www.biglakebrewing.com",
    "phone": "6167968888",
    "created_at": "2018-07-24 01:33:33.090824",
    "updated_at": "2018-08-24 00:42:18.284229",
    "country": "United States",
    "longitude": "-86.1079158742726",
    "latitude": "42.79149405",
    "tags": []
  },
  {
    "id": "big-lake-brewing-production-facility",
    "name": "Big Lake Brewing Production Facility",
    "brewery_type": "micro",
    "street": "166 E 19th St",
    "city": "Holland",
    "state": "Michigan",
    "postal_code": "49423-4230",
    "website_url": "",
    "phone": "",
    "created_at": "2018-07-24 01:33:33.107075",
    "updated_at": "2018-08-24 00:42:18.807938",
    "country": "United States",
    "longitude": "-86.0998882380952",
    "latitude": "42.7802947142857",
    "tags": []
  },
  {
    "id": "fireside-brewing-co",
    "name": "Fireside Brewing Co.",
    "brewery_type": "micro",
    "street": "430 W 17th St Ste 27",
    "city": "Holland",
    "state": "Michigan",
    "postal_code": "49423-3403",
    "website_url": "",
    "phone": "6162943777",
    "created_at": "2018-07-24 01:33:34.311611",
    "updated_at": "2018-08-11 21:37:49.086815",
    "country": "United States",
    "longitude": "",
    "latitude": "",
    "tags": []
  },
  {
    "id": "great-legs-winery-brewery-and-distillery",
    "name": "Great Legs Winery, Brewery, and Distillery",
    "brewery_type": "micro",
    "street": "332 E Lakewood Blvd",
    "city": "Holland",
    "state": "Michigan",
    "postal_code": "49424-3306",
    "website_url": "http://www.greatlegswinery.com",
    "phone": "6169169729",
    "created_at": "2018-07-24 01:33:34.595885",
    "updated_at": "2018-08-11 21:37:49.915554",
    "country": "United States",
    "longitude": "",
    "latitude": "",
    "tags": []
  },
  {
    "id": "macatawa-ale-company",
    "name": "Macatawa Ale Company",
    "brewery_type": "micro",
    "street": "102 S River Ave",
    "city": "Holland",
    "state": "Michigan",
    "postal_code": "49423-2851",
    "website_url": "http://www.macatawaalecompany.com",
    "phone": "6168487677",
    "created_at": "2018-07-24 01:33:35.413207",
    "updated_at": "2018-08-24 00:43:32.221355",
    "country": "United States",
    "longitude": "-86.1091165909091",
    "latitude": "42.7922396818182",
    "tags": []
  },
  {
    "id": "new-holland-brewing-co-production-facility",
    "name": "New Holland Brewing Co - Production Facility",
    "brewery_type": "regional",
    "street": "690 Commerce Ct",
    "city": "Holland",
    "state": "Michigan",
    "postal_code": "49424-2913",
    "website_url": "",
    "phone": "6165102259",
    "created_at": "2018-07-24 01:33:35.637117",
    "updated_at": "2018-08-11 21:37:53.152647",
    "country": "United States",
    "longitude": "",
    "latitude": "",
    "tags": []
  },
  {
    "id": "new-holland-brewing-co",
    "name": "New Holland Brewing Co",
    "brewery_type": "regional",
    "street": "66 E 8th St",
    "city": "Holland",
    "state": "Michigan",
    "postal_code": "49423-3504",
    "website_url": "http://www.newhollandbrew.com",
    "phone": "6163556422",
    "created_at": "2018-07-24 01:33:35.623611",
    "updated_at": "2018-08-24 00:43:39.097103",
    "country": "United States",
    "longitude": "-86.1041187163451",
    "latitude": "42.79010355",
    "tags": []
  },
  {
    "id": "our-brewing-co",
    "name": "Our Brewing Co",
    "brewery_type": "micro",
    "street": "76 E 8th St",
    "city": "Holland",
    "state": "Michigan",
    "postal_code": "49423-3556",
    "website_url": "http://www.ourbrewingcompany.com",
    "phone": "6169948417",
    "created_at": "2018-07-24 01:33:35.941529",
    "updated_at": "2018-08-24 00:43:49.386991",
    "country": "United States",
    "longitude": "-86.1037537",
    "latitude": "42.7901898",
    "tags": []
  },
  {
    "id": "tripelroot-production-facility",
    "name": "Tripelroot Production Facility",
    "brewery_type": "micro",
    "street": "2262 112th Ave",
    "city": "Holland",
    "state": "Michigan",
    "postal_code": "49424-9638",
    "website_url": "",
    "phone": "",
    "created_at": "2018-07-24 01:33:37.274828",
    "updated_at": "2018-08-24 00:44:32.759904",
    "country": "United States",
    "longitude": "-86.0580859",
    "latitude": "42.802587",
    "tags": []
  }
]