[
  {
    "id": "keweenaw-brewing-co",
    "name": "Keweenaw Brewing Co",
    "brewery_type": "micro",
    "street": "408 Shelden Ave",
    "city": "Houghton",
    "state": "Michigan",
    "postal_code": "49931-2138",
    "website_url": "http://www.keweenawbrewing.com",
    "phone": "9064825596",
    "created_at": "2018-07-24 01:33:35.091647",
    "updated_at": "2018-08-24 00:43:20.958737",
    "country": "United States",
    "longitude": "-88.5687729",
    "latitude": "47.1219857",
    "tags": []
  },
  {
    "id": "keweenaw-brewing-co-production-facility",
    "name": "Keweenaw Brewing Co - Production Facility",
    "brewery_type": "micro",
    "street": "408 Shelden Ave",
    "city": "Houghton",
    "state": "Michigan",
    "postal_code": "49931",
    "website_url": "http://www.keweenawbrewing.com",
    "phone": "9064821937",
    "created_at": "2018-07-24 01:33:35.104418",
    "updated_at": "2018-08-24 00:43:21.392254",
    "country": "United States",
    "longitude": "-88.5687729",
    "latitude": "47.1219857",
    "tags": []
  },
  {
    "id": "library-restaurant-bar-and-brewpub",
    "name": "Library Restaurant, Bar and Brewpub",
    "brewery_type": "brewpub",
    "street": "62 Isle Royale St",
    "city": "Houghton",
    "state": "Michigan",
    "postal_code": "49931-1827",
    "website_url": "http://www.librarybrewpub.com",
    "phone": "9064875882",
    "created_at": "2018-07-24 01:33:35.297233",
    "updated_at": "2018-08-24 00:43:28.389459",
    "country": "United States",
    "longitude": "-88.567010625",
    "latitude": "47.122159125",
    "tags": []
  }
]