[
  {
    "id": "aberrant-ales",
    "name": "Aberrant Ales",
    "brewery_type": "brewpub",
    "street": "219 W Grand River Ave",
    "city": "Howell",
    "state": "Michigan",
    "postal_code": "48843",
    "website_url": "http://www.aberrantales.com",
    "phone": "5175188699",
    "created_at": "2018-07-24 01:33:32.512378",
    "updated_at": "2018-08-24 00:42:00.172726",
    "country": "United States",
    "longitude": "-83.9309453877551",
    "latitude": "42.6077372244898",
    "tags": []
  },
  {
    "id": "brewery-in-planning-brighton-mi",
    "name": "Brewery In Planning- Brighton, MI.",
    "brewery_type": "planning",
    "street": "",
    "city": "Howell",
    "state": "Michigan",
    "postal_code": "48843-9697",
    "website_url": "http://www.schmucksbrewing.com",
    "phone": "",
    "created_at": "2018-07-24 01:33:33.438096",
    "updated_at": "2018-08-11 21:37:47.000247",
    "country": "United States",
    "longitude": "",
    "latitude": "",
    "tags": []
  },
  {
    "id": "block-brewing-company",
    "name": "Block Brewing Company",
    "brewery_type": "brewpub",
    "street": "1140 S Michigan Ave",
    "city": "Howell",
    "state": "Michigan",
    "postal_code": "48843-2669",
    "website_url": "http://www.blockbrewingcompany.com",
    "phone": "",
    "created_at": "2018-07-24 01:33:33.219858",
    "updated_at": "2018-08-24 00:42:22.673824",
    "country": "United States",
    "longitude": "-83.931806",
    "latitude": "42.603858",
    "tags": []
  },
  {
    "id": "eternity-brewing-co",
    "name": "Eternity Brewing Co",
    "brewery_type": "micro",
    "street": "4060 E Grand River Ave",
    "city": "Howell",
    "state": "Michigan",
    "postal_code": "48843-8583",
    "website_url": "http://www.eternitybrewing.com",
    "phone": "5172954904",
    "created_at": "2018-07-24 01:33:34.164193",
    "updated_at": "2018-08-24 00:42:51.554204",
    "country": "United States",
    "longitude": "-83.9948055",
    "latitude": "42.6327301666667",
    "tags": []
  },
  {
    "id": "howells-mainstreet-winery-brewery-and-pizzeria",
    "name": "Howell's MainStreet Winery, Brewery & Pizzeria",
    "brewery_type": "brewpub",
    "street": "201 W Grand River Ave",
    "city": "Howell",
    "state": "Michigan",
    "postal_code": "48843-2238",
    "website_url": "http://www.howellsmainstreetwinery.com",
    "phone": "5175459463",
    "created_at": "2018-07-24 01:33:34.909503",
    "updated_at": "2018-08-24 00:43:15.383621",
    "country": "United States",
    "longitude": "-83.9308010204082",
    "latitude": "42.6076839591837",
    "tags": []
  }
]