[
  {
    "id": "grand-river-brewery",
    "name": "Grand River Brewery",
    "brewery_type": "brewpub",
    "street": "117 W Louis Glick Hwy",
    "city": "Jackson",
    "state": "Michigan",
    "postal_code": "49201-1327",
    "website_url": "http://www.grandrivermarketplace.com",
    "phone": "5179622427",
    "created_at": "2018-07-24 01:33:34.497728",
    "updated_at": "2018-08-24 00:43:02.095126",
    "country": "United States",
    "longitude": "-84.406597",
    "latitude": "42.249334",
    "tags": []
  },
  {
    "id": "127-brewing",
    "name": "127 Brewing",
    "brewery_type": "micro",
    "street": "3090 Shirley Dr",
    "city": "Jackson",
    "state": "Michigan",
    "postal_code": "49201-7010",
    "website_url": "",
    "phone": "5172581346",
    "created_at": "2018-07-24 01:33:32.45001",
    "updated_at": "2018-08-24 00:41:58.331121",
    "country": "United States",
    "longitude": "-84.4311679214937",
    "latitude": "42.2866721186562",
    "tags": []
  },
  {
    "id": "ironbark-brewery",
    "name": "Ironbark Brewery",
    "brewery_type": "micro",
    "street": "2610 Kibby Rd",
    "city": "Jackson",
    "state": "Michigan",
    "postal_code": "49203-4908",
    "website_url": "",
    "phone": "5177487988",
    "created_at": "2018-07-24 01:33:34.933983",
    "updated_at": "2018-08-24 00:43:16.263391",
    "country": "United States",
    "longitude": "-84.4376297560976",
    "latitude": "42.218897097561",
    "tags": []
  },
  {
    "id": "poison-frog-brewing-company",
    "name": "Poison Frog Brewing Company",
    "brewery_type": "brewpub",
    "street": "1908 Horton Rd",
    "city": "Jackson",
    "state": "Michigan",
    "postal_code": "49203-5520",
    "website_url": "",
    "phone": "5177485997",
    "created_at": "2018-07-24 01:33:36.150871",
    "updated_at": "2018-08-24 00:43:56.010007",
    "country": "United States",
    "longitude": "-84.4374521976744",
    "latitude": "42.2014117790698",
    "tags": []
  },
  {
    "id": "sandhill-crane-vineyards",
    "name": "Sandhill Crane Vineyards",
    "brewery_type": "micro",
    "street": "4724 Walz Rd",
    "city": "Jackson",
    "state": "Michigan",
    "postal_code": "49201-9613",
    "website_url": "http://www.sandhillcranevineyards.com",
    "phone": "5177640679",
    "created_at": "2018-07-24 01:33:36.477555",
    "updated_at": "2018-08-11 21:37:55.862606",
    "country": "United States",
    "longitude": "",
    "latitude": "",
    "tags": []
  }
]