[
  {
    "id": "arcadia-brewing-co",
    "name": "Arcadia Brewing Co",
    "brewery_type": "micro",
    "street": "701 E Michigan Ave",
    "city": "Kalamazoo",
    "state": "Michigan",
    "postal_code": "49007-4946",
    "website_url": "http://www.arcadiaales.com",
    "phone": "2692760458",
    "created_at": "2018-07-24 01:33:32.625767",
    "updated_at": "2018-08-24 00:42:04.699982",
    "country": "United States",
    "longitude": "-85.5715368",
    "latitude": "42.2950789",
    "tags": []
  },
  {
    "id": "bilbos-pizza-and-brewery",
    "name": "Bilbo's Pizza and Brewery",
    "brewery_type": "brewpub",
    "street": "3307 Stadium Dr",
    "city": "Kalamazoo",
    "state": "Michigan",
    "postal_code": "49008-1528",
    "website_url": "http://www.bilbospizza.com",
    "phone": "2693825544",
    "created_at": "2018-07-24 01:33:33.138524",
    "updated_at": "2018-08-24 00:42:19.754416",
    "country": "United States",
    "longitude": "-85.6312249418605",
    "latitude": "42.271602248062",
    "tags": []
  },
  {
    "id": "final-gravity-brewing-company",
    "name": "Final Gravity Brewing Company",
    "brewery_type": "micro",
    "street": "246 N Burdick St",
    "city": "Kalamazoo",
    "state": "Michigan",
    "postal_code": "49007-3828",
    "website_url": "http://www.finalgravitybrew.com",
    "phone": "",
    "created_at": "2018-07-24 01:33:34.299791",
    "updated_at": "2018-08-24 00:42:55.326287",
    "country": "United States",
    "longitude": "-85.5831588823529",
    "latitude": "42.2932447058824",
    "tags": []
  },
  {
    "id": "gonzos-bigdogg-brewery",
    "name": "Gonzo's BigDogg Brewery",
    "brewery_type": "brewpub",
    "street": "140 S Westnedge Ave",
    "city": "Kalamazoo",
    "state": "Michigan",
    "postal_code": "49007-4600",
    "website_url": "http://www.gonzosbiggdoggbrewing.com",
    "phone": "2693822739",
    "created_at": "2018-07-24 01:33:34.443106",
    "updated_at": "2018-08-24 00:43:00.287111",
    "country": "United States",
    "longitude": "-85.590082607993",
    "latitude": "42.2908852",
    "tags": []
  },
  {
    "id": "american-brewers-inc",
    "name": "American Brewers Inc",
    "brewery_type": "micro",
    "street": "3408 Miller Rd",
    "city": "Kalamazoo",
    "state": "Michigan",
    "postal_code": "49001-4111",
    "website_url": "http://www.americanbrewers.us",
    "phone": "2692171920",
    "created_at": "2018-07-24 01:33:32.578944",
    "updated_at": "2018-08-24 00:42:02.849138",
    "country": "United States",
    "longitude": "-85.5378194022346",
    "latitude": "42.2667199832402",
    "tags": []
  },
  {
    "id": "bells-eccentric-cafe",
    "name": "Bell's Eccentric Cafe",
    "brewery_type": "brewpub",
    "street": "355 E Kalamazoo Ave",
    "city": "Kalamazoo",
    "state": "Michigan",
    "postal_code": "49007-3807",
    "website_url": "http://www.bellsbeer.com",
    "phone": "2693822332",
    "created_at": "2018-07-24 01:33:32.980149",
    "updated_at": "2018-08-24 00:42:15.434823",
    "country": "United States",
    "longitude": "-85.5788729220803",
    "latitude": "42.29491555",
    "tags": []
  },
  {
    "id": "brite-eyes-brewing-co",
    "name": "Brite Eyes Brewing Co",
    "brewery_type": "brewpub",
    "street": "1156 S Burdick St",
    "city": "Kalamazoo",
    "state": "Michigan",
    "postal_code": "49001-2741",
    "website_url": "",
    "phone": "2692205001",
    "created_at": "2018-07-24 01:33:33.515726",
    "updated_at": "2018-08-24 00:42:30.177738",
    "country": "United States",
    "longitude": "-85.582846",
    "latitude": "42.2797726833333",
    "tags": []
  },
  {
    "id": "one-well-brewing",
    "name": "One Well Brewing",
    "brewery_type": "planning",
    "street": "",
    "city": "Kalamazoo",
    "state": "Michigan",
    "postal_code": "49001-5264",
    "website_url": "",
    "phone": "2694599240",
    "created_at": "2018-07-24 01:33:35.862021",
    "updated_at": "2018-08-11 21:37:53.713972",
    "country": "United States",
    "longitude": "",
    "latitude": "",
    "tags": []
  },
  {
    "id": "olde-peninsula-brewpub-and-restaurant",
    "name": "Olde Peninsula Brewpub and Restaurant",
    "brewery_type": "brewpub",
    "street": "200 E Michigan Ave",
    "city": "Kalamazoo",
    "state": "Michigan",
    "postal_code": "49007-3961",
    "website_url": "http://www.oldepeninsula.com",
    "phone": "2693432739",
    "created_at": "2018-07-24 01:33:35.837572",
    "updated_at": "2018-08-24 00:43:46.163284",
    "country": "United States",
    "longitude": "-85.581578",
    "latitude": "42.2916484",
    "tags": []
  },
  {
    "id": "one-well-brewing",
    "name": "One Well Brewing",
    "brewery_type": "brewpub",
    "street": "4213 Portage St",
    "city": "Kalamazoo",
    "state": "Michigan",
    "postal_code": "49001-5264",
    "website_url": "http://www.onewellbrewing.com",
    "phone": "2694599240",
    "created_at": "2018-07-24 01:33:35.84955",
    "updated_at": "2018-08-24 00:43:46.57475",
    "country": "United States",
    "longitude": "-85.5591755",
    "latitude": "42.2485915",
    "tags": []
  },
  {
    "id": "ruperts-brew-house",
    "name": "Rupert's Brew House",
    "brewery_type": "micro",
    "street": "773 W Michigan Ave",
    "city": "Kalamazoo",
    "state": "Michigan",
    "postal_code": "49007-4518",
    "website_url": "http://www.rupertsbrewhouse.com",
    "phone": "2693379911",
    "created_at": "2018-07-24 01:33:36.428019",
    "updated_at": "2018-08-24 00:44:04.845366",
    "country": "United States",
    "longitude": "-85.5941773954181",
    "latitude": "42.29072325",
    "tags": []
  },
  {
    "id": "texas-corners-brewing-company",
    "name": "Texas Corners Brewing Company",
    "brewery_type": "brewpub",
    "street": "6970 Texas Dr",
    "city": "Kalamazoo",
    "state": "Michigan",
    "postal_code": "49009-9795",
    "website_url": "http://www.texascornersbrewing.com",
    "phone": "2698707724",
    "created_at": "2018-07-24 01:33:36.895175",
    "updated_at": "2018-08-24 00:44:21.113697",
    "country": "United States",
    "longitude": "-85.6486336",
    "latitude": "42.2300087",
    "tags": []
  },
  {
    "id": "tibbs-brewing-co",
    "name": "Tibbs Brewing Co",
    "brewery_type": "brewpub",
    "street": "402 S Burdick St",
    "city": "Kalamazoo",
    "state": "Michigan",
    "postal_code": "49007-5218",
    "website_url": "",
    "phone": "8777627397",
    "created_at": "2018-07-24 01:33:37.157531",
    "updated_at": "2018-08-24 00:44:28.922183",
    "country": "United States",
    "longitude": "-85.5832083061224",
    "latitude": "42.2885994897959",
    "tags": []
  },
  {
    "id": "boatyard-brewing-co",
    "name": "Boatyard Brewing Co",
    "brewery_type": "micro",
    "street": "432 E Paterson St",
    "city": "Kalamazoo",
    "state": "Michigan",
    "postal_code": "49007-2599",
    "website_url": "http://www.boatyardbrewing.com",
    "phone": "2692260300",
    "created_at": "2018-07-24 01:33:33.273816",
    "updated_at": "2018-08-24 00:42:24.589383",
    "country": "United States",
    "longitude": "-85.578439",
    "latitude": "42.303203",
    "tags": []
  }
]