[
  {
    "id": "eaglemonk-pub-and-brewery",
    "name": "EagleMonk Pub and Brewery",
    "brewery_type": "brewpub",
    "street": "4906 W Mount Hope Hwy",
    "city": "Lansing",
    "state": "Michigan",
    "postal_code": "48917-9588",
    "website_url": "",
    "phone": "5177087350",
    "created_at": "2018-07-24 01:33:34.013519",
    "updated_at": "2018-08-24 00:42:45.958888",
    "country": "United States",
    "longitude": "-84.662048",
    "latitude": "42.712054",
    "tags": []
  },
  {
    "id": "midtown-brewing-co",
    "name": "Midtown Brewing Co",
    "brewery_type": "micro",
    "street": "402 S Washington Sq",
    "city": "Lansing",
    "state": "Michigan",
    "postal_code": "48933-2172",
    "website_url": "http://www.midtownbrewingco.com",
    "phone": "5179771349",
    "created_at": "2018-07-24 01:33:35.514124",
    "updated_at": "2018-08-11 21:37:52.813455",
    "country": "United States",
    "longitude": "",
    "latitude": "",
    "tags": []
  },
  {
    "id": "lansing-brewing-company",
    "name": "Lansing Brewing Company",
    "brewery_type": "brewpub",
    "street": "518 E Shiawassee St",
    "city": "Lansing",
    "state": "Michigan",
    "postal_code": "48912-1214",
    "website_url": "",
    "phone": "5175996001",
    "created_at": "2018-07-24 01:33:35.20849",
    "updated_at": "2018-08-24 00:43:25.001107",
    "country": "United States",
    "longitude": "-84.5455093002192",
    "latitude": "42.7368424",
    "tags": []
  },
  {
    "id": "ozones-brewhouse",
    "name": "Ozone's Brewhouse",
    "brewery_type": "micro",
    "street": "305 Beaver St",
    "city": "Lansing",
    "state": "Michigan",
    "postal_code": "48906-4411",
    "website_url": "http://www.ozonesbrewhouse.com",
    "phone": "5179992739",
    "created_at": "2018-07-24 01:33:35.956134",
    "updated_at": "2018-08-24 00:43:49.908157",
    "country": "United States",
    "longitude": "-84.5486098265306",
    "latitude": "42.7505921020408",
    "tags": []
  }
]