[
  {
    "id": "barrel-and-beam",
    "name": "Barrel and Beam",
    "brewery_type": "micro",
    "street": "260 Northwoods RD",
    "city": "Marquette",
    "state": "Michigan",
    "postal_code": "49855",
    "website_url": "http://www.barrelandbeam.com",
    "phone": "9062732559",
    "created_at": "2018-07-24 01:33:32.835387",
    "updated_at": "2018-08-24 00:42:11.640724",
    "country": "United States",
    "longitude": "-87.4722168",
    "latitude": "46.54578",
    "tags": []
  },
  {
    "id": "blackrocks-brewery",
    "name": "Blackrocks Brewery",
    "brewery_type": "micro",
    "street": "424 N 3rd St",
    "city": "Marquette",
    "state": "Michigan",
    "postal_code": "49855-3555",
    "website_url": "http://www.blackrocksbrewery.com",
    "phone": "9062731333",
    "created_at": "2018-07-24 01:33:33.192361",
    "updated_at": "2018-08-24 00:42:21.704663",
    "country": "United States",
    "longitude": "-87.3946213265306",
    "latitude": "46.5464588979592",
    "tags": []
  },
  {
    "id": "blackrocks-brewery-production-facility",
    "name": "Blackrocks Brewery - Production Facility",
    "brewery_type": "micro",
    "street": "950 W Washington St",
    "city": "Marquette",
    "state": "Michigan",
    "postal_code": "49855-4019",
    "website_url": "http://www.blackrocksbrewery.com",
    "phone": "9062731333",
    "created_at": "2018-07-24 01:33:33.206648",
    "updated_at": "2018-08-24 00:42:22.172751",
    "country": "United States",
    "longitude": "-87.4136879387755",
    "latitude": "46.545940244898",
    "tags": []
  },
  {
    "id": "ore-dock-brewing-co",
    "name": "Ore Dock Brewing Co",
    "brewery_type": "micro",
    "street": "114 W Spring St",
    "city": "Marquette",
    "state": "Michigan",
    "postal_code": "49855-4608",
    "website_url": "http://www.oredockbrewingcompany.com",
    "phone": "9068675309",
    "created_at": "2018-07-24 01:33:35.902399",
    "updated_at": "2018-08-24 00:43:47.974875",
    "country": "United States",
    "longitude": "-87.3938859285442",
    "latitude": "46.54189135",
    "tags": []
  },
  {
    "id": "vierling-restaurant-and-marquette-harbor-brewery",
    "name": "Vierling Restaurant & Marquette Harbor Brewery",
    "brewery_type": "brewpub",
    "street": "119 S Front St",
    "city": "Marquette",
    "state": "Michigan",
    "postal_code": "49855-4642",
    "website_url": "http://www.thevierling.com",
    "phone": "9062283533",
    "created_at": "2018-07-24 01:33:37.403888",
    "updated_at": "2018-08-24 00:44:37.405226",
    "country": "United States",
    "longitude": "-87.3928955",
    "latitude": "46.5425586",
    "tags": []
  }
]