[
  {
    "id": "beards-brewery",
    "name": "Beards Brewery",
    "brewery_type": "brewpub",
    "street": "215 E Lake St",
    "city": "Petoskey",
    "state": "Michigan",
    "postal_code": "49770-2415",
    "website_url": "http://www.beardsbrewery.com",
    "phone": "2317532221",
    "created_at": "2018-07-24 01:33:32.883636",
    "updated_at": "2018-08-24 00:42:13.192233",
    "country": "United States",
    "longitude": "-84.9542583804348",
    "latitude": "45.3753380108696",
    "tags": []
  },
  {
    "id": "petoskey-brewing",
    "name": "Petoskey Brewing",
    "brewery_type": "micro",
    "street": "1844 M 119 Harbor-Petoskey Rd",
    "city": "Petoskey",
    "state": "Michigan",
    "postal_code": "49770-9341",
    "website_url": "http://www.petoskeybrewing.com",
    "phone": "2317532057",
    "created_at": "2018-07-24 01:33:36.070668",
    "updated_at": "2018-08-11 21:37:54.576101",
    "country": "United States",
    "longitude": "",
    "latitude": "",
    "tags": []
  },
  {
    "id": "rudbeckia-farm",
    "name": "Rudbeckia Farm",
    "brewery_type": "micro",
    "street": "3379 Lake Grove Rd",
    "city": "Petoskey",
    "state": "Michigan",
    "postal_code": "49770-9751",
    "website_url": "http://www.rudbeckiafarm.com",
    "phone": "2316224173",
    "created_at": "2018-07-24 01:33:36.415171",
    "updated_at": "2018-08-11 21:37:55.649368",
    "country": "United States",
    "longitude": "",
    "latitude": "",
    "tags": []
  }
]