[
  {
    "id": "river-rouge-brewing-company",
    "name": "River Rouge Brewing Company",
    "brewery_type": "micro",
    "street": "406 E 4th St",
    "city": "Royal Oak",
    "state": "Michigan",
    "postal_code": "48067-2757",
    "website_url": "http://www.riverrougebrew.com",
    "phone": "2488020555",
    "created_at": "2018-07-24 01:33:36.279599",
    "updated_at": "2018-08-24 00:43:59.71237",
    "country": "United States",
    "longitude": "-83.1405958686869",
    "latitude": "42.4872653131313",
    "tags": []
  },
  {
    "id": "roak-brewing-co",
    "name": "Roak Brewing Co.",
    "brewery_type": "micro",
    "street": "330 E Lincoln Ave",
    "city": "Royal Oak",
    "state": "Michigan",
    "postal_code": "48067-2700",
    "website_url": "http://www.roakbrewing.com",
    "phone": "2482688780",
    "created_at": "2018-07-24 01:33:36.308238",
    "updated_at": "2018-08-24 00:44:00.70542",
    "country": "United States",
    "longitude": "-83.1420991414141",
    "latitude": "42.4834209292929",
    "tags": []
  },
  {
    "id": "royal-oak-brewery",
    "name": "Royal Oak Brewery",
    "brewery_type": "brewpub",
    "street": "215 E 4th St",
    "city": "Royal Oak",
    "state": "Michigan",
    "postal_code": "48067-2606",
    "website_url": "http://www.royaloakbrewery.com",
    "phone": "2485441141",
    "created_at": "2018-07-24 01:33:36.402091",
    "updated_at": "2018-08-24 00:44:03.917204",
    "country": "United States",
    "longitude": "-83.1427122857143",
    "latitude": "42.4873955714286",
    "tags": []
  },
  {
    "id": "bastone-brewery",
    "name": "Bastone Brewery",
    "brewery_type": "brewpub",
    "street": "419 S Main St",
    "city": "Royal Oak",
    "state": "Michigan",
    "postal_code": "48067-2615",
    "website_url": "http://www.bastone.net/br/bastone-brewery",
    "phone": "2485446250",
    "created_at": "2018-07-24 01:33:32.851345",
    "updated_at": "2018-08-24 00:42:12.202711",
    "country": "United States",
    "longitude": "-83.1440578",
    "latitude": "42.4836283",
    "tags": []
  },
  {
    "id": "lilys-seafood-restaurant-and-brewery",
    "name": "Lilys Seafood Restaurant and Brewery",
    "brewery_type": "brewpub",
    "street": "410 S Washington Ave",
    "city": "Royal Oak",
    "state": "Michigan",
    "postal_code": "48067-3824",
    "website_url": "",
    "phone": "2485915459",
    "created_at": "2018-07-24 01:33:35.309101",
    "updated_at": "2018-08-24 00:43:28.895153",
    "country": "United States",
    "longitude": "-83.146686877551",
    "latitude": "42.487039",
    "tags": []
  }
]