[
  {
    "id": "brewery-ferment",
    "name": "Brewery Ferment",
    "brewery_type": "micro",
    "street": "511 S Union St",
    "city": "Traverse City",
    "state": "Michigan",
    "postal_code": "49684-3246",
    "website_url": "http://www.breweryferment.com",
    "phone": "2317358113",
    "created_at": "2018-07-24 01:33:33.374738",
    "updated_at": "2018-08-24 00:42:27.827846",
    "country": "United States",
    "longitude": "-85.6235355236285",
    "latitude": "44.75888715",
    "tags": []
  },
  {
    "id": "brewery-terra-firma",
    "name": "Brewery Terra Firma",
    "brewery_type": "micro",
    "street": "2959 Hartman Rd",
    "city": "Traverse City",
    "state": "Michigan",
    "postal_code": "49685-8838",
    "website_url": "http://www.breweryterrafirma.com",
    "phone": "2319291600",
    "created_at": "2018-07-24 01:33:33.464153",
    "updated_at": "2018-08-24 00:42:28.264729",
    "country": "United States",
    "longitude": "-85.635105808311",
    "latitude": "44.71509875",
    "tags": []
  },
  {
    "id": "jolly-pumpkin-restaurant-brewery-and-distillery",
    "name": "Jolly Pumpkin Restaurant, Brewery & Distillery",
    "brewery_type": "micro",
    "street": "13512 Peninsula Dr Old Mission Peninsula",
    "city": "Traverse City",
    "state": "Michigan",
    "postal_code": "49686-9717",
    "website_url": "http://www.jollypumpkin.com",
    "phone": "2312234333",
    "created_at": "2018-07-24 01:33:35.067541",
    "updated_at": "2018-08-11 21:37:51.331225",
    "country": "United States",
    "longitude": "",
    "latitude": "",
    "tags": []
  },
  {
    "id": "mackinaw-brewing-co",
    "name": "Mackinaw Brewing Co",
    "brewery_type": "brewpub",
    "street": "161 E Front St",
    "city": "Traverse City",
    "state": "Michigan",
    "postal_code": "49684-5779",
    "website_url": "http://www.mackinawbrewing.com",
    "phone": "2319331100",
    "created_at": "2018-07-24 01:33:35.425474",
    "updated_at": "2018-08-24 00:43:32.675398",
    "country": "United States",
    "longitude": "-85.6212445883541",
    "latitude": "44.76426455",
    "tags": []
  },
  {
    "id": "north-peak-brewing-co",
    "name": "North Peak Brewing Co",
    "brewery_type": "brewpub",
    "street": "400 W Front St",
    "city": "Traverse City",
    "state": "Michigan",
    "postal_code": "49684-2800",
    "website_url": "http://www.northpeak.net",
    "phone": "2319417325",
    "created_at": "2018-07-24 01:33:35.701679",
    "updated_at": "2018-08-24 00:43:42.12881",
    "country": "United States",
    "longitude": "-85.6285431",
    "latitude": "44.7643155",
    "tags": []
  },
  {
    "id": "rare-bird-brewpub",
    "name": "Rare Bird Brewpub",
    "brewery_type": "brewpub",
    "street": "229 Lake Ave",
    "city": "Traverse City",
    "state": "Michigan",
    "postal_code": "49684-2532",
    "website_url": "http://rarebirdbrewpub.com",
    "phone": "2319432053",
    "created_at": "2018-07-24 01:33:36.190152",
    "updated_at": "2018-08-24 00:43:56.863903",
    "country": "United States",
    "longitude": "-85.6193233670957",
    "latitude": "44.7597803928249",
    "tags": []
  },
  {
    "id": "ubrew-nanobrewery",
    "name": "UBrew Nanobrewery",
    "brewery_type": "micro",
    "street": "3054 Cass Rd Unit F",
    "city": "Traverse City",
    "state": "Michigan",
    "postal_code": "49684-8800",
    "website_url": "http://www.ubrewtc.com",
    "phone": "2319432016",
    "created_at": "2018-07-24 01:33:37.327017",
    "updated_at": "2018-08-11 21:37:58.124041",
    "country": "United States",
    "longitude": "",
    "latitude": "",
    "tags": []
  },
  {
    "id": "the-parlor",
    "name": "The Parlor",
    "brewery_type": "brewpub",
    "street": "205 Lake Ave",
    "city": "Traverse City",
    "state": "Michigan",
    "postal_code": "49684-2532",
    "website_url": "http://www.bigtoebrewery.com",
    "phone": "2319414422",
    "created_at": "2018-07-24 01:33:37.070095",
    "updated_at": "2018-08-24 00:44:26.174919",
    "country": "United States",
    "longitude": "-85.6204308",
    "latitude": "44.7601402",
    "tags": []
  },
  {
    "id": "workshop-brewing-co",
    "name": "Workshop Brewing Co",
    "brewery_type": "brewpub",
    "street": "221 Garland St Ste A",
    "city": "Traverse City",
    "state": "Michigan",
    "postal_code": "49684-2372",
    "website_url": "http://www.traversecityworkshop.com",
    "phone": "12314218966",
    "created_at": "2018-07-24 01:33:37.558943",
    "updated_at": "2018-08-11 21:37:58.643853",
    "country": "United States",
    "longitude": "",
    "latitude": "",
    "tags": []
  },
  {
    "id": "right-brain-brewery",
    "name": "Right Brain Brewery",
    "brewery_type": "micro",
    "street": "225 E Sixteenth St Ste A",
    "city": "Traverse City",
    "state": "Michigan",
    "postal_code": "49684-4190",
    "website_url": "http://www.rightbrainbrewery.com",
    "phone": "2319441239",
    "created_at": "2018-07-24 01:33:36.265979",
    "updated_at": "2018-08-11 21:37:55.175358",
    "country": "United States",
    "longitude": "",
    "latitude": "",
    "tags": []
  },
  {
    "id": "earthen-ales",
    "name": "Earthen Ales",
    "brewery_type": "micro",
    "street": "1371 Gray Dr Ste 200",
    "city": "Traverse City",
    "state": "Michigan",
    "postal_code": "49684-7805",
    "website_url": "http://www.earthenales.com",
    "phone": "2312524270",
    "created_at": "2018-07-24 01:33:34.025875",
    "updated_at": "2018-08-24 00:42:46.431598",
    "country": "United States",
    "longitude": "-85.6454249",
    "latitude": "44.755294",
    "tags": []
  },
  {
    "id": "the-filling-station-microbrewery",
    "name": "The Filling Station Microbrewery",
    "brewery_type": "micro",
    "street": "642 Railroad Pl",
    "city": "Traverse City",
    "state": "Michigan",
    "postal_code": "49686-3633",
    "website_url": "http://www.thefillingstationmicrobrewery.com",
    "phone": "2319468168",
    "created_at": "2018-07-24 01:33:36.934412",
    "updated_at": "2018-08-24 00:44:22.482415",
    "country": "United States",
    "longitude": "-85.6094760047576",
    "latitude": "44.7580963",
    "tags": []
  }
]