[
  {
    "id": "avondale-brewing-co",
    "name": "Avondale Brewing Co",
    "brewery_type": "micro",
    "street": "201 41st St S",
    "city": "Birmingham",
    "state": "Alabama",
    "postal_code": "35222-1932",
    "website_url": "http://www.avondalebrewing.com",
    "phone": "2057775456",
    "created_at": "2018-07-24 01:32:47.255559",
    "updated_at": "2018-08-23 23:19:57.82527",
    "country": "United States",
    "longitude": "-86.774322",
    "latitude": "33.524521",
    "tags": []
  },
  {
    "id": "trim-tab-brewing",
    "name": "Trim Tab Brewing",
    "brewery_type": "micro",
    "street": "2721 5th Ave S",
    "city": "Birmingham",
    "state": "Alabama",
    "postal_code": "35233-3401",
    "website_url": "http://www.trimtabbrewing.com",
    "phone": "2057030536",
    "created_at": "2018-07-24 01:32:47.815458",
    "updated_at": "2018-08-23 23:20:31.42326",
    "country": "United States",
    "longitude": "-86.7914000624146",
    "latitude": "33.5128492349817",
    "tags": []
  },
  {
    "id": "cahaba-brewing-co",
    "name": "Cahaba Brewing Co",
    "brewery_type": "micro",
    "street": "4500 5th Ave S Ste C",
    "city": "Birmingham",
    "state": "Alabama",
    "postal_code": "35222-2911",
    "website_url": "http://www.cahababrewing.com",
    "phone": "2059669444",
    "created_at": "2018-07-24 01:32:47.400092",
    "updated_at": "2018-08-11 21:35:43.648666",
    "country": "United States",
    "longitude": "",
    "latitude": "",
    "tags": []
  },
  {
    "id": "red-hills-brewing-co",
    "name": "Red Hills Brewing Co",
    "brewery_type": "micro",
    "street": "2823 Central Ave Ste 107",
    "city": "Birmingham",
    "state": "Alabama",
    "postal_code": "35209-2581",
    "website_url": "http://www.redhillsbrew.com",
    "phone": "2055822897",
    "created_at": "2018-07-24 01:32:47.675813",
    "updated_at": "2018-08-11 21:35:44.279624",
    "country": "United States",
    "longitude": "",
    "latitude": "",
    "tags": []
  },
  {
    "id": "birmingham-district-brewing",
    "name": "Birmingham District Brewing",
    "brewery_type": "planning",
    "street": "",
    "city": "Birmingham",
    "state": "Alabama",
    "postal_code": "35242-5651",
    "website_url": "",
    "phone": "6019380486",
    "created_at": "2018-07-24 01:32:47.318299",
    "updated_at": "2018-08-23 23:20:01.613359",
    "country": "United States",
    "longitude": "-86.8024326",
    "latitude": "33.5206824",
    "tags": []
  },
  {
    "id": "brewpub-in-planning-birmingham",
    "name": "Brewpub In Planning - Birmingham",
    "brewery_type": "planning",
    "street": "",
    "city": "Birmingham",
    "state": "Alabama",
    "postal_code": "35222",
    "website_url": "",
    "phone": "2565854531",
    "created_at": "2018-07-24 01:32:47.386249",
    "updated_at": "2018-08-23 23:20:05.060812",
    "country": "United States",
    "longitude": "-86.8024326",
    "latitude": "33.5206824",
    "tags": []
  },
  {
    "id": "ghost-train-brewing-co",
    "name": "Ghost Train Brewing Co",
    "brewery_type": "micro",
    "street": "2616 3rd Ave S",
    "city": "Birmingham",
    "state": "Alabama",
    "postal_code": "35233-2619",
    "website_url": "http://www.ghosttrainbrewing.com",
    "phone": "2053702487",
    "created_at": "2018-07-24 01:32:47.52658",
    "updated_at": "2018-08-23 23:20:14.678577",
    "country": "United States",
    "longitude": "-86.7940615102041",
    "latitude": "33.5141593469388",
    "tags": []
  },
  {
    "id": "good-people-brewing-co",
    "name": "Good People Brewing Co",
    "brewery_type": "micro",
    "street": "114 14th St S",
    "city": "Birmingham",
    "state": "Alabama",
    "postal_code": "35233-1415",
    "website_url": "http://www.goodpeoplebrewing.com",
    "phone": "6154984165",
    "created_at": "2018-07-24 01:32:47.552463",
    "updated_at": "2018-08-23 23:20:16.50722",
    "country": "United States",
    "longitude": "-86.8121799456595",
    "latitude": "33.5075946077931",
    "tags": []
  }
]