[
  {
    "id": "yellowhammer-brewery",
    "name": "Yellowhammer Brewery",
    "brewery_type": "micro",
    "street": "2600 Clinton Ave W",
    "city": "Huntsville",
    "state": "Alabama",
    "postal_code": "35805-3046",
    "website_url": "http://www.yellowhammerbrewery.com",
    "phone": "2569755950",
    "created_at": "2018-07-24 01:32:47.838678",
    "updated_at": "2018-08-23 23:20:33.102472",
    "country": "United States",
    "longitude": "-86.5932014",
    "latitude": "34.7277523",
    "tags": []
  },
  {
    "id": "below-the-radar-brewing-co",
    "name": "Below the Radar Brewing Co",
    "brewery_type": "brewpub",
    "street": "220 Holmes Ave NE",
    "city": "Huntsville",
    "state": "Alabama",
    "postal_code": "35801-4837",
    "website_url": "http://www.btrbrew.com",
    "phone": "2564696617",
    "created_at": "2018-07-24 01:32:47.293204",
    "updated_at": "2018-08-23 23:20:00.300187",
    "country": "United States",
    "longitude": "-86.5858393061225",
    "latitude": "34.7327236530612",
    "tags": []
  },
  {
    "id": "chandlers-ford-brewing-llc",
    "name": "Chandler's Ford Brewing LLC",
    "brewery_type": "planning",
    "street": "",
    "city": "Huntsville",
    "state": "Alabama",
    "postal_code": "35802",
    "website_url": "http://chandlersfordbrewing.com",
    "phone": "2564576999",
    "created_at": "2018-07-24 01:32:47.414106",
    "updated_at": "2018-08-23 23:20:06.898944",
    "country": "United States",
    "longitude": "-86.5859011",
    "latitude": "34.729847",
    "tags": []
  },
  {
    "id": "innerspace-brewing-company",
    "name": "InnerSpace Brewing Company",
    "brewery_type": "micro",
    "street": "2414 Clinton Ave W",
    "city": "Huntsville",
    "state": "Alabama",
    "postal_code": "35805-3014",
    "website_url": "http://www.innerspacebrewing.com",
    "phone": "2564895599",
    "created_at": "2018-07-24 01:32:47.589303",
    "updated_at": "2018-08-23 23:20:19.029831",
    "country": "United States",
    "longitude": "-86.5932014",
    "latitude": "34.7277523",
    "tags": []
  },
  {
    "id": "mad-malts-brewery-and-tap-room",
    "name": "Mad Malts Brewery & Tap Room",
    "brewery_type": "micro",
    "street": "109 Maple Ave NW",
    "city": "Huntsville",
    "state": "Alabama",
    "postal_code": "35801-4634",
    "website_url": "http://www.madmaltsbrewing.com",
    "phone": "2564243543",
    "created_at": "2018-07-24 01:32:47.601563",
    "updated_at": "2018-08-23 23:20:19.899104",
    "country": "United States",
    "longitude": "-86.585242",
    "latitude": "34.746475",
    "tags": []
  },
  {
    "id": "salty-nut-brewery",
    "name": "Salty Nut Brewery",
    "brewery_type": "micro",
    "street": "2406 Clinton Ave W",
    "city": "Huntsville",
    "state": "Alabama",
    "postal_code": "35805-3014",
    "website_url": "http://www.saltynutbrewery.com",
    "phone": "2567138877",
    "created_at": "2018-07-24 01:32:47.707809",
    "updated_at": "2018-08-23 23:20:25.319806",
    "country": "United States",
    "longitude": "-86.5932014",
    "latitude": "34.7277523",
    "tags": []
  },
  {
    "id": "straight-to-ale",
    "name": "Straight to Ale",
    "brewery_type": "micro",
    "street": "2610 Clinton Ave W",
    "city": "Huntsville",
    "state": "Alabama",
    "postal_code": "35805-3046",
    "website_url": "http://www.straighttoale.com",
    "phone": "2566039096",
    "created_at": "2018-07-24 01:32:47.775068",
    "updated_at": "2018-08-23 23:20:28.760387",
    "country": "United States",
    "longitude": "-86.5932014",
    "latitude": "34.7277523",
    "tags": []
  },
  {
    "id": "green-bus-brewing",
    "name": "Green Bus Brewing",
    "brewery_type": "brewpub",
    "street": "206 Eustis Ave SE",
    "city": "Huntsville",
    "state": "Alabama",
    "postal_code": "35801-4233",
    "website_url": "http://www.greenbusbrewing.com",
    "phone": "2569902477",
    "created_at": "2018-07-24 01:32:47.56486",
    "updated_at": "2018-08-23 23:20:17.307984",
    "country": "United States",
    "longitude": "-86.5840513571761",
    "latitude": "34.7301050335608",
    "tags": []
  }
]