[
  {
    "id": "broadway-brewery",
    "name": "Broadway Brewery",
    "brewery_type": "brewpub",
    "street": "816 E Broadway Ste B",
    "city": "Columbia",
    "state": "Missouri",
    "postal_code": "65201-4898",
    "website_url": "http://www.broadwaybrewery.com",
    "phone": "5734435054",
    "created_at": "2018-07-24 01:33:40.698312",
    "updated_at": "2018-08-11 21:38:07.004475",
    "country": "United States",
    "longitude": "",
    "latitude": "",
    "tags": []
  },
  {
    "id": "bur-oak-company",
    "name": "Bur Oak Company",
    "brewery_type": "micro",
    "street": "8250 E Trade Center Dr",
    "city": "Columbia",
    "state": "Missouri",
    "postal_code": "65201-7635",
    "website_url": "http://www.buroakbeer.com",
    "phone": "",
    "created_at": "2018-07-24 01:33:40.725717",
    "updated_at": "2018-08-11 21:38:07.063349",
    "country": "United States",
    "longitude": "",
    "latitude": "",
    "tags": []
  },
  {
    "id": "logboat-brewing-co",
    "name": "Logboat Brewing Co",
    "brewery_type": "micro",
    "street": "504 Fay St",
    "city": "Columbia",
    "state": "Missouri",
    "postal_code": "65201-4782",
    "website_url": "http://www.logboatbrewing.com",
    "phone": "5733976786",
    "created_at": "2018-07-24 01:33:41.257493",
    "updated_at": "2018-08-24 00:46:33.860169",
    "country": "United States",
    "longitude": "-92.322650149356",
    "latitude": "38.9570863933001",
    "tags": []
  },
  {
    "id": "flat-branch-pub-and-brewing",
    "name": "Flat Branch Pub and Brewing",
    "brewery_type": "brewpub",
    "street": "115 S 5th St",
    "city": "Columbia",
    "state": "Missouri",
    "postal_code": "65201-4230",
    "website_url": "http://www.flatbranch.com",
    "phone": "5734990400",
    "created_at": "2018-07-24 01:33:40.999749",
    "updated_at": "2018-08-24 00:46:25.910646",
    "country": "United States",
    "longitude": "-92.3319689609883",
    "latitude": "38.9503001261367",
    "tags": []
  }
]