[
  {
    "id": "mccoys-public-house",
    "name": "McCoy's Public House",
    "brewery_type": "brewpub",
    "street": "4057 Pennsylvania Ave",
    "city": "Kansas City",
    "state": "Missouri",
    "postal_code": "64111-3021",
    "website_url": "http://www.mccoyspublichouse.com",
    "phone": "8169600866",
    "created_at": "2018-07-24 01:33:41.334876",
    "updated_at": "2018-08-24 00:46:36.359778",
    "country": "United States",
    "longitude": "-94.5911729",
    "latitude": "39.1002989",
    "tags": []
  },
  {
    "id": "strange-days-brewing-co",
    "name": "Strange Days Brewing Co",
    "brewery_type": "micro",
    "street": "316 Oak St",
    "city": "Kansas City",
    "state": "Missouri",
    "postal_code": "64106",
    "website_url": "http://www.strangedaysbrewing.com",
    "phone": "8164695321",
    "created_at": "2018-07-24 01:33:41.766066",
    "updated_at": "2018-08-24 00:46:48.321763",
    "country": "United States",
    "longitude": "-94.5799451187632",
    "latitude": "39.1100614",
    "tags": []
  },
  {
    "id": "city-barrel-brewing-co",
    "name": "City Barrel Brewing Co",
    "brewery_type": "planning",
    "street": "",
    "city": "Kansas City",
    "state": "Missouri",
    "postal_code": "64108-1803",
    "website_url": "",
    "phone": "",
    "created_at": "2018-07-24 01:33:40.834333",
    "updated_at": "2018-08-11 21:38:07.350296",
    "country": "United States",
    "longitude": "",
    "latitude": "",
    "tags": []
  },
  {
    "id": "amerisports-brew-pub",
    "name": "Amerisports Brew Pub",
    "brewery_type": "brewpub",
    "street": "3200 Ameristar Dr",
    "city": "Kansas City",
    "state": "Missouri",
    "postal_code": "64161",
    "website_url": "http://www.ameristar.com",
    "phone": "8164147435",
    "created_at": "2018-07-24 01:33:40.423162",
    "updated_at": "2018-08-11 21:38:06.486141",
    "country": "United States",
    "longitude": "",
    "latitude": "",
    "tags": []
  },
  {
    "id": "brewery-in-planning-kansas-city",
    "name": "Brewery in Planning - Kansas City",
    "brewery_type": "planning",
    "street": "",
    "city": "Kansas City",
    "state": "Missouri",
    "postal_code": "64141-0801",
    "website_url": "",
    "phone": "",
    "created_at": "2018-07-24 01:33:40.632418",
    "updated_at": "2018-08-11 21:38:06.893178",
    "country": "United States",
    "longitude": "",
    "latitude": "",
    "tags": []
  },
  {
    "id": "brewery-in-planning-kansas-city-mo",
    "name": "Brewery in Planning - Kansas city, MO",
    "brewery_type": "planning",
    "street": "",
    "city": "Kansas city",
    "state": "Missouri",
    "postal_code": "64108",
    "website_url": "",
    "phone": "8164210011",
    "created_at": "2018-07-24 01:33:40.648927",
    "updated_at": "2018-08-11 21:38:06.920231",
    "country": "United States",
    "longitude": "",
    "latitude": "",
    "tags": []
  },
  {
    "id": "bks-artisan-ales",
    "name": "BKS Artisan Ales",
    "brewery_type": "micro",
    "street": "633 E 63rd St",
    "city": "Kansas City",
    "state": "Missouri",
    "postal_code": "64110",
    "website_url": "http://www.bksartisanales.com",
    "phone": "8166733027",
    "created_at": "2018-07-24 01:33:40.540136",
    "updated_at": "2018-08-24 00:46:13.574498",
    "country": "United States",
    "longitude": "-94.493961",
    "latitude": "39.010093",
    "tags": []
  },
  {
    "id": "border-brewing-company",
    "name": "Border Brewing Company",
    "brewery_type": "micro",
    "street": "406 E 18th St",
    "city": "Kansas City",
    "state": "Missouri",
    "postal_code": "64108",
    "website_url": "http://www.borderbrewco.com",
    "phone": "8163156807",
    "created_at": "2018-07-24 01:33:40.57312",
    "updated_at": "2018-08-24 00:46:14.491211",
    "country": "United States",
    "longitude": "-94.5786142",
    "latitude": "39.0917581",
    "tags": []
  },
  {
    "id": "boulevard-brewing-co",
    "name": "Boulevard Brewing Co",
    "brewery_type": "regional",
    "street": "2501 Southwest Blvd",
    "city": "Kansas City",
    "state": "Missouri",
    "postal_code": "64108-2345",
    "website_url": "http://www.boulevard.com",
    "phone": "8164747095",
    "created_at": "2018-07-24 01:33:40.586763",
    "updated_at": "2018-08-24 00:46:14.963871",
    "country": "United States",
    "longitude": "-94.5968230668374",
    "latitude": "39.08196355",
    "tags": []
  },
  {
    "id": "brewery-emperial",
    "name": "Brewery Emperial",
    "brewery_type": "brewpub",
    "street": "1829 Oak St",
    "city": "Kansas City",
    "state": "Missouri",
    "postal_code": "64108",
    "website_url": "http://www.breweryemperial.com",
    "phone": "8169459625",
    "created_at": "2018-07-24 01:33:40.617402",
    "updated_at": "2018-08-24 00:46:16.013602",
    "country": "United States",
    "longitude": "-94.5788631428571",
    "latitude": "39.0911947142857",
    "tags": []
  },
  {
    "id": "calibration-brewery",
    "name": "Calibration Brewery",
    "brewery_type": "brewpub",
    "street": "119 Armour Rd",
    "city": "Kansas City",
    "state": "Missouri",
    "postal_code": "64116-3502",
    "website_url": "http://www.calibrationbrewery.com",
    "phone": "8169948277",
    "created_at": "2018-07-24 01:33:40.740597",
    "updated_at": "2018-08-11 21:38:07.0932",
    "country": "United States",
    "longitude": "",
    "latitude": "",
    "tags": []
  },
  {
    "id": "double-shift-brewing",
    "name": "Double Shift Brewing",
    "brewery_type": "micro",
    "street": "412 E 18th St",
    "city": "Kansas City",
    "state": "Missouri",
    "postal_code": "64108-1410",
    "website_url": "http://www.doubleshiftbrewing.com",
    "phone": "8163047028",
    "created_at": "2018-07-24 01:33:40.920898",
    "updated_at": "2018-08-24 00:46:23.379078",
    "country": "United States",
    "longitude": "-94.5786837346939",
    "latitude": "39.0917049387755",
    "tags": []
  },
  {
    "id": "granite-city-food-and-brewery-#11",
    "name": "Granite City Food & Brewery (#11)",
    "brewery_type": "brewpub",
    "street": "8461 NW Prairie View Rd",
    "city": "Kansas City",
    "state": "Missouri",
    "postal_code": "64153-1842",
    "website_url": "http://www.gcfb.net",
    "phone": "8165873838",
    "created_at": "2018-07-24 01:33:41.065",
    "updated_at": "2018-08-24 00:46:27.892153",
    "country": "United States",
    "longitude": "-94.66105",
    "latitude": "39.2493641483218",
    "tags": []
  },
  {
    "id": "green-room-burgers-and-beer",
    "name": "Green Room Burgers & Beer",
    "brewery_type": "brewpub",
    "street": "4010 Pennsylvania Ave",
    "city": "Kansas City",
    "state": "Missouri",
    "postal_code": "64111-3010",
    "website_url": "http://www.greenroomkc.com",
    "phone": "8162167682",
    "created_at": "2018-07-24 01:33:41.095359",
    "updated_at": "2018-08-24 00:46:28.807141",
    "country": "United States",
    "longitude": "-94.5932559",
    "latitude": "39.0544808",
    "tags": []
  },
  {
    "id": "kansas-city-bier-company",
    "name": "Kansas City Bier Company",
    "brewery_type": "micro",
    "street": "310 W 79th St",
    "city": "Kansas City",
    "state": "Missouri",
    "postal_code": "64114-1843",
    "website_url": "http://www.kcbier.com",
    "phone": "8162148691",
    "created_at": "2018-07-24 01:33:41.204476",
    "updated_at": "2018-08-24 00:46:32.11763",
    "country": "United States",
    "longitude": "-94.5936711937258",
    "latitude": "38.98548485",
    "tags": []
  },
  {
    "id": "martin-city-brewing-company",
    "name": "Martin City Brewing Company",
    "brewery_type": "micro",
    "street": "410 E 135th St",
    "city": "Kansas City",
    "state": "Missouri",
    "postal_code": "64145-1672",
    "website_url": "http://www.martincitybrewing.com",
    "phone": "8162682222",
    "created_at": "2018-07-24 01:33:41.320709",
    "updated_at": "2018-08-24 00:46:35.750095",
    "country": "United States",
    "longitude": "-94.590214",
    "latitude": "38.882691",
    "tags": []
  },
  {
    "id": "outlaw-cigar-/-gunslinger-saloon-brewing",
    "name": "Outlaw Cigar / Gunslinger Saloon Brewing",
    "brewery_type": "planning",
    "street": "",
    "city": "Kansas City",
    "state": "Missouri",
    "postal_code": "64151-2026",
    "website_url": "http://www.outlawcigar.com",
    "phone": "8165052442",
    "created_at": "2018-07-24 01:33:41.453441",
    "updated_at": "2018-08-11 21:38:08.706446",
    "country": "United States",
    "longitude": "",
    "latitude": "",
    "tags": []
  },
  {
    "id": "stockyards-brewing-company",
    "name": "Stockyards Brewing Company",
    "brewery_type": "micro",
    "street": "1600 Genessee St Ste 100",
    "city": "Kansas City",
    "state": "Missouri",
    "postal_code": "64102-1044",
    "website_url": "http://www.stockyardsbrewing.com",
    "phone": "8168958880",
    "created_at": "2018-07-24 01:33:41.753866",
    "updated_at": "2018-08-11 21:38:09.539",
    "country": "United States",
    "longitude": "",
    "latitude": "",
    "tags": []
  },
  {
    "id": "strange-days-brewing-company",
    "name": "Strange Days Brewing Company",
    "brewery_type": "micro",
    "street": "316 Oak St",
    "city": "Kansas City",
    "state": "Missouri",
    "postal_code": "64106",
    "website_url": "http://www.strangedaysbrewing.com",
    "phone": "9134336232",
    "created_at": "2018-07-24 01:33:41.778289",
    "updated_at": "2018-08-24 00:46:48.762839",
    "country": "United States",
    "longitude": "-94.5799451187632",
    "latitude": "39.1100614",
    "tags": []
  },
  {
    "id": "casual-animal",
    "name": "Casual Animal",
    "brewery_type": "micro",
    "street": "1725 McGee St",
    "city": "Kansas City",
    "state": "Missouri",
    "postal_code": "64108",
    "website_url": "http://www.casualanimalbrewing.com",
    "phone": "",
    "created_at": "2018-07-24 01:33:40.755166",
    "updated_at": "2018-08-24 00:46:18.439909",
    "country": "United States",
    "longitude": "-94.579773861354",
    "latitude": "39.0924045",
    "tags": []
  },
  {
    "id": "torn-label-brewing-company",
    "name": "Torn Label Brewing Company",
    "brewery_type": "micro",
    "street": "1708 Campbell St",
    "city": "Kansas City",
    "state": "Missouri",
    "postal_code": "64108-1524",
    "website_url": "http://www.tornlabel.com",
    "phone": "9136348001",
    "created_at": "2018-07-24 01:33:41.834506",
    "updated_at": "2018-08-24 00:46:50.807044",
    "country": "United States",
    "longitude": "-94.5731695",
    "latitude": "39.0926934",
    "tags": []
  }
]