[
  {
    "id": "brewery-in-planning-lees-summit",
    "name": "Brewery In Planning - Lees Summit",
    "brewery_type": "planning",
    "street": "",
    "city": "Lees Summit",
    "state": "Missouri",
    "postal_code": "64081",
    "website_url": "",
    "phone": "",
    "created_at": "2018-07-24 01:33:40.667222",
    "updated_at": "2018-08-11 21:38:06.947075",
    "country": "United States",
    "longitude": "",
    "latitude": "",
    "tags": []
  },
  {
    "id": "bards-brewery-llc",
    "name": "Bard's Brewery, LLC",
    "brewery_type": "proprietor",
    "street": "",
    "city": "Lees Summit",
    "state": "Missouri",
    "postal_code": "64063-0905",
    "website_url": "http://www.bardsbeer.com",
    "phone": "8167281707",
    "created_at": "2018-07-24 01:33:40.498854",
    "updated_at": "2018-08-11 21:38:06.632422",
    "country": "United States",
    "longitude": "",
    "latitude": "",
    "tags": []
  },
  {
    "id": "fringe-beerworks",
    "name": "Fringe Beerworks",
    "brewery_type": "micro",
    "street": "224 SE Douglas St",
    "city": "Lees Summit",
    "state": "Missouri",
    "postal_code": "64063-2329",
    "website_url": "http://www.fringebeerworks.com",
    "phone": "8166002552",
    "created_at": "2018-07-24 01:33:41.032783",
    "updated_at": "2018-08-24 00:46:26.852497",
    "country": "United States",
    "longitude": "-94.37672",
    "latitude": "38.913133",
    "tags": []
  },
  {
    "id": "smoke-brewing-company",
    "name": "Smoke Brewing Company",
    "brewery_type": "brewpub",
    "street": "209 SE Main St.",
    "city": "Lees Summit",
    "state": "Missouri",
    "postal_code": "64063",
    "website_url": "",
    "phone": "8165252337",
    "created_at": "2018-07-24 01:33:41.68808",
    "updated_at": "2018-08-24 00:46:46.069162",
    "country": "United States",
    "longitude": "-94.3780773877551",
    "latitude": "38.9133490408163",
    "tags": []
  }
]