[
  {
    "id": "anheuser-busch-inbev",
    "name": "Anheuser-Busch InBev",
    "brewery_type": "large",
    "street": "1 Busch Pl",
    "city": "Saint Louis",
    "state": "Missouri",
    "postal_code": "63118-1849",
    "website_url": "http://www.anheuser-busch.com",
    "phone": "3145772000",
    "created_at": "2018-07-24 01:33:40.443302",
    "updated_at": "2018-08-24 00:46:11.169028",
    "country": "United States",
    "longitude": "-90.2118998",
    "latitude": "38.5954536",
    "tags": []
  },
  {
    "id": "cathedral-square-brewery",
    "name": "Cathedral Square Brewery",
    "brewery_type": "contract",
    "street": "3914 Lindell Blvd",
    "city": "Saint Louis",
    "state": "Missouri",
    "postal_code": "63108-3204",
    "website_url": "http://www.cathedralsquarebrewery.com",
    "phone": "3148033605",
    "created_at": "2018-07-24 01:33:40.767826",
    "updated_at": "2018-08-24 00:46:18.98722",
    "country": "United States",
    "longitude": "-90.2439837",
    "latitude": "38.6394897",
    "tags": []
  },
  {
    "id": "griesedieck-brothers-brewery",
    "name": "Griesedieck Brothers Brewery",
    "brewery_type": "contract",
    "street": "1240 Switzer Ave",
    "city": "Saint Louis",
    "state": "Missouri",
    "postal_code": "63147-1840",
    "website_url": "http://www.gb-beer.com",
    "phone": "3143093210",
    "created_at": "2018-07-24 01:33:41.120931",
    "updated_at": "2018-08-24 00:46:29.773541",
    "country": "United States",
    "longitude": "-90.2349872112676",
    "latitude": "38.7090351126761",
    "tags": []
  },
  {
    "id": "morgan-street-brewery",
    "name": "Morgan Street Brewery",
    "brewery_type": "proprietor",
    "street": "721 N 2nd St",
    "city": "Saint Louis",
    "state": "Missouri",
    "postal_code": "63102-2518",
    "website_url": "http://www.morganstreetbrewery.com",
    "phone": "3142319970",
    "created_at": "2018-07-24 01:33:41.400899",
    "updated_at": "2018-08-24 00:46:38.691058",
    "country": "United States",
    "longitude": "-90.1846587143656",
    "latitude": "38.6303271900035",
    "tags": []
  },
  {
    "id": "brewery-in-planning-saint-louis",
    "name": "Brewery in Planning - Saint Louis",
    "brewery_type": "planning",
    "street": "",
    "city": "Saint Louis",
    "state": "Missouri",
    "postal_code": "63139",
    "website_url": "",
    "phone": "",
    "created_at": "2018-07-24 01:33:40.683006",
    "updated_at": "2018-08-11 21:38:06.977187",
    "country": "United States",
    "longitude": "",
    "latitude": "",
    "tags": []
  },
  {
    "id": "2nd-shift-brewing-co",
    "name": "2nd Shift Brewing Co",
    "brewery_type": "brewpub",
    "street": "1601 Sublette Ave",
    "city": "Saint Louis",
    "state": "Missouri",
    "postal_code": "63110-1924",
    "website_url": "http://www.2ndshiftbrewing.com",
    "phone": "6187910728",
    "created_at": "2018-07-24 01:33:40.368724",
    "updated_at": "2018-08-24 00:46:08.828559",
    "country": "United States",
    "longitude": "-90.280526",
    "latitude": "38.621943",
    "tags": []
  },
  {
    "id": "4-hands-brewing-co",
    "name": "4 Hands Brewing Co",
    "brewery_type": "regional",
    "street": "1220 S 8th St",
    "city": "Saint Louis",
    "state": "Missouri",
    "postal_code": "63104-3610",
    "website_url": "",
    "phone": "3144361559",
    "created_at": "2018-07-24 01:33:40.395171",
    "updated_at": "2018-08-24 00:46:09.804085",
    "country": "United States",
    "longitude": "-90.1976201185216",
    "latitude": "38.6152659288115",
    "tags": []
  },
  {
    "id": "alpha-brewing-co",
    "name": "Alpha Brewing Co.",
    "brewery_type": "micro",
    "street": "4310 Fyler Ave",
    "city": "Saint Louis",
    "state": "Missouri",
    "postal_code": "63116",
    "website_url": "http://www.alphabrewingcompany.com",
    "phone": "3146212337",
    "created_at": "2018-07-24 01:33:40.407547",
    "updated_at": "2018-08-24 00:46:10.26282",
    "country": "United States",
    "longitude": "-90.262368381847",
    "latitude": "38.5986181736597",
    "tags": []
  },
  {
    "id": "high-heel-brewing",
    "name": "High Heel Brewing",
    "brewery_type": "micro",
    "street": "5656 Oakland",
    "city": "Saint Louis",
    "state": "Missouri",
    "postal_code": "63110",
    "website_url": "http://highheelbrewing.com",
    "phone": "",
    "created_at": "2018-07-24 01:33:41.159688",
    "updated_at": "2018-08-11 21:38:08.061618",
    "country": "United States",
    "longitude": "",
    "latitude": "",
    "tags": []
  },
  {
    "id": "center-ice-brewing-company",
    "name": "Center Ice Brewing Company",
    "brewery_type": "micro",
    "street": "3126 Olive St.",
    "city": "Saint Louis",
    "state": "Missouri",
    "postal_code": "63103",
    "website_url": "http://www.centericebrewery.com",
    "phone": "3142779843",
    "created_at": "2018-07-24 01:33:40.780925",
    "updated_at": "2018-08-24 00:46:19.46483",
    "country": "United States",
    "longitude": "-90.2243063679217",
    "latitude": "38.6353000597984",
    "tags": []
  },
  {
    "id": "civil-life-brewing-company",
    "name": "Civil Life Brewing Company",
    "brewery_type": "brewpub",
    "street": "3714 Holt Ave",
    "city": "Saint Louis",
    "state": "Missouri",
    "postal_code": "63116-2614",
    "website_url": "http://www.thecivillife.com",
    "phone": "",
    "created_at": "2018-07-24 01:33:40.850311",
    "updated_at": "2018-08-24 00:46:20.86525",
    "country": "United States",
    "longitude": "-90.2580716468097",
    "latitude": "38.590897297562",
    "tags": []
  },
  {
    "id": "earthbound-beer",
    "name": "Earthbound Beer",
    "brewery_type": "brewpub",
    "street": "2724 Cherokee St",
    "city": "Saint Louis",
    "state": "Missouri",
    "postal_code": "63118-3036",
    "website_url": "http://www.earthboundbeer.com",
    "phone": "3147699576",
    "created_at": "2018-07-24 01:33:40.945766",
    "updated_at": "2018-08-24 00:46:24.436659",
    "country": "United States",
    "longitude": "-90.2286695871746",
    "latitude": "38.5935862955641",
    "tags": []
  },
  {
    "id": "ferguson-brewing-co",
    "name": "Ferguson Brewing Co",
    "brewery_type": "brewpub",
    "street": "418 S Florissant Rd",
    "city": "Saint Louis",
    "state": "Missouri",
    "postal_code": "63135-2716",
    "website_url": "http://www.fergusonbrewing.com",
    "phone": "3142547359",
    "created_at": "2018-07-24 01:33:40.985621",
    "updated_at": "2018-08-24 00:46:25.409102",
    "country": "United States",
    "longitude": "-90.3023163",
    "latitude": "38.7383895",
    "tags": []
  },
  {
    "id": "heavy-riff-brewing",
    "name": "Heavy Riff Brewing",
    "brewery_type": "brewpub",
    "street": "6413 Clayton Ave",
    "city": "Saint Louis",
    "state": "Missouri",
    "postal_code": "63139-3305",
    "website_url": "http://www.heavyriffbrwing.com",
    "phone": "3148286148",
    "created_at": "2018-07-24 01:33:41.145806",
    "updated_at": "2018-08-24 00:46:30.782271",
    "country": "United States",
    "longitude": "-90.2931003527612",
    "latitude": "38.6287165375178",
    "tags": []
  },
  {
    "id": "modern-brewery",
    "name": "Modern Brewery",
    "brewery_type": "micro",
    "street": "5231 Manchester Ave # E",
    "city": "Saint Louis",
    "state": "Missouri",
    "postal_code": "63110-2092",
    "website_url": "http://www.mb314.com",
    "phone": "",
    "created_at": "2018-07-24 01:33:41.38755",
    "updated_at": "2018-08-11 21:38:08.561645",
    "country": "United States",
    "longitude": "",
    "latitude": "",
    "tags": []
  },
  {
    "id": "perennial-artisan-ales",
    "name": "Perennial Artisan Ales",
    "brewery_type": "micro",
    "street": "8125 Michigan Ave Ste 116",
    "city": "Saint Louis",
    "state": "Missouri",
    "postal_code": "63111-3535",
    "website_url": "http://www.perennialbeer.com",
    "phone": "3146317300",
    "created_at": "2018-07-24 01:33:41.479739",
    "updated_at": "2018-08-11 21:38:08.764377",
    "country": "United States",
    "longitude": "",
    "latitude": "",
    "tags": []
  },
  {
    "id": "propagation-llc",
    "name": "Propagation LLC",
    "brewery_type": "planning",
    "street": "",
    "city": "Saint Louis",
    "state": "Missouri",
    "postal_code": "63104-2425",
    "website_url": "http://www.propagation.us",
    "phone": "",
    "created_at": "2018-07-24 01:33:41.543531",
    "updated_at": "2018-08-11 21:38:08.925139",
    "country": "United States",
    "longitude": "",
    "latitude": "",
    "tags": []
  },
  {
    "id": "rockwell-beer-company",
    "name": "Rockwell Beer Company",
    "brewery_type": "planning",
    "street": "",
    "city": "Saint Louis",
    "state": "Missouri",
    "postal_code": "63110",
    "website_url": "http://www.rockwellbeer.com",
    "phone": "3144094119",
    "created_at": "2018-07-24 01:33:41.618046",
    "updated_at": "2018-08-11 21:38:09.068682",
    "country": "United States",
    "longitude": "",
    "latitude": "",
    "tags": []
  },
  {
    "id": "schlafly-bottleworks",
    "name": "Schlafly Bottleworks",
    "brewery_type": "regional",
    "street": "1 Schlafly Plz",
    "city": "Saint Louis",
    "state": "Missouri",
    "postal_code": "63143-2454",
    "website_url": "http://www.schlafly.com",
    "phone": "3142412337",
    "created_at": "2018-07-24 01:33:41.644911",
    "updated_at": "2018-08-11 21:38:09.133926",
    "country": "United States",
    "longitude": "",
    "latitude": "",
    "tags": []
  },
  {
    "id": "schlafly-beer/the-saint-louis-brewery-llc",
    "name": "Schlafly Beer/The Saint Louis Brewery, LLC",
    "brewery_type": "regional",
    "street": "2100 Locust St",
    "city": "Saint Louis",
    "state": "Missouri",
    "postal_code": "63103-1616",
    "website_url": "http://www.schlafly.com",
    "phone": "3142412337",
    "created_at": "2018-07-24 01:33:41.630987",
    "updated_at": "2018-08-24 00:46:44.107208",
    "country": "United States",
    "longitude": "-90.2096942481772",
    "latitude": "38.63298865",
    "tags": []
  },
  {
    "id": "square-one-brewery-and-distillery",
    "name": "Square One Brewery and Distillery",
    "brewery_type": "brewpub",
    "street": "1727 Park Ave",
    "city": "Saint Louis",
    "state": "Missouri",
    "postal_code": "63104-2941",
    "website_url": "http://www.squareonebrewery.com",
    "phone": "3142312537",
    "created_at": "2018-07-24 01:33:41.725196",
    "updated_at": "2018-08-24 00:46:46.991552",
    "country": "United States",
    "longitude": "-90.2103947346939",
    "latitude": "38.616665",
    "tags": []
  },
  {
    "id": "urban-chestnut-brewing-co",
    "name": "Urban Chestnut Brewing Co",
    "brewery_type": "regional",
    "street": "4465 Manchester Ave",
    "city": "Saint Louis",
    "state": "Missouri",
    "postal_code": "63110-2113",
    "website_url": "",
    "phone": "",
    "created_at": "2018-07-24 01:33:41.878688",
    "updated_at": "2018-08-24 00:46:51.706178",
    "country": "United States",
    "longitude": "-90.261143",
    "latitude": "38.626662",
    "tags": []
  },
  {
    "id": "wellspent-brewing-company",
    "name": "Wellspent Brewing Company",
    "brewery_type": "micro",
    "street": "2917 Olive Street",
    "city": "Saint Louis",
    "state": "Missouri",
    "postal_code": "63103",
    "website_url": "http://www.wellspentbeer.com",
    "phone": "3143280505",
    "created_at": "2018-07-24 01:33:41.903899",
    "updated_at": "2018-08-24 00:46:52.571705",
    "country": "United States",
    "longitude": "-90.2207367589074",
    "latitude": "38.6348785",
    "tags": []
  },
  {
    "id": "william-k-busch-brewing-co",
    "name": "William K Busch Brewing Co.",
    "brewery_type": "contract",
    "street": "8047 Litzsinger Rd",
    "city": "Saint Louis",
    "state": "Missouri",
    "postal_code": "63144-2505",
    "website_url": "http://www.enjoykraftig.com",
    "phone": "3149327911",
    "created_at": "2018-07-24 01:33:41.971745",
    "updated_at": "2018-08-24 00:46:54.852479",
    "country": "United States",
    "longitude": "-90.3373344235294",
    "latitude": "38.6168771058824",
    "tags": []
  }
]