[
  {
    "id": "4-by-4-brewing-company",
    "name": "4 By 4 Brewing Company",
    "brewery_type": "micro",
    "street": "2811 E Galloway St Ste A",
    "city": "Springfield",
    "state": "Missouri",
    "postal_code": "65804-4601",
    "website_url": "http://www.4by4brewingcompany.com",
    "phone": "",
    "created_at": "2018-07-24 01:33:40.381456",
    "updated_at": "2018-08-11 21:38:06.401192",
    "country": "United States",
    "longitude": "",
    "latitude": "",
    "tags": []
  },
  {
    "id": "lost-signal-brewing-company",
    "name": "Lost Signal Brewing Company",
    "brewery_type": "brewpub",
    "street": "610 W College St",
    "city": "Springfield",
    "state": "Missouri",
    "postal_code": "65806-1240",
    "website_url": "http://www.lostsignalbrewing.com",
    "phone": "9723104162",
    "created_at": "2018-07-24 01:33:41.270138",
    "updated_at": "2018-08-24 00:46:34.300562",
    "country": "United States",
    "longitude": "-93.2974611",
    "latitude": "37.2085049",
    "tags": []
  },
  {
    "id": "mothers-brewing-co",
    "name": "Mother's Brewing Co",
    "brewery_type": "micro",
    "street": "215 S Grant Ave",
    "city": "Springfield",
    "state": "Missouri",
    "postal_code": "65806-2001",
    "website_url": "http://www.mothersbrewing.com",
    "phone": "4178620423",
    "created_at": "2018-07-24 01:33:41.414133",
    "updated_at": "2018-08-24 00:46:39.142247",
    "country": "United States",
    "longitude": "-93.2992828178406",
    "latitude": "37.20791735",
    "tags": []
  },
  {
    "id": "springfield-brewing-co",
    "name": "Springfield Brewing Co",
    "brewery_type": "brewpub",
    "street": "305 S Market Ave",
    "city": "Springfield",
    "state": "Missouri",
    "postal_code": "65806-2023",
    "website_url": "http://www.springfieldbrewingco.com",
    "phone": "4178328277",
    "created_at": "2018-07-24 01:33:41.712731",
    "updated_at": "2018-08-24 00:46:46.538293",
    "country": "United States",
    "longitude": "-93.295625",
    "latitude": "37.2077630266667",
    "tags": []
  },
  {
    "id": "tie-and-timber-beer-company",
    "name": "Tie and Timber Beer Company",
    "brewery_type": "micro",
    "street": "1459 E Cherry St",
    "city": "Springfield",
    "state": "Missouri",
    "postal_code": "65802-3356",
    "website_url": "",
    "phone": "7202814664",
    "created_at": "2018-07-24 01:33:41.807752",
    "updated_at": "2018-08-24 00:46:49.920147",
    "country": "United States",
    "longitude": "-93.2689605",
    "latitude": "37.2037898333333",
    "tags": []
  },
  {
    "id": "white-river-brewing-co",
    "name": "White River Brewing Co",
    "brewery_type": "micro",
    "street": "505 W Commercial St",
    "city": "Springfield",
    "state": "Missouri",
    "postal_code": "65803-2631",
    "website_url": "http://www.whiteriverbrewingco.com",
    "phone": "4178691366",
    "created_at": "2018-07-24 01:33:41.946469",
    "updated_at": "2018-08-24 00:46:53.882734",
    "country": "United States",
    "longitude": "-93.2954208453376",
    "latitude": "37.2296298",
    "tags": []
  }
]