[
  {
    "id": "ch-evans-brewing-co/albany-pump-station",
    "name": "CH Evans Brewing Co/Albany Pump Station",
    "brewery_type": "brewpub",
    "street": "19 Quackenbush Sq",
    "city": "Albany",
    "state": "New York",
    "postal_code": "12207-2311",
    "website_url": "http://www.evansale.com",
    "phone": "5184479000",
    "created_at": "2018-07-24 01:33:50.183291",
    "updated_at": "2018-08-11 21:38:32.24866",
    "country": "United States",
    "longitude": "",
    "latitude": "",
    "tags": []
  },
  {
    "id": "fort-orange-brewing",
    "name": "Fort Orange Brewing",
    "brewery_type": "micro",
    "street": "450 N Pearl St",
    "city": "Albany",
    "state": "New York",
    "postal_code": "12204-1511",
    "website_url": "http://www.fortorangebrewing.com",
    "phone": "5189923103",
    "created_at": "2018-07-24 01:33:51.0181",
    "updated_at": "2018-08-24 15:38:58.882264",
    "country": "United States",
    "longitude": "-73.74427",
    "latitude": "42.66372",
    "tags": []
  },
  {
    "id": "perfect-world-brewing-co",
    "name": "Perfect World Brewing Co",
    "brewery_type": "micro",
    "street": "1276 Broadway",
    "city": "Albany",
    "state": "New York",
    "postal_code": "12204-2623",
    "website_url": "http://www.facebook.com/PerfectWorldBrewing/",
    "phone": "",
    "created_at": "2018-07-24 01:33:52.794953",
    "updated_at": "2018-08-11 21:38:39.014333",
    "country": "United States",
    "longitude": "",
    "latitude": "",
    "tags": []
  },
  {
    "id": "steadfast-beer-co",
    "name": "Steadfast Beer Co",
    "brewery_type": "contract",
    "street": "1756 Western Ave Rear",
    "city": "Albany",
    "state": "New York",
    "postal_code": "12203-4414",
    "website_url": "http://www.steadfastbeer.com",
    "phone": "",
    "created_at": "2018-07-24 01:33:53.755472",
    "updated_at": "2018-08-11 21:38:41.873268",
    "country": "United States",
    "longitude": "",
    "latitude": "",
    "tags": []
  }
]