[
  {
    "id": "destination-unknown-beer-company",
    "name": "Destination Unknown Beer Company",
    "brewery_type": "micro",
    "street": "1 S Chicago Ave Unit C",
    "city": "Bay Shore",
    "state": "New York",
    "postal_code": "11706-7000",
    "website_url": "http://www.destinationunknownbeercompany.com",
    "phone": "6314852232",
    "created_at": "2018-07-24 01:33:50.559294",
    "updated_at": "2018-08-11 21:38:33.249284",
    "country": "United States",
    "longitude": "",
    "latitude": "",
    "tags": []
  },
  {
    "id": "fire-island-beer-co",
    "name": "Fire Island Beer Co",
    "brewery_type": "micro",
    "street": "25 Drexel Dr",
    "city": "Bay Shore",
    "state": "New York",
    "postal_code": "11706-2234",
    "website_url": "http://www.fireislandbeer.com",
    "phone": "",
    "created_at": "2018-07-24 01:33:50.886833",
    "updated_at": "2018-08-11 21:38:34.04491",
    "country": "United States",
    "longitude": "",
    "latitude": "",
    "tags": []
  },
  {
    "id": "great-south-bay-brewery",
    "name": "Great South Bay Brewery",
    "brewery_type": "micro",
    "street": "25 Drexel Dr",
    "city": "Bay Shore",
    "state": "New York",
    "postal_code": "11706-2234",
    "website_url": "http://www.greatsouthbaybrewery.com",
    "phone": "6313928472",
    "created_at": "2018-07-24 01:33:51.367992",
    "updated_at": "2018-08-11 21:38:35.286686",
    "country": "United States",
    "longitude": "",
    "latitude": "",
    "tags": []
  },
  {
    "id": "the-brewers-collective",
    "name": "The Brewers Collective",
    "brewery_type": "micro",
    "street": "1460 N Clinton Ave Unit N",
    "city": "Bay Shore",
    "state": "New York",
    "postal_code": "11706-4058",
    "website_url": "http://www.thebrewerscollective.com",
    "phone": "6316659000",
    "created_at": "2018-07-24 01:33:53.976299",
    "updated_at": "2018-08-11 21:38:42.366013",
    "country": "United States",
    "longitude": "",
    "latitude": "",
    "tags": []
  }
]