[
  {
    "id": "gun-hill-brewing-co",
    "name": "Gun Hill Brewing Co",
    "brewery_type": "micro",
    "street": "3227 Laconia Ave",
    "city": "Bronx",
    "state": "New York",
    "postal_code": "10469-1403",
    "website_url": "http://www.gunhillbrewing.com",
    "phone": "7188810010",
    "created_at": "2018-07-24 01:33:51.465706",
    "updated_at": "2018-08-24 15:39:13.763566",
    "country": "United States",
    "longitude": "-73.855814",
    "latitude": "40.8721114",
    "tags": []
  },
  {
    "id": "dyckman-beer-co",
    "name": "Dyckman Beer Co",
    "brewery_type": "contract",
    "street": "",
    "city": "Bronx",
    "state": "New York",
    "postal_code": "10451",
    "website_url": "http://www.dyckmanbeerco.com",
    "phone": "",
    "created_at": "2018-07-24 01:33:50.637972",
    "updated_at": "2018-08-11 21:38:33.462842",
    "country": "United States",
    "longitude": "",
    "latitude": "",
    "tags": []
  },
  {
    "id": "chelsea-craft-brewing-co-llc",
    "name": "Chelsea Craft Brewing Co Llc",
    "brewery_type": "micro",
    "street": "463 E 173rd St",
    "city": "Bronx",
    "state": "New York",
    "postal_code": "10457-8105",
    "website_url": "http://www.chelseacraftbrewing.com",
    "phone": "7184848850",
    "created_at": "2018-07-24 01:33:50.208348",
    "updated_at": "2018-08-24 15:38:29.701716",
    "country": "United States",
    "longitude": "-73.9015282",
    "latitude": "40.841904",
    "tags": []
  },
  {
    "id": "the-bronx-brewery",
    "name": "The Bronx Brewery",
    "brewery_type": "micro",
    "street": "856 E 136th St",
    "city": "Bronx",
    "state": "New York",
    "postal_code": "10454-3509",
    "website_url": "http://www.thebronxbrewery.com",
    "phone": "7184021000",
    "created_at": "2018-07-24 01:33:54.01661",
    "updated_at": "2018-08-24 15:40:32.14814",
    "country": "United States",
    "longitude": "-73.9106405393459",
    "latitude": "40.801861",
    "tags": []
  }
]