[
  {
    "id": "greenpoint-beer",
    "name": "Greenpoint Beer",
    "brewery_type": "brewpub",
    "street": "7 N 15th St",
    "city": "Brooklyn",
    "state": "New York",
    "postal_code": "11222-2838",
    "website_url": "http://www.greenpointbeer.com",
    "phone": "9177501541",
    "created_at": "2018-07-24 01:33:51.393626",
    "updated_at": "2018-08-24 15:39:11.282332",
    "country": "United States",
    "longitude": "-73.9960761707317",
    "latitude": "40.6689340731707",
    "tags": []
  },
  {
    "id": "other-half-brewing-company",
    "name": "Other Half Brewing Company",
    "brewery_type": "micro",
    "street": "195 Centre St",
    "city": "Brooklyn",
    "state": "New York",
    "postal_code": "11231-3907",
    "website_url": "",
    "phone": "",
    "created_at": "2018-07-24 01:33:52.674357",
    "updated_at": "2018-08-24 15:39:50.89395",
    "country": "United States",
    "longitude": "-73.9991264",
    "latitude": "40.6737903",
    "tags": []
  },
  {
    "id": "braven-brewing-company",
    "name": "Braven Brewing Company",
    "brewery_type": "planning",
    "street": "",
    "city": "Brooklyn",
    "state": "New York",
    "postal_code": "11237",
    "website_url": "",
    "phone": "9292956673",
    "created_at": "2018-07-24 01:33:49.597961",
    "updated_at": "2018-08-11 21:38:30.940519",
    "country": "United States",
    "longitude": "",
    "latitude": "",
    "tags": []
  },
  {
    "id": "brewery-in-planning-brooklyn",
    "name": "Brewery In Planning - Brooklyn",
    "brewery_type": "planning",
    "street": "",
    "city": "Brooklyn",
    "state": "New York",
    "postal_code": "11216",
    "website_url": "",
    "phone": "",
    "created_at": "2018-07-24 01:33:49.649932",
    "updated_at": "2018-08-11 21:38:31.071854",
    "country": "United States",
    "longitude": "",
    "latitude": "",
    "tags": []
  },
  {
    "id": "brewery-in-planning-brooklyn",
    "name": "Brewery in Planning - Brooklyn",
    "brewery_type": "planning",
    "street": "",
    "city": "Brooklyn",
    "state": "New York",
    "postal_code": "11225",
    "website_url": "",
    "phone": "9042288611",
    "created_at": "2018-07-24 01:33:49.662164",
    "updated_at": "2018-08-11 21:38:31.098965",
    "country": "United States",
    "longitude": "",
    "latitude": "",
    "tags": []
  },
  {
    "id": "brooklyn-brewery",
    "name": "Brooklyn Brewery",
    "brewery_type": "regional",
    "street": "79 N 11th St #1 Brewers Row",
    "city": "Brooklyn",
    "state": "New York",
    "postal_code": "11249-1913",
    "website_url": "http://www.brooklynbrewery.com",
    "phone": "7184867422",
    "created_at": "2018-07-24 01:33:49.923798",
    "updated_at": "2018-08-11 21:38:31.696674",
    "country": "United States",
    "longitude": "",
    "latitude": "",
    "tags": []
  },
  {
    "id": "braven-brewing-company",
    "name": "Braven Brewing Company",
    "brewery_type": "contract",
    "street": "362 Jefferson St # 320",
    "city": "Brooklyn",
    "state": "New York",
    "postal_code": "11237-2312",
    "website_url": "http://www.bravenbrewing.com",
    "phone": "9292956673",
    "created_at": "2018-07-24 01:33:49.61067",
    "updated_at": "2018-08-24 15:38:15.913797",
    "country": "United States",
    "longitude": "-73.9246472479148",
    "latitude": "40.70559895",
    "tags": []
  },
  {
    "id": "circa-brewing-co",
    "name": "Circa Brewing Co",
    "brewery_type": "brewpub",
    "street": "141 Lawrence St",
    "city": "Brooklyn",
    "state": "New York",
    "postal_code": "11201",
    "website_url": "http://www.circabrewing.co",
    "phone": "7188580055",
    "created_at": "2018-07-24 01:33:50.232882",
    "updated_at": "2018-08-24 15:38:30.318863",
    "country": "United States",
    "longitude": "-73.986155",
    "latitude": "40.6917243",
    "tags": []
  },
  {
    "id": "coney-island-beer",
    "name": "Coney Island Beer",
    "brewery_type": "micro",
    "street": "1904 Surf Ave",
    "city": "Brooklyn",
    "state": "New York",
    "postal_code": "11224-2410",
    "website_url": "http://www.coneyislandbeer.com",
    "phone": "8184518452",
    "created_at": "2018-07-24 01:33:50.322077",
    "updated_at": "2018-08-24 15:38:33.218874",
    "country": "United States",
    "longitude": "-73.9857236734694",
    "latitude": "40.5750266122449",
    "tags": []
  },
  {
    "id": "four-beasts-brewery",
    "name": "Four Beasts Brewery",
    "brewery_type": "planning",
    "street": "",
    "city": "Brooklyn",
    "state": "New York",
    "postal_code": "11215-2305",
    "website_url": "",
    "phone": "3478863834",
    "created_at": "2018-07-24 01:33:51.031684",
    "updated_at": "2018-08-11 21:38:34.457642",
    "country": "United States",
    "longitude": "",
    "latitude": "",
    "tags": []
  },
  {
    "id": "five-boroughs-brewing-co",
    "name": "Five Boroughs Brewing Co",
    "brewery_type": "micro",
    "street": "215 47th St",
    "city": "Brooklyn",
    "state": "New York",
    "postal_code": "11220-1009",
    "website_url": "http://www.fiveboroughs.com",
    "phone": "7183558575",
    "created_at": "2018-07-24 01:33:50.912522",
    "updated_at": "2018-08-24 15:38:55.140108",
    "country": "United States",
    "longitude": "-74.0144263",
    "latitude": "40.6505216",
    "tags": []
  },
  {
    "id": "folksbier",
    "name": "Folksbier",
    "brewery_type": "regional",
    "street": "101 Luquer St # 103",
    "city": "Brooklyn",
    "state": "New York",
    "postal_code": "11231-3308",
    "website_url": "http://www.folksbier.com",
    "phone": "",
    "created_at": "2018-07-24 01:33:50.978886",
    "updated_at": "2018-08-24 15:38:57.711969",
    "country": "United States",
    "longitude": "-74.000991320918",
    "latitude": "40.6779358003061",
    "tags": []
  },
  {
    "id": "grimm-artisanal-ales",
    "name": "Grimm Artisanal Ales",
    "brewery_type": "micro",
    "street": "990 Metropolitan Ave",
    "city": "Brooklyn",
    "state": "New York",
    "postal_code": "11211-2607",
    "website_url": "http://GrimmAles.com",
    "phone": "",
    "created_at": "2018-07-24 01:33:51.436968",
    "updated_at": "2018-08-24 15:39:12.814867",
    "country": "United States",
    "longitude": "-73.9365191088872",
    "latitude": "40.7142757",
    "tags": []
  },
  {
    "id": "interboro-spirits-and-ales",
    "name": "Interboro Spirits And Ales",
    "brewery_type": "brewpub",
    "street": "942 Grand St",
    "city": "Brooklyn",
    "state": "New York",
    "postal_code": "11211-2707",
    "website_url": "http://www.interboro.nyc",
    "phone": "6462455417",
    "created_at": "2018-07-24 01:33:51.789395",
    "updated_at": "2018-08-24 15:39:24.159166",
    "country": "United States",
    "longitude": "-73.9369567",
    "latitude": "40.7126813",
    "tags": []
  },
  {
    "id": "island-to-island-brewery",
    "name": "Island To Island Brewery",
    "brewery_type": "brewpub",
    "street": "642 Rogers Ave",
    "city": "Brooklyn",
    "state": "New York",
    "postal_code": "11226-1502",
    "website_url": "http://www.islandtoislandbrewery.com",
    "phone": "3479741985",
    "created_at": "2018-07-24 01:33:51.850281",
    "updated_at": "2018-08-24 15:39:26.247835",
    "country": "United States",
    "longitude": "-73.9532599519667",
    "latitude": "40.6558144",
    "tags": []
  },
  {
    "id": "keg-and-lantern-brewing-co",
    "name": "Keg & Lantern Brewing Co",
    "brewery_type": "brewpub",
    "street": "97 Nassau Ave",
    "city": "Brooklyn",
    "state": "New York",
    "postal_code": "11222-3081",
    "website_url": "http://www.kegandlanternbrooklyn.com",
    "phone": "7183895050",
    "created_at": "2018-07-24 01:33:51.950862",
    "updated_at": "2018-08-24 15:39:28.633839",
    "country": "United States",
    "longitude": "-73.9503196323481",
    "latitude": "40.7241037",
    "tags": []
  },
  {
    "id": "kelso-beer-company",
    "name": "KelSo Beer Company",
    "brewery_type": "contract",
    "street": "529 Waverly Ave",
    "city": "Brooklyn",
    "state": "New York",
    "postal_code": "11238-2701",
    "website_url": "http://www.kelsoofbrooklyn.com",
    "phone": "",
    "created_at": "2018-07-24 01:33:51.969747",
    "updated_at": "2018-08-24 15:39:29.273296",
    "country": "United States",
    "longitude": "-73.96564",
    "latitude": "40.6826758571429",
    "tags": []
  },
  {
    "id": "kings-county-brewers-collective",
    "name": "Kings County Brewers Collective",
    "brewery_type": "micro",
    "street": "381 Troutman St",
    "city": "Brooklyn",
    "state": "New York",
    "postal_code": "11237-2613",
    "website_url": "http://www.kcbcbeer.com",
    "phone": "7182882891",
    "created_at": "2018-07-24 01:33:52.018659",
    "updated_at": "2018-08-24 15:39:31.303748",
    "country": "United States",
    "longitude": "-73.9236202",
    "latitude": "40.7060306",
    "tags": []
  },
  {
    "id": "lineup-brewing-llc",
    "name": "Lineup Brewing LLC",
    "brewery_type": "micro",
    "street": "33 35th St Unit 6A",
    "city": "Brooklyn",
    "state": "New York",
    "postal_code": "11232-2210",
    "website_url": "http://www.lineupbrewing.com",
    "phone": "7204222053",
    "created_at": "2018-07-24 01:33:52.193357",
    "updated_at": "2018-08-11 21:38:37.263639",
    "country": "United States",
    "longitude": "",
    "latitude": "",
    "tags": []
  },
  {
    "id": "randolph-beer-dumbo",
    "name": "Randolph Beer Dumbo",
    "brewery_type": "brewpub",
    "street": "77 Sands St",
    "city": "Brooklyn",
    "state": "New York",
    "postal_code": "11201-1431",
    "website_url": "http://www.randolphbeer.com",
    "phone": "7182983331",
    "created_at": "2018-07-24 01:33:52.970035",
    "updated_at": "2018-08-24 15:39:59.702693",
    "country": "United States",
    "longitude": "-73.987503",
    "latitude": "40.7000550909091",
    "tags": []
  },
  {
    "id": "sakebrooklyn-brewing-co-llc",
    "name": "SakeBrooklyn Brewing Co., LLC",
    "brewery_type": "planning",
    "street": "",
    "city": "Brooklyn",
    "state": "New York",
    "postal_code": "11237-5263",
    "website_url": "http://www.sakebrooklyn.com",
    "phone": "9294007253",
    "created_at": "2018-07-24 01:33:53.350467",
    "updated_at": "2018-08-11 21:38:40.686953",
    "country": "United States",
    "longitude": "",
    "latitude": "",
    "tags": []
  },
  {
    "id": "sweet-thursday-beer-co",
    "name": "Sweet Thursday Beer Co",
    "brewery_type": "planning",
    "street": "",
    "city": "Brooklyn",
    "state": "New York",
    "postal_code": "11215-6020",
    "website_url": "http://www.sweetthursdaybeer.com",
    "phone": "9176133980",
    "created_at": "2018-07-24 01:33:53.9117",
    "updated_at": "2018-08-11 21:38:42.2105",
    "country": "United States",
    "longitude": "",
    "latitude": "",
    "tags": []
  },
  {
    "id": "sixpoint-brewery",
    "name": "Sixpoint Brewery",
    "brewery_type": "regional",
    "street": "40 Van Dyke St",
    "city": "Brooklyn",
    "state": "New York",
    "postal_code": "11231-1529",
    "website_url": "http://www.sixpoint.com",
    "phone": "3472278676",
    "created_at": "2018-07-24 01:33:53.611315",
    "updated_at": "2018-08-24 15:40:21.031173",
    "country": "United States",
    "longitude": "-74.0119176109705",
    "latitude": "40.67397255",
    "tags": []
  },
  {
    "id": "strong-rope-brewery",
    "name": "Strong Rope Brewery",
    "brewery_type": "micro",
    "street": "574A President St",
    "city": "Brooklyn",
    "state": "New York",
    "postal_code": "11215-1019",
    "website_url": "http://www.strongropebrewery.com",
    "phone": "5857033010",
    "created_at": "2018-07-24 01:33:53.804978",
    "updated_at": "2018-08-24 15:40:26.97971",
    "country": "United States",
    "longitude": "-73.9840898",
    "latitude": "40.6769023",
    "tags": []
  },
  {
    "id": "the-food-works",
    "name": "The Food Works",
    "brewery_type": "planning",
    "street": "",
    "city": "Brooklyn",
    "state": "New York",
    "postal_code": "11206",
    "website_url": "http://www.thefoodworks.com",
    "phone": "6178512133",
    "created_at": "2018-07-24 01:33:54.041447",
    "updated_at": "2018-08-11 21:38:42.525165",
    "country": "United States",
    "longitude": "",
    "latitude": "",
    "tags": []
  },
  {
    "id": "war-flag-brewing-co",
    "name": "War Flag Brewing Co",
    "brewery_type": "proprietor",
    "street": "649 Morgan Ave Ste B16-5",
    "city": "Brooklyn",
    "state": "New York",
    "postal_code": "11222-3940",
    "website_url": "http://www.warflag.nyc",
    "phone": "6466968096",
    "created_at": "2018-07-24 01:33:54.404754",
    "updated_at": "2018-08-11 21:38:43.498283",
    "country": "United States",
    "longitude": "",
    "latitude": "",
    "tags": []
  },
  {
    "id": "wartega",
    "name": "Wartega",
    "brewery_type": "micro",
    "street": "33 35th St Unit 6A",
    "city": "Brooklyn",
    "state": "New York",
    "postal_code": "11232-2210",
    "website_url": "http://www.wartega.com",
    "phone": "9173971171",
    "created_at": "2018-07-24 01:33:54.429601",
    "updated_at": "2018-08-11 21:38:43.579063",
    "country": "United States",
    "longitude": "",
    "latitude": "",
    "tags": []
  },
  {
    "id": "threes-brewing",
    "name": "Threes Brewing",
    "brewery_type": "micro",
    "street": "333 Douglass St",
    "city": "Brooklyn",
    "state": "New York",
    "postal_code": "11217-3115",
    "website_url": "http://www.threesbrewing.com",
    "phone": "7185222110",
    "created_at": "2018-07-24 01:33:54.169933",
    "updated_at": "2018-08-24 15:40:37.938982",
    "country": "United States",
    "longitude": "-73.9821529",
    "latitude": "40.6798144",
    "tags": []
  },
  {
    "id": "wild-east-brewing-co",
    "name": "Wild East Brewing Co.",
    "brewery_type": "planning",
    "street": "",
    "city": "Brooklyn",
    "state": "New York",
    "postal_code": "11215-5511",
    "website_url": "http://www.wildeastbrewing.com",
    "phone": "",
    "created_at": "2018-07-24 01:33:54.535489",
    "updated_at": "2018-08-11 21:38:43.824606",
    "country": "United States",
    "longitude": "",
    "latitude": "",
    "tags": []
  }
]