[
  {
    "id": "flying-bison-brewing-co",
    "name": "Flying Bison Brewing Co",
    "brewery_type": "micro",
    "street": "840 Seneca St",
    "city": "Buffalo",
    "state": "New York",
    "postal_code": "14210-1414",
    "website_url": "http://www.flyingbisonbrewing.com",
    "phone": "7168731557",
    "created_at": "2018-07-24 01:33:50.965769",
    "updated_at": "2018-08-24 15:38:57.237782",
    "country": "United States",
    "longitude": "-78.8458326",
    "latitude": "42.8758185",
    "tags": []
  },
  {
    "id": "lafayette-brewing-co",
    "name": "Lafayette Brewing Co",
    "brewery_type": "brewpub",
    "street": "391 Washington St",
    "city": "Buffalo",
    "state": "New York",
    "postal_code": "14203-2108",
    "website_url": "http://www.panamericangrill.com",
    "phone": "7168560062",
    "created_at": "2018-07-24 01:33:52.069722",
    "updated_at": "2018-08-24 15:39:32.439081",
    "country": "United States",
    "longitude": "-78.8734526",
    "latitude": "42.8847967",
    "tags": []
  },
  {
    "id": "pressure-drop-brewing",
    "name": "Pressure Drop Brewing",
    "brewery_type": "micro",
    "street": "65 Vandalia St",
    "city": "Buffalo",
    "state": "New York",
    "postal_code": "14204-2739",
    "website_url": "http://www.barrelfactory.com",
    "phone": "7168489942",
    "created_at": "2018-07-24 01:33:52.870598",
    "updated_at": "2018-08-24 15:39:56.430191",
    "country": "United States",
    "longitude": "-78.8610373891982",
    "latitude": "42.8664042099108",
    "tags": []
  },
  {
    "id": "big-ditch-brewing-company",
    "name": "Big Ditch Brewing Company",
    "brewery_type": "micro",
    "street": "55 E Huron St",
    "city": "Buffalo",
    "state": "New York",
    "postal_code": "14203-1632",
    "website_url": "http://www.bigditchbrewing.com",
    "phone": "7168545050",
    "created_at": "2018-07-24 01:33:49.380439",
    "updated_at": "2018-08-24 15:38:08.240735",
    "country": "United States",
    "longitude": "-78.8709352",
    "latitude": "42.888031",
    "tags": []
  },
  {
    "id": "buffalo-brewing-company",
    "name": "Buffalo Brewing Company",
    "brewery_type": "micro",
    "street": "314 Myrtle Ave",
    "city": "Buffalo",
    "state": "New York",
    "postal_code": "14204-2058",
    "website_url": "http://www.buffalo-brewing-company.com",
    "phone": "7168682218",
    "created_at": "2018-07-24 01:33:49.968201",
    "updated_at": "2018-08-24 15:38:22.018536",
    "country": "United States",
    "longitude": "-78.859688353651",
    "latitude": "42.8785126415884",
    "tags": []
  },
  {
    "id": "buffalo-brewpub",
    "name": "Buffalo Brewpub",
    "brewery_type": "brewpub",
    "street": "6861 Main St",
    "city": "Buffalo",
    "state": "New York",
    "postal_code": "14221-5929",
    "website_url": "http://www.buffalobrewpub.com",
    "phone": "7166320552",
    "created_at": "2018-07-24 01:33:49.981978",
    "updated_at": "2018-08-24 15:38:22.658374",
    "country": "United States",
    "longitude": "-78.831057",
    "latitude": "42.946564",
    "tags": []
  },
  {
    "id": "buffalo-riverworks-brewery",
    "name": "Buffalo RiverWorks Brewery",
    "brewery_type": "brewpub",
    "street": "359 Ganson St",
    "city": "Buffalo",
    "state": "New York",
    "postal_code": "14203-3062",
    "website_url": "http://www.buffaloriverworks.com",
    "phone": "7163422292",
    "created_at": "2018-07-24 01:33:49.995269",
    "updated_at": "2018-08-24 15:38:23.118609",
    "country": "United States",
    "longitude": "-78.8724929203751",
    "latitude": "42.8696795",
    "tags": []
  },
  {
    "id": "community-beer-works",
    "name": "Community Beer Works",
    "brewery_type": "micro",
    "street": "15 Lafayette Ave",
    "city": "Buffalo",
    "state": "New York",
    "postal_code": "14213-1344",
    "website_url": "http://www.communitybeerworks.com",
    "phone": "7167594677",
    "created_at": "2018-07-24 01:33:50.309921",
    "updated_at": "2018-08-24 15:38:32.715107",
    "country": "United States",
    "longitude": "-78.8980696953437",
    "latitude": "42.9198446",
    "tags": []
  },
  {
    "id": "gene-mccarthys/old-first-ward-brewing-company",
    "name": "Gene McCarthy's/Old First Ward Brewing Company",
    "brewery_type": "brewpub",
    "street": "73 Hamburg St",
    "city": "Buffalo",
    "state": "New York",
    "postal_code": "14204-2719",
    "website_url": "http://www.genemccarthys.com",
    "phone": "7168558948",
    "created_at": "2018-07-24 01:33:51.207312",
    "updated_at": "2018-08-24 15:39:04.971388",
    "country": "United States",
    "longitude": "-78.859577227514",
    "latitude": "42.8665407488525",
    "tags": []
  },
  {
    "id": "hofbrauhaus-buffalo",
    "name": "Hofbrauhaus Buffalo",
    "brewery_type": "planning",
    "street": "",
    "city": "Buffalo",
    "state": "New York",
    "postal_code": "14221-4616",
    "website_url": "http://www.facebook.com/Hofbrauhaus-Buffalo-476335022466386/",
    "phone": "7165631781",
    "created_at": "2018-07-24 01:33:51.626719",
    "updated_at": "2018-08-11 21:38:35.995407",
    "country": "United States",
    "longitude": "",
    "latitude": "",
    "tags": []
  },
  {
    "id": "resurgence-brewing-company",
    "name": "Resurgence Brewing Company",
    "brewery_type": "brewpub",
    "street": "1250 Niagara St",
    "city": "Buffalo",
    "state": "New York",
    "postal_code": "14213-1502",
    "website_url": "http://www.resurgencebrewing.com",
    "phone": "7163819868",
    "created_at": "2018-07-24 01:33:53.065924",
    "updated_at": "2018-08-24 15:40:03.204491",
    "country": "United States",
    "longitude": "-78.899599557026",
    "latitude": "42.91822725",
    "tags": []
  },
  {
    "id": "rusty-nickel-brewing-co",
    "name": "Rusty Nickel Brewing Co.",
    "brewery_type": "brewpub",
    "street": "4350 Seneca St",
    "city": "Buffalo",
    "state": "New York",
    "postal_code": "14224-3169",
    "website_url": "http://www.rustynickelbrewing.com",
    "phone": "7166086155",
    "created_at": "2018-07-24 01:33:53.269651",
    "updated_at": "2018-08-24 15:40:09.483458",
    "country": "United States",
    "longitude": "-78.851031",
    "latitude": "42.876243",
    "tags": []
  },
  {
    "id": "thin-man-brewery",
    "name": "Thin Man Brewery",
    "brewery_type": "brewpub",
    "street": "486 Elmwood Ave",
    "city": "Buffalo",
    "state": "New York",
    "postal_code": "14222-2014",
    "website_url": "http://www.thinmanbrewery.com",
    "phone": "7169234100",
    "created_at": "2018-07-24 01:33:54.118013",
    "updated_at": "2018-08-24 15:40:35.842109",
    "country": "United States",
    "longitude": "-78.8772028461538",
    "latitude": "42.9103781538462",
    "tags": []
  },
  {
    "id": "wooden-skiff-beer-co",
    "name": "Wooden Skiff Beer Co.",
    "brewery_type": "contract",
    "street": "",
    "city": "Buffalo",
    "state": "New York",
    "postal_code": "14216-3611",
    "website_url": "http://www.woodenskiff.com",
    "phone": "7062285064",
    "created_at": "2018-07-24 01:33:54.648066",
    "updated_at": "2018-08-11 21:38:44.089086",
    "country": "United States",
    "longitude": "",
    "latitude": "",
    "tags": []
  },
  {
    "id": "pearl-street-grill-and-brewery",
    "name": "Pearl Street Grill and Brewery",
    "brewery_type": "brewpub",
    "street": "76 Pearl St",
    "city": "Buffalo",
    "state": "New York",
    "postal_code": "14202-4106",
    "website_url": "http://www.pearlstreetgrill.com",
    "phone": "7168562337",
    "created_at": "2018-07-24 01:33:52.770519",
    "updated_at": "2018-08-24 15:39:53.21134",
    "country": "United States",
    "longitude": "-78.8772254446644",
    "latitude": "42.881057594089",
    "tags": []
  },
  {
    "id": "sato-brewpub",
    "name": "Sato Brewpub",
    "brewery_type": "brewpub",
    "street": "110 Pearl St",
    "city": "Buffalo",
    "state": "New York",
    "postal_code": "14202-4125",
    "website_url": "http://www.satobrewpub.com",
    "phone": "7162481436",
    "created_at": "2018-07-24 01:33:53.407347",
    "updated_at": "2018-08-24 15:40:13.530709",
    "country": "United States",
    "longitude": "-78.8769397130505",
    "latitude": "42.8818614620053",
    "tags": []
  }
]