[
  {
    "id": "peacemaker-brewing-company",
    "name": "Peacemaker Brewing Company",
    "brewery_type": "micro",
    "street": "20 Pleasant St",
    "city": "Canandaigua",
    "state": "New York",
    "postal_code": "14424-2047",
    "website_url": "http://www.peacemakerbrewing.com",
    "phone": "5853963561",
    "created_at": "2018-07-24 01:33:52.758651",
    "updated_at": "2018-08-24 15:39:52.762427",
    "country": "United States",
    "longitude": "-77.2786605528567",
    "latitude": "42.8885116497367",
    "tags": []
  },
  {
    "id": "three-huskies-brewing-and-dobbers-grill",
    "name": "Three Huskies Brewing & Dobber's Grill",
    "brewery_type": "brewpub",
    "street": "401 Lakeshore Dr",
    "city": "Canandaigua",
    "state": "New York",
    "postal_code": "14424-2338",
    "website_url": "http://www.threehuskiesbrewing.com",
    "phone": "5852603530",
    "created_at": "2018-07-24 01:33:54.15643",
    "updated_at": "2018-08-24 15:40:37.412862",
    "country": "United States",
    "longitude": "-77.251124",
    "latitude": "42.8723885",
    "tags": []
  },
  {
    "id": "lincoln-hill-farm",
    "name": "Lincoln Hill Farm",
    "brewery_type": "planning",
    "street": "",
    "city": "Canandaigua",
    "state": "New York",
    "postal_code": "14424-8826",
    "website_url": "http://www.fingerlakingood.farm",
    "phone": "5857529466",
    "created_at": "2018-07-24 01:33:52.178233",
    "updated_at": "2018-08-11 21:38:37.227708",
    "country": "United States",
    "longitude": "",
    "latitude": "",
    "tags": []
  },
  {
    "id": "naked-dove-brewing-company",
    "name": "Naked Dove Brewing Company",
    "brewery_type": "micro",
    "street": "4048 State Route 5 and 20",
    "city": "Canandaigua",
    "state": "New York",
    "postal_code": "14424-9591",
    "website_url": "http://www.nakeddovebrewing.com",
    "phone": "5853962537",
    "created_at": "2018-07-24 01:33:52.527078",
    "updated_at": "2018-08-11 21:38:38.262148",
    "country": "United States",
    "longitude": "",
    "latitude": "",
    "tags": []
  },
  {
    "id": "twisted-rail-brewing-company",
    "name": "Twisted Rail Brewing Company",
    "brewery_type": "micro",
    "street": "169 Lakeshore Dr",
    "city": "Canandaigua",
    "state": "New York",
    "postal_code": "14424-2309",
    "website_url": "http://www.twistedrailbrewing.com",
    "phone": "5853960683",
    "created_at": "2018-07-24 01:33:54.283422",
    "updated_at": "2018-08-24 15:40:42.183104",
    "country": "United States",
    "longitude": "-77.262436",
    "latitude": "42.87507",
    "tags": []
  },
  {
    "id": "young-lion-brewing-co",
    "name": "Young Lion Brewing Co",
    "brewery_type": "micro",
    "street": "24 Lakeshore Dr",
    "city": "Canandaigua",
    "state": "New York",
    "postal_code": "14424-2333",
    "website_url": "http://www.younglionbrewing.com",
    "phone": "5852034337",
    "created_at": "2018-07-24 01:33:54.724596",
    "updated_at": "2018-08-24 15:40:55.316451",
    "country": "United States",
    "longitude": "-77.2693899497183",
    "latitude": "42.8756096723289",
    "tags": []
  }
]