[
  {
    "id": "careys-brew-house",
    "name": "Carey's Brew House",
    "brewery_type": "brewpub",
    "street": "58 Bridge St",
    "city": "Corning",
    "state": "New York",
    "postal_code": "14830-2239",
    "website_url": "http://www.careysbrewhouse.com",
    "phone": "6073775651",
    "created_at": "2018-07-24 01:33:50.130697",
    "updated_at": "2018-08-24 15:38:26.698315",
    "country": "United States",
    "longitude": "-77.0608970416667",
    "latitude": "42.1502577083333",
    "tags": []
  },
  {
    "id": "iron-flamingo-brewery",
    "name": "Iron Flamingo Brewery",
    "brewery_type": "micro",
    "street": "196 Baker St",
    "city": "Corning",
    "state": "New York",
    "postal_code": "14830-2074",
    "website_url": "http://www.ironflamingobrewery.com",
    "phone": "6079364766",
    "created_at": "2018-07-24 01:33:51.821435",
    "updated_at": "2018-08-24 15:39:25.22198",
    "country": "United States",
    "longitude": "-77.0564722",
    "latitude": "42.1551591",
    "tags": []
  },
  {
    "id": "liquid-shoes-brewing",
    "name": "Liquid Shoes Brewing",
    "brewery_type": "micro",
    "street": "26 E Market St",
    "city": "Corning",
    "state": "New York",
    "postal_code": "14830",
    "website_url": "http://www.liquidshoesbrewing.com",
    "phone": "6074639726",
    "created_at": "2018-07-24 01:33:52.208774",
    "updated_at": "2018-08-24 15:39:36.390143",
    "country": "United States",
    "longitude": "-77.0530128947368",
    "latitude": "42.1430647894737",
    "tags": []
  },
  {
    "id": "market-street-brewing-co",
    "name": "Market Street Brewing Co",
    "brewery_type": "brewpub",
    "street": "63 W Market St # 65",
    "city": "Corning",
    "state": "New York",
    "postal_code": "14830-2526",
    "website_url": "http://www.936-beer.com",
    "phone": "6079362337",
    "created_at": "2018-07-24 01:33:52.374239",
    "updated_at": "2018-08-24 15:39:42.836286",
    "country": "United States",
    "longitude": "-77.0571571",
    "latitude": "42.143984",
    "tags": []
  }
]