[
  {
    "id": "black-forest-brew-haus",
    "name": "Black Forest Brew Haus",
    "brewery_type": "brewpub",
    "street": "2015 New Hwy",
    "city": "Farmingdale",
    "state": "New York",
    "postal_code": "11735-1103",
    "website_url": "http://www.blackforestbrewhaus.com",
    "phone": "6313919500",
    "created_at": "2018-07-24 01:33:49.458606",
    "updated_at": "2018-08-24 15:38:10.962358",
    "country": "United States",
    "longitude": "-73.4144329120839",
    "latitude": "40.7550515",
    "tags": []
  },
  {
    "id": "barrage-brewing-co",
    "name": "Barrage Brewing Co",
    "brewery_type": "micro",
    "street": "32 Allen Blvd Ste E",
    "city": "Farmingdale",
    "state": "New York",
    "postal_code": "11735-5625",
    "website_url": "http://www.barragebrewing.com",
    "phone": "6313357941",
    "created_at": "2018-07-24 01:33:49.294531",
    "updated_at": "2018-08-11 21:38:30.016716",
    "country": "United States",
    "longitude": "",
    "latitude": "",
    "tags": []
  },
  {
    "id": "flying-belgian-brewery",
    "name": "Flying Belgian Brewery",
    "brewery_type": "micro",
    "street": "211 Main St",
    "city": "Farmingdale",
    "state": "New York",
    "postal_code": "11735-2675",
    "website_url": "http://www.flyingbelgianbrewery.com",
    "phone": "8184577548",
    "created_at": "2018-07-24 01:33:50.953011",
    "updated_at": "2018-08-24 15:38:56.715952",
    "country": "United States",
    "longitude": "-73.4458865143907",
    "latitude": "40.7335978795963",
    "tags": []
  },
  {
    "id": "lithology-brewing",
    "name": "Lithology Brewing",
    "brewery_type": "proprietor",
    "street": "211 Main St Ste A",
    "city": "Farmingdale",
    "state": "New York",
    "postal_code": "11735-2675",
    "website_url": "http://Lithologybrewing.com",
    "phone": "6316783613",
    "created_at": "2018-07-24 01:33:52.235289",
    "updated_at": "2018-08-11 21:38:37.384263",
    "country": "United States",
    "longitude": "",
    "latitude": "",
    "tags": []
  },
  {
    "id": "tweaking-frog-brewing-company",
    "name": "Tweaking Frog Brewing Company",
    "brewery_type": "micro",
    "street": "211 Main St Ste A",
    "city": "Farmingdale",
    "state": "New York",
    "postal_code": "11735-2675",
    "website_url": "http://www.tweakingfrogbrewing.com",
    "phone": "6318975509",
    "created_at": "2018-07-24 01:33:54.269975",
    "updated_at": "2018-08-11 21:38:43.142268",
    "country": "United States",
    "longitude": "",
    "latitude": "",
    "tags": []
  }
]