[
  {
    "id": "bottomless-brewing-llc",
    "name": "Bottomless Brewing, LLC",
    "brewery_type": "brewpub",
    "street": "3543 E Lake Rd",
    "city": "Geneva",
    "state": "New York",
    "postal_code": "14456-9261",
    "website_url": "http://www.bottomlessbrewing.com",
    "phone": "3153254380",
    "created_at": "2018-07-24 01:33:49.570697",
    "updated_at": "2018-08-11 21:38:30.870177",
    "country": "United States",
    "longitude": "",
    "latitude": "",
    "tags": []
  },
  {
    "id": "gc-starkey-beer-company",
    "name": "G.C. Starkey Beer Company",
    "brewery_type": "contract",
    "street": "68 Castle St Apt 1C",
    "city": "Geneva",
    "state": "New York",
    "postal_code": "14456-2648",
    "website_url": "http://www.starkeyslookout.com",
    "phone": "6076784043",
    "created_at": "2018-07-24 01:33:51.126076",
    "updated_at": "2018-08-11 21:38:34.672889",
    "country": "United States",
    "longitude": "",
    "latitude": "",
    "tags": []
  },
  {
    "id": "gael-brewing-co",
    "name": "Gael Brewing Co",
    "brewery_type": "micro",
    "street": "4180 State Route 14",
    "city": "Geneva",
    "state": "New York",
    "postal_code": "14456-9753",
    "website_url": "http://www.gaelbrewing.com",
    "phone": "3152200190",
    "created_at": "2018-07-24 01:33:51.140369",
    "updated_at": "2018-08-11 21:38:34.699993",
    "country": "United States",
    "longitude": "",
    "latitude": "",
    "tags": []
  },
  {
    "id": "lake-drum-brewing",
    "name": "Lake Drum Brewing",
    "brewery_type": "micro",
    "street": "16 E Castle St",
    "city": "Geneva",
    "state": "New York",
    "postal_code": "14456-2400",
    "website_url": "http://www.lakedrumbrewing.com",
    "phone": "3157891200",
    "created_at": "2018-07-24 01:33:52.083977",
    "updated_at": "2018-08-24 15:39:33.014247",
    "country": "United States",
    "longitude": "-76.9809403459945",
    "latitude": "42.8677738",
    "tags": []
  },
  {
    "id": "war-horse-brewing-company",
    "name": "War Horse Brewing Company",
    "brewery_type": "brewpub",
    "street": "623 Lerch Rd Ste 5",
    "city": "Geneva",
    "state": "New York",
    "postal_code": "14456-9295",
    "website_url": "http://www.3brotherswinery.com",
    "phone": "3155854432",
    "created_at": "2018-07-24 01:33:54.417098",
    "updated_at": "2018-08-11 21:38:43.530322",
    "country": "United States",
    "longitude": "",
    "latitude": "",
    "tags": []
  },
  {
    "id": "webe-brewing-company",
    "name": "WeBe Brewing Company",
    "brewery_type": "micro",
    "street": "796 Pre-Emption Road",
    "city": "Geneva",
    "state": "New York",
    "postal_code": "14456",
    "website_url": "http://www.WeBeBrewing.com",
    "phone": "3153254834",
    "created_at": "2018-07-24 01:33:54.454577",
    "updated_at": "2018-08-24 15:40:47.208639",
    "country": "United States",
    "longitude": "-77.0111032644691",
    "latitude": "42.8646371432583",
    "tags": []
  }
]