[
  {
    "id": "finger-lakes-beer-co",
    "name": "Finger Lakes Beer Co",
    "brewery_type": "micro",
    "street": "8462 State Route 54",
    "city": "Hammondsport",
    "state": "New York",
    "postal_code": "14840-9795",
    "website_url": "",
    "phone": "6075693311",
    "created_at": "2018-07-24 01:33:50.872352",
    "updated_at": "2018-08-11 21:38:34.011878",
    "country": "United States",
    "longitude": "",
    "latitude": "",
    "tags": []
  },
  {
    "id": "keuka-brewing-co",
    "name": "Keuka Brewing Co",
    "brewery_type": "micro",
    "street": "8572 Briglin Rd",
    "city": "Hammondsport",
    "state": "New York",
    "postal_code": "14840-9633",
    "website_url": "http://www.keukabrewingcompany.com",
    "phone": "6078684648",
    "created_at": "2018-07-24 01:33:51.985504",
    "updated_at": "2018-08-11 21:38:36.832471",
    "country": "United States",
    "longitude": "",
    "latitude": "",
    "tags": []
  },
  {
    "id": "steuben-brewing-company",
    "name": "Steuben Brewing Company",
    "brewery_type": "micro",
    "street": "10286 Judson Rd",
    "city": "Hammondsport",
    "state": "New York",
    "postal_code": "14840-9668",
    "website_url": "http://www.steubenbrewingcompany.com",
    "phone": "6072798874",
    "created_at": "2018-07-24 01:33:53.768071",
    "updated_at": "2018-08-11 21:38:41.909804",
    "country": "United States",
    "longitude": "",
    "latitude": "",
    "tags": []
  },
  {
    "id": "the-brewery-of-broken-dreams",
    "name": "The Brewery of Broken Dreams",
    "brewery_type": "micro",
    "street": "8319 Pleasant Valley Rd",
    "city": "Hammondsport",
    "state": "New York",
    "postal_code": "14840-9549",
    "website_url": "http://www.thebreweryofbrokendreams.com",
    "phone": "6072244050",
    "created_at": "2018-07-24 01:33:54.003907",
    "updated_at": "2018-08-11 21:38:42.43224",
    "country": "United States",
    "longitude": "",
    "latitude": "",
    "tags": []
  }
]