[
  {
    "id": "big-alice-brewing-company",
    "name": "Big Alice Brewing Company",
    "brewery_type": "micro",
    "street": "808 43rd Rd",
    "city": "Long Island City",
    "state": "New York",
    "postal_code": "11101-6820",
    "website_url": "http://www.bigalicebrewing.com",
    "phone": "3476882337",
    "created_at": "2018-07-24 01:33:49.367193",
    "updated_at": "2018-08-11 21:38:30.374307",
    "country": "United States",
    "longitude": "",
    "latitude": "",
    "tags": []
  },
  {
    "id": "alewife-brewing-company",
    "name": "Alewife Brewing Company",
    "brewery_type": "brewpub",
    "street": "514 51st Ave",
    "city": "Long Island City",
    "state": "New York",
    "postal_code": "11101-5879",
    "website_url": "http://www.alewife.beer",
    "phone": "7189377494",
    "created_at": "2018-07-24 01:33:49.074535",
    "updated_at": "2018-08-24 15:37:59.376646",
    "country": "United States",
    "longitude": "-73.9562525714286",
    "latitude": "40.7423221428571",
    "tags": []
  },
  {
    "id": "brewery-in-planning-long-island-city",
    "name": "Brewery in Planning - Long Island City",
    "brewery_type": "planning",
    "street": "",
    "city": "Long Island City",
    "state": "New York",
    "postal_code": "11101-5574",
    "website_url": "",
    "phone": "9176874204",
    "created_at": "2018-07-24 01:33:49.702965",
    "updated_at": "2018-08-11 21:38:31.19739",
    "country": "United States",
    "longitude": "",
    "latitude": "",
    "tags": []
  },
  {
    "id": "fifth-hammer-brewing-company",
    "name": "Fifth Hammer Brewing Company",
    "brewery_type": "micro",
    "street": "10-28 46th Ave",
    "city": "Long Island City",
    "state": "New York",
    "postal_code": "11101-5217",
    "website_url": "http://www.fifthhammerbrewing.com",
    "phone": "7186632084",
    "created_at": "2018-07-24 01:33:50.845801",
    "updated_at": "2018-08-24 15:38:52.634744",
    "country": "United States",
    "longitude": "-73.9515404",
    "latitude": "40.7464921",
    "tags": []
  },
  {
    "id": "iconyc-brewing-company",
    "name": "Iconyc Brewing Company",
    "brewery_type": "micro",
    "street": "45-13 34th Ave",
    "city": "Long Island City",
    "state": "New York",
    "postal_code": "11101-1041",
    "website_url": "http://www.iconycbrewing.com",
    "phone": "3473421360",
    "created_at": "2018-07-24 01:33:51.728134",
    "updated_at": "2018-08-11 21:38:36.265479",
    "country": "United States",
    "longitude": "",
    "latitude": "",
    "tags": []
  },
  {
    "id": "lic-beer-project",
    "name": "LIC Beer Project",
    "brewery_type": "micro",
    "street": "3928 23rd St",
    "city": "Long Island City",
    "state": "New York",
    "postal_code": "11101-4817",
    "website_url": "http://licbeerproject.com",
    "phone": "9178326840",
    "created_at": "2018-07-24 01:33:52.149061",
    "updated_at": "2018-08-24 15:39:35.26543",
    "country": "United States",
    "longitude": "-73.942849",
    "latitude": "40.75063",
    "tags": []
  },
  {
    "id": "rockaway-brewing-company",
    "name": "Rockaway Brewing Company",
    "brewery_type": "micro",
    "street": "4601 5th St",
    "city": "Long Island City",
    "state": "New York",
    "postal_code": "11101-5369",
    "website_url": "http://www.rockawaybrewco.com",
    "phone": "7184826528",
    "created_at": "2018-07-24 01:33:53.118598",
    "updated_at": "2018-08-24 15:40:05.178002",
    "country": "United States",
    "longitude": "-73.9573397",
    "latitude": "40.7404088",
    "tags": []
  },
  {
    "id": "transmitter-brewing",
    "name": "Transmitter Brewing",
    "brewery_type": "micro",
    "street": "5302 11th St",
    "city": "Long Island City",
    "state": "New York",
    "postal_code": "11101-5917",
    "website_url": "http://www.transmitterbrew.com",
    "phone": "6463788529",
    "created_at": "2018-07-24 01:33:54.21965",
    "updated_at": "2018-08-24 15:40:40.181478",
    "country": "United States",
    "longitude": "-73.9511062",
    "latitude": "40.7431826",
    "tags": []
  }
]