[
  {
    "id": "bradley-farm-/-rb-brew-llc",
    "name": "Bradley Farm / RB Brew, LLC",
    "brewery_type": "micro",
    "street": "317 Springtown Rd",
    "city": "New Paltz",
    "state": "New York",
    "postal_code": "12561-3020",
    "website_url": "http://www.raybradleyfarm.com",
    "phone": "8452558769",
    "created_at": "2018-07-24 01:33:49.585302",
    "updated_at": "2018-08-24 15:38:15.317379",
    "country": "United States",
    "longitude": "-74.097562",
    "latitude": "41.760486",
    "tags": []
  },
  {
    "id": "foreign-objects-beer-company",
    "name": "Foreign Objects Beer Company",
    "brewery_type": "micro",
    "street": "",
    "city": "New Paltz",
    "state": "New York",
    "postal_code": "12561-3401",
    "website_url": "http://www.foreignobjectsbeer.com",
    "phone": "6092871397",
    "created_at": "2018-07-24 01:33:51.004916",
    "updated_at": "2018-08-11 21:38:34.389138",
    "country": "United States",
    "longitude": "",
    "latitude": "",
    "tags": []
  },
  {
    "id": "gilded-otter-brewing-co",
    "name": "Gilded Otter Brewing Co",
    "brewery_type": "brewpub",
    "street": "3 Main St",
    "city": "New Paltz",
    "state": "New York",
    "postal_code": "12561-1742",
    "website_url": "http://www.gildedotter.com",
    "phone": "8452561700",
    "created_at": "2018-07-24 01:33:51.250189",
    "updated_at": "2018-08-24 15:39:06.407596",
    "country": "United States",
    "longitude": "-74.089586311179",
    "latitude": "41.7469771",
    "tags": []
  },
  {
    "id": "pull-brewing-co",
    "name": "Pull Brewing Co",
    "brewery_type": "contract",
    "street": "317 Springtown Rd",
    "city": "New Paltz",
    "state": "New York",
    "postal_code": "12561-3020",
    "website_url": "http://www.pullbrewing.com",
    "phone": "",
    "created_at": "2018-07-24 01:33:52.894731",
    "updated_at": "2018-08-24 15:39:57.311171",
    "country": "United States",
    "longitude": "-74.097562",
    "latitude": "41.760486",
    "tags": []
  },
  {
    "id": "smart-beer-company",
    "name": "Smart Beer Company",
    "brewery_type": "contract",
    "street": "",
    "city": "New Paltz",
    "state": "New York",
    "postal_code": "12561-0430",
    "website_url": "http://www.smartbeercompany.com",
    "phone": "",
    "created_at": "2018-07-24 01:33:53.678168",
    "updated_at": "2018-08-11 21:38:41.658008",
    "country": "United States",
    "longitude": "",
    "latitude": "",
    "tags": []
  },
  {
    "id": "the-brewery-at-bacchus",
    "name": "The Brewery At Bacchus",
    "brewery_type": "brewpub",
    "street": "4 S Chestnut St",
    "city": "New Paltz",
    "state": "New York",
    "postal_code": "12561-1902",
    "website_url": "http://www.bacchusnewpaltz.com",
    "phone": "8452558636",
    "created_at": "2018-07-24 01:33:53.988593",
    "updated_at": "2018-08-24 15:40:31.090005",
    "country": "United States",
    "longitude": "-74.0867508",
    "latitude": "41.7472558",
    "tags": []
  }
]