[
  {
    "id": "8th-ward-brewing-company",
    "name": "8th Ward Brewing Company",
    "brewery_type": "planning",
    "street": "",
    "city": "Poughkeepsie",
    "state": "New York",
    "postal_code": "12603-3401",
    "website_url": "",
    "phone": "",
    "created_at": "2018-07-24 01:33:49.000169",
    "updated_at": "2018-08-11 21:38:29.383202",
    "country": "United States",
    "longitude": "",
    "latitude": "",
    "tags": []
  },
  {
    "id": "blue-collar-brewery-inc",
    "name": "Blue Collar Brewery, Inc.",
    "brewery_type": "brewpub",
    "street": "40 Cottage St",
    "city": "Poughkeepsie",
    "state": "New York",
    "postal_code": "12601-2015",
    "website_url": "http://www.thebluecollarbrewery.com",
    "phone": "8454542739",
    "created_at": "2018-07-24 01:33:49.490592",
    "updated_at": "2018-08-24 15:38:11.941746",
    "country": "United States",
    "longitude": "-73.91831",
    "latitude": "41.707234",
    "tags": []
  },
  {
    "id": "mill-house-brewing-company-production",
    "name": "Mill House Brewing Company - Production",
    "brewery_type": "micro",
    "street": "",
    "city": "Poughkeepsie",
    "state": "New York",
    "postal_code": "12601",
    "website_url": "",
    "phone": "8452345573",
    "created_at": "2018-07-24 01:33:52.465233",
    "updated_at": "2018-08-11 21:38:38.085272",
    "country": "United States",
    "longitude": "",
    "latitude": "",
    "tags": []
  },
  {
    "id": "mill-house-brewing-company",
    "name": "Mill House Brewing Company",
    "brewery_type": "brewpub",
    "street": "289 Mill St",
    "city": "Poughkeepsie",
    "state": "New York",
    "postal_code": "12601-3111",
    "website_url": "http://www.millhousebrewing.com",
    "phone": "8452345573",
    "created_at": "2018-07-24 01:33:52.453289",
    "updated_at": "2018-08-24 15:39:44.68206",
    "country": "United States",
    "longitude": "-73.926472",
    "latitude": "41.705077",
    "tags": []
  },
  {
    "id": "plan-bee-farm-brewery",
    "name": "Plan Bee Farm Brewery",
    "brewery_type": "micro",
    "street": "115 Underhill Rd",
    "city": "Poughkeepsie",
    "state": "New York",
    "postal_code": "12603-1045",
    "website_url": "http://www.planbeefarmbrewery.com",
    "phone": "7653078589",
    "created_at": "2018-07-24 01:33:52.819591",
    "updated_at": "2018-08-24 15:39:54.620243",
    "country": "United States",
    "longitude": "-73.8859127379777",
    "latitude": "41.7172140503185",
    "tags": []
  }
]