[
  {
    "id": "crooked-ladder-brewery",
    "name": "Crooked Ladder Brewery",
    "brewery_type": "micro",
    "street": "70 W Main St",
    "city": "Riverhead",
    "state": "New York",
    "postal_code": "11901-2802",
    "website_url": "http://www.crookedladderbrewingco.com",
    "phone": "6319025335",
    "created_at": "2018-07-24 01:33:50.480121",
    "updated_at": "2018-08-24 15:38:39.885042",
    "country": "United States",
    "longitude": "-72.663198671947",
    "latitude": "40.9170167213884",
    "tags": []
  },
  {
    "id": "garden-of-eve-farm-brewery",
    "name": "Garden of Eve Farm Brewery",
    "brewery_type": "micro",
    "street": "4558 Sound Ave",
    "city": "Riverhead",
    "state": "New York",
    "postal_code": "11901-1207",
    "website_url": "http://www.facebook.com/farmbrewery",
    "phone": "6317228777",
    "created_at": "2018-07-24 01:33:51.166956",
    "updated_at": "2018-08-24 15:39:03.98224",
    "country": "United States",
    "longitude": "-72.648395",
    "latitude": "40.96775",
    "tags": []
  },
  {
    "id": "jamesport-farm-brewery",
    "name": "Jamesport Farm Brewery",
    "brewery_type": "micro",
    "street": "5873 Sound Ave",
    "city": "Riverhead",
    "state": "New York",
    "postal_code": "11901-5611",
    "website_url": "http://www.jamesportbrewhouse.com",
    "phone": "6317228111",
    "created_at": "2018-07-24 01:33:51.883588",
    "updated_at": "2018-08-24 15:39:27.170259",
    "country": "United States",
    "longitude": "-72.648395",
    "latitude": "40.96775",
    "tags": []
  },
  {
    "id": "north-fork-brewing-company",
    "name": "North Fork Brewing Company",
    "brewery_type": "planning",
    "street": "",
    "city": "Riverhead",
    "state": "New York",
    "postal_code": "11901-4615",
    "website_url": "",
    "phone": "",
    "created_at": "2018-07-24 01:33:52.624793",
    "updated_at": "2018-08-11 21:38:38.502667",
    "country": "United States",
    "longitude": "",
    "latitude": "",
    "tags": []
  },
  {
    "id": "long-ireland-brewing-co",
    "name": "Long Ireland Brewing Co",
    "brewery_type": "micro",
    "street": "817 Pulaski St",
    "city": "Riverhead",
    "state": "New York",
    "postal_code": "11901-3039",
    "website_url": "",
    "phone": "6314034303",
    "created_at": "2018-07-24 01:33:52.285422",
    "updated_at": "2018-08-24 15:39:39.653767",
    "country": "United States",
    "longitude": "-72.6741192424242",
    "latitude": "40.9199771010101",
    "tags": []
  },
  {
    "id": "moustache-brewing-co",
    "name": "Moustache Brewing Co",
    "brewery_type": "micro",
    "street": "400 Hallett Ave Ste A",
    "city": "Riverhead",
    "state": "New York",
    "postal_code": "11901-3076",
    "website_url": "http://www.moustachebrewing.com",
    "phone": "6315913250",
    "created_at": "2018-07-24 01:33:52.514214",
    "updated_at": "2018-08-11 21:38:38.226377",
    "country": "United States",
    "longitude": "",
    "latitude": "",
    "tags": []
  }
]