[
  {
    "id": "rohrbachs-railroad-st-brewery",
    "name": "Rohrbach's Railroad St Brewery",
    "brewery_type": "micro",
    "street": "97 Railroad St",
    "city": "Rochester",
    "state": "New York",
    "postal_code": "14609-6039",
    "website_url": "http://www.rohrbachs.com",
    "phone": "5855468020",
    "created_at": "2018-07-24 01:33:53.181675",
    "updated_at": "2018-08-24 15:40:06.518891",
    "country": "United States",
    "longitude": "-77.586694",
    "latitude": "43.163275",
    "tags": []
  },
  {
    "id": "swiftwater-brewing-company",
    "name": "Swiftwater Brewing Company",
    "brewery_type": "brewpub",
    "street": "378 Mount Hope Ave",
    "city": "Rochester",
    "state": "New York",
    "postal_code": "14620-1250",
    "website_url": "http://www.swiftwaterbrewing.com",
    "phone": "5855303471",
    "created_at": "2018-07-24 01:33:53.924627",
    "updated_at": "2018-08-24 15:40:29.037776",
    "country": "United States",
    "longitude": "-77.6122774848485",
    "latitude": "43.1423032424242",
    "tags": []
  },
  {
    "id": "fifth-frame-brewing-co",
    "name": "Fifth Frame Brewing Co.",
    "brewery_type": "proprietor",
    "street": "155 Saint Paul St",
    "city": "Rochester",
    "state": "New York",
    "postal_code": "14604-1144",
    "website_url": "http://www.fifthframe.co",
    "phone": "7168128897",
    "created_at": "2018-07-24 01:33:50.832949",
    "updated_at": "2018-08-24 15:38:52.129489",
    "country": "United States",
    "longitude": "-77.6101954375",
    "latitude": "43.15996034375",
    "tags": []
  },
  {
    "id": "genesee-brew-house-/-north-american-breweries",
    "name": "Genesee Brew House / North American Breweries",
    "brewery_type": "brewpub",
    "street": "25 Cataract St",
    "city": "Rochester",
    "state": "New York",
    "postal_code": "14605",
    "website_url": "http://www.geneseebeer.com",
    "phone": "5852639200",
    "created_at": "2018-07-24 01:33:51.221194",
    "updated_at": "2018-08-24 15:39:05.3996",
    "country": "United States",
    "longitude": "-77.6147783",
    "latitude": "43.163584",
    "tags": []
  },
  {
    "id": "iron-tug-brewing",
    "name": "Iron Tug Brewing",
    "brewery_type": "micro",
    "street": "360 W Ridge Rd",
    "city": "Rochester",
    "state": "New York",
    "postal_code": "14615-2928",
    "website_url": "http://www.irontugbrewing.com",
    "phone": "5858650032",
    "created_at": "2018-07-24 01:33:51.836636",
    "updated_at": "2018-08-24 15:39:25.785217",
    "country": "United States",
    "longitude": "-77.6367268571429",
    "latitude": "43.1996561428571",
    "tags": []
  },
  {
    "id": "k2-brothers-brewing",
    "name": "K2 Brothers Brewing",
    "brewery_type": "brewpub",
    "street": "1221 Empire Blvd",
    "city": "Rochester",
    "state": "New York",
    "postal_code": "14609-5946",
    "website_url": "http://www.K2Brewing.com",
    "phone": "5854131997",
    "created_at": "2018-07-24 01:33:51.919352",
    "updated_at": "2018-08-24 15:39:27.672798",
    "country": "United States",
    "longitude": "-77.549992",
    "latitude": "43.17664",
    "tags": []
  },
  {
    "id": "north-american-breweries",
    "name": "North American Breweries",
    "brewery_type": "regional",
    "street": "445 Saint Paul St",
    "city": "Rochester",
    "state": "New York",
    "postal_code": "14605-1726",
    "website_url": "",
    "phone": "5855461030",
    "created_at": "2018-07-24 01:33:52.599785",
    "updated_at": "2018-08-24 15:39:48.918716",
    "country": "United States",
    "longitude": "-77.6143245",
    "latitude": "43.1648171666667",
    "tags": []
  },
  {
    "id": "roc-brewing-co",
    "name": "Roc Brewing Co",
    "brewery_type": "brewpub",
    "street": "56 S Union St",
    "city": "Rochester",
    "state": "New York",
    "postal_code": "14607-1839",
    "website_url": "http://www.rocbrewingco.com",
    "phone": "5857949798",
    "created_at": "2018-07-24 01:33:53.105802",
    "updated_at": "2018-08-24 15:40:04.696057",
    "country": "United States",
    "longitude": "-77.5979331666667",
    "latitude": "43.1533706666667",
    "tags": []
  },
  {
    "id": "rohrbach-brewing-company",
    "name": "Rohrbach Brewing Company",
    "brewery_type": "brewpub",
    "street": "97 Railroad St",
    "city": "Rochester",
    "state": "New York",
    "postal_code": "14609-6039",
    "website_url": "http://www.rohrbachs.com",
    "phone": "5855468020",
    "created_at": "2018-07-24 01:33:53.168321",
    "updated_at": "2018-08-24 15:40:06.066763",
    "country": "United States",
    "longitude": "-77.586694",
    "latitude": "43.163275",
    "tags": []
  },
  {
    "id": "sager-beer-works",
    "name": "Sager Beer Works",
    "brewery_type": "planning",
    "street": "",
    "city": "Rochester",
    "state": "New York",
    "postal_code": "14607-1669",
    "website_url": "http://www.sagerbeerworks.com",
    "phone": "5857520613",
    "created_at": "2018-07-24 01:33:53.309912",
    "updated_at": "2018-08-11 21:38:40.520408",
    "country": "United States",
    "longitude": "",
    "latitude": "",
    "tags": []
  },
  {
    "id": "three-heads-brewing",
    "name": "Three Heads Brewing",
    "brewery_type": "micro",
    "street": "186 Atlantic Ave",
    "city": "Rochester",
    "state": "New York",
    "postal_code": "14607-1213",
    "website_url": "http://www.threeheadsbrewing.com",
    "phone": "5852441224",
    "created_at": "2018-07-24 01:33:54.143531",
    "updated_at": "2018-08-24 15:40:36.922078",
    "country": "United States",
    "longitude": "-77.5803465454545",
    "latitude": "43.1561175454545",
    "tags": []
  },
  {
    "id": "the-lost-borough-brewing-company",
    "name": "The Lost Borough Brewing Company",
    "brewery_type": "micro",
    "street": "543 Atlantic Ave",
    "city": "Rochester",
    "state": "New York",
    "postal_code": "14609-7316",
    "website_url": "http://www.lostboroughbrewing.com",
    "phone": "5854718122",
    "created_at": "2018-07-24 01:33:54.06716",
    "updated_at": "2018-08-24 15:40:33.731959",
    "country": "United States",
    "longitude": "-77.568564668458",
    "latitude": "43.1563873843618",
    "tags": []
  }
]