[
  {
    "id": "artisanal-brew-works",
    "name": "Artisanal Brew Works",
    "brewery_type": "micro",
    "street": "41 Geyser Rd",
    "city": "Saratoga Springs",
    "state": "New York",
    "postal_code": "12866-9038",
    "website_url": "http://www.artisanalbrewworks.com",
    "phone": "5185942337",
    "created_at": "2018-07-24 01:33:49.188075",
    "updated_at": "2018-08-11 21:38:29.76248",
    "country": "United States",
    "longitude": "",
    "latitude": "",
    "tags": []
  },
  {
    "id": "druthers-brewing-co",
    "name": "Druthers Brewing Co",
    "brewery_type": "brewpub",
    "street": "381 Broadway",
    "city": "Saratoga Springs",
    "state": "New York",
    "postal_code": "12866-3111",
    "website_url": "http://www.druthersbrewing.com",
    "phone": "5183065275",
    "created_at": "2018-07-24 01:33:50.599412",
    "updated_at": "2018-08-11 21:38:33.356759",
    "country": "United States",
    "longitude": "",
    "latitude": "",
    "tags": []
  },
  {
    "id": "racing-city-brewing-company",
    "name": "Racing City Brewing Company",
    "brewery_type": "micro",
    "street": "250 Excelsior Ave",
    "city": "Saratoga Springs",
    "state": "New York",
    "postal_code": "12866-8532",
    "website_url": "http://www.racingcitybrewingcompany.com",
    "phone": "5183504515",
    "created_at": "2018-07-24 01:33:52.931859",
    "updated_at": "2018-08-24 15:39:58.739437",
    "country": "United States",
    "longitude": "-73.7769944",
    "latitude": "43.0888891",
    "tags": []
  },
  {
    "id": "whitman-brewing-company",
    "name": "Whitman Brewing Company",
    "brewery_type": "planning",
    "street": "",
    "city": "Saratoga Springs",
    "state": "New York",
    "postal_code": "12866",
    "website_url": "http://www.whitmanbrewing.com",
    "phone": "6317868701",
    "created_at": "2018-07-24 01:33:54.521556",
    "updated_at": "2018-08-11 21:38:43.791601",
    "country": "United States",
    "longitude": "",
    "latitude": "",
    "tags": []
  },
  {
    "id": "winneras-circle-brewing-company",
    "name": "Winnerâs Circle Brewing Company",
    "brewery_type": "contract",
    "street": "21 Whistler Court Apt 4",
    "city": "Saratoga Springs ",
    "state": "New York",
    "postal_code": "12866",
    "website_url": "http://www.winnerscirclebeer.com",
    "phone": "5183657864",
    "created_at": "2018-07-24 01:33:54.577288",
    "updated_at": "2018-08-11 21:38:43.914253",
    "country": "United States",
    "longitude": "",
    "latitude": "",
    "tags": []
  }
]