[
  {
    "id": "great-flats-brewing",
    "name": "Great Flats Brewing",
    "brewery_type": "micro",
    "street": "151 Lafayette St",
    "city": "Schenectady",
    "state": "New York",
    "postal_code": "12305-2051",
    "website_url": "http://www.greatflatsbrewing.com",
    "phone": "5182800232",
    "created_at": "2018-07-24 01:33:51.342531",
    "updated_at": "2018-08-24 15:39:09.606571",
    "country": "United States",
    "longitude": "-73.9383963809524",
    "latitude": "42.8124353809524",
    "tags": []
  },
  {
    "id": "mad-jack-brewing-co-/-van-dyck-restaurant-and-lounge",
    "name": "Mad Jack Brewing Co / Van Dyck Restaurant & Lounge",
    "brewery_type": "brewpub",
    "street": "237 Union St",
    "city": "Schenectady",
    "state": "New York",
    "postal_code": "12305-1405",
    "website_url": "http://www.madjackbrewing.com",
    "phone": "5183487999",
    "created_at": "2018-07-24 01:33:52.360987",
    "updated_at": "2018-08-24 15:39:42.344088",
    "country": "United States",
    "longitude": "-73.9446627346939",
    "latitude": "42.816472755102",
    "tags": []
  },
  {
    "id": "wolf-hollow-brewing-company",
    "name": "Wolf Hollow Brewing Company",
    "brewery_type": "micro",
    "street": "6882 Amsterdam Rd",
    "city": "Schenectady",
    "state": "New York",
    "postal_code": "12302",
    "website_url": "http://www.wolfhollowbrewing.com",
    "phone": "5182144093",
    "created_at": "2018-07-24 01:33:54.590749",
    "updated_at": "2018-08-24 15:40:50.97458",
    "country": "United States",
    "longitude": "-74.0809254",
    "latitude": "42.8969263",
    "tags": []
  },
  {
    "id": "brewery-in-planning-schenectady",
    "name": "Brewery in Planning - Schenectady",
    "brewery_type": "planning",
    "street": "",
    "city": "Schenectady",
    "state": "New York",
    "postal_code": "12305-2405",
    "website_url": "http://www.re4ormarchitecture.com",
    "phone": "5183120139",
    "created_at": "2018-07-24 01:33:49.781605",
    "updated_at": "2018-08-11 21:38:31.39931",
    "country": "United States",
    "longitude": "",
    "latitude": "",
    "tags": []
  }
]