[
  {
    "id": "empire-brewing-co",
    "name": "Empire Brewing Co",
    "brewery_type": "brewpub",
    "street": "120 Walton St",
    "city": "Syracuse",
    "state": "New York",
    "postal_code": "13202-1571",
    "website_url": "http://www.empirebrew.com",
    "phone": "3156552337",
    "created_at": "2018-07-24 01:33:50.715055",
    "updated_at": "2018-08-24 15:38:47.848389",
    "country": "United States",
    "longitude": "-76.1540662455378",
    "latitude": "43.0480463656723",
    "tags": []
  },
  {
    "id": "willow-rock-brewing-company",
    "name": "Willow Rock Brewing Company",
    "brewery_type": "micro",
    "street": "115 Game Rd",
    "city": "Syracuse",
    "state": "New York",
    "postal_code": "13210-4216",
    "website_url": "http://www.willowrockbrew.com",
    "phone": "3159286948",
    "created_at": "2018-07-24 01:33:54.54929",
    "updated_at": "2018-08-24 15:40:49.526237",
    "country": "United States",
    "longitude": "-76.131471538758",
    "latitude": "43.0115551772561",
    "tags": []
  },
  {
    "id": "eastwood-brewing-company",
    "name": "Eastwood Brewing Company",
    "brewery_type": "micro",
    "street": "108 Walter Dr",
    "city": "Syracuse",
    "state": "New York",
    "postal_code": "13206-2357",
    "website_url": "http://www.facebook.com/eastwoodbrewingcompany",
    "phone": "",
    "created_at": "2018-07-24 01:33:50.664275",
    "updated_at": "2018-08-24 15:38:46.242126",
    "country": "United States",
    "longitude": "-76.0980832",
    "latitude": "43.0701121",
    "tags": []
  },
  {
    "id": "gordon-biersch-brewery-restaurant-syracuse",
    "name": "Gordon Biersch Brewery Restaurant - Syracuse",
    "brewery_type": "brewpub",
    "street": "304 Hiawatha Blvd West #J-101",
    "city": "Syracuse",
    "state": "New York",
    "postal_code": "13290",
    "website_url": "http://www.craftworksrestaurants.com",
    "phone": "3154780990",
    "created_at": "2018-07-24 01:33:51.314478",
    "updated_at": "2018-08-11 21:38:35.142484",
    "country": "United States",
    "longitude": "",
    "latitude": "",
    "tags": []
  },
  {
    "id": "middle-ages-brewing-co-ltd",
    "name": "Middle Ages Brewing Co Ltd",
    "brewery_type": "micro",
    "street": "120 Wilkinson St Ste 3",
    "city": "Syracuse",
    "state": "New York",
    "postal_code": "13204-2490",
    "website_url": "http://www.middleagesbrewing.com",
    "phone": "3154764250",
    "created_at": "2018-07-24 01:33:52.402024",
    "updated_at": "2018-08-11 21:38:37.822282",
    "country": "United States",
    "longitude": "",
    "latitude": "",
    "tags": []
  },
  {
    "id": "red-hawk-brewing",
    "name": "Red Hawk Brewing",
    "brewery_type": "micro",
    "street": "4504 Bussey Rd",
    "city": "Syracuse",
    "state": "New York",
    "postal_code": "13215-8783",
    "website_url": "http://www.redhawkbrewing.com",
    "phone": "3154915158",
    "created_at": "2018-07-24 01:33:53.023338",
    "updated_at": "2018-08-11 21:38:39.550823",
    "country": "United States",
    "longitude": "",
    "latitude": "",
    "tags": []
  },
  {
    "id": "stout-beard-brewing-company",
    "name": "Stout Beard Brewing Company",
    "brewery_type": "brewpub",
    "street": "1153 W Fayette St Ste 102",
    "city": "Syracuse",
    "state": "New York",
    "postal_code": "13204-2740",
    "website_url": "http://www.stoutbeardbrewery.com",
    "phone": "3153993016",
    "created_at": "2018-07-24 01:33:53.792633",
    "updated_at": "2018-08-11 21:38:41.983265",
    "country": "United States",
    "longitude": "",
    "latitude": "",
    "tags": []
  },
  {
    "id": "syracuse-suds-factory",
    "name": "Syracuse Suds Factory",
    "brewery_type": "brewpub",
    "street": "320 S Clinton St",
    "city": "Syracuse",
    "state": "New York",
    "postal_code": "13202-1220",
    "website_url": "http://www.sudsfactory.com",
    "phone": "3154712253",
    "created_at": "2018-07-24 01:33:53.937239",
    "updated_at": "2018-08-24 15:40:29.552995",
    "country": "United States",
    "longitude": "-76.153679",
    "latitude": "43.0484690204082",
    "tags": []
  },
  {
    "id": "buried-acorn-brewing-company",
    "name": "Buried Acorn Brewing Company",
    "brewery_type": "planning",
    "street": "",
    "city": "Syracuse",
    "state": "New York",
    "postal_code": "13204-1156",
    "website_url": "http://www.buriedacorn.com",
    "phone": "3155521499",
    "created_at": "2018-07-24 01:33:50.062211",
    "updated_at": "2018-08-11 21:38:31.950321",
    "country": "United States",
    "longitude": "",
    "latitude": "",
    "tags": []
  },
  {
    "id": "sahm-brewing-company",
    "name": "Sahm Brewing Company",
    "brewery_type": "micro",
    "street": "203 S Salina St",
    "city": "Syracuse",
    "state": "New York",
    "postal_code": "13202",
    "website_url": "http://www.facebook.com/SahmBrewCo/",
    "phone": "3158777246",
    "created_at": "2018-07-24 01:33:53.323881",
    "updated_at": "2018-08-24 15:40:11.008977",
    "country": "United States",
    "longitude": "-76.1520931836735",
    "latitude": "43.0494505918367",
    "tags": []
  }
]