[
  {
    "id": "spice-trade-brewing",
    "name": "Spice Trade Brewing",
    "brewery_type": "brewpub",
    "street": "7803 Ralston Rd",
    "city": "Arvada",
    "state": "Colorado",
    "postal_code": "80002-2433",
    "website_url": "http://www.spicetradebrewing.com",
    "phone": "3034319000",
    "created_at": "2018-07-24 01:33:07.889306",
    "updated_at": "2018-08-24 00:24:44.635656",
    "country": "United States",
    "longitude": "-105.0841731",
    "latitude": "39.802334",
    "tags": []
  },
  {
    "id": "donavon-brewing-company",
    "name": "Donavon Brewing Company",
    "brewery_type": "planning",
    "street": "",
    "city": "Arvada",
    "state": "Colorado",
    "postal_code": "80005-3644",
    "website_url": "http://www.donavonbrewing.com",
    "phone": "3039975920",
    "created_at": "2018-07-24 01:33:05.103507",
    "updated_at": "2018-08-11 21:36:35.059686",
    "country": "United States",
    "longitude": "",
    "latitude": "",
    "tags": []
  },
  {
    "id": "denver-beer-co-olde-town-arvada",
    "name": "Denver Beer Co Olde Town Arvada",
    "brewery_type": "micro",
    "street": "5768 Olde Wadsworth Blvd",
    "city": "Arvada",
    "state": "Colorado",
    "postal_code": "80002-2549",
    "website_url": "",
    "phone": "",
    "created_at": "2018-07-24 01:33:04.987224",
    "updated_at": "2018-08-24 00:22:48.126178",
    "country": "United States",
    "longitude": "-105.0814554",
    "latitude": "39.801625",
    "tags": []
  },
  {
    "id": "grand-lake-brewing-co-the",
    "name": "Grand Lake Brewing Co, The",
    "brewery_type": "brewpub",
    "street": "5610 Yukon St",
    "city": "Arvada",
    "state": "Colorado",
    "postal_code": "80002-2446",
    "website_url": "http://www.grandlakebrewing.com",
    "phone": "3039081677",
    "created_at": "2018-07-24 01:33:05.65461",
    "updated_at": "2018-08-24 00:23:14.362193",
    "country": "United States",
    "longitude": "-105.082455959184",
    "latitude": "39.799274122449",
    "tags": []
  },
  {
    "id": "odyssey-beerwerks",
    "name": "Odyssey Beerwerks",
    "brewery_type": "micro",
    "street": "5535 W 56th Ave Ste 107",
    "city": "Arvada",
    "state": "Colorado",
    "postal_code": "80002-2806",
    "website_url": "http://www.odysseybeerwerks.com",
    "phone": "3034210772",
    "created_at": "2018-07-24 01:33:06.825691",
    "updated_at": "2018-08-11 21:36:39.487421",
    "country": "United States",
    "longitude": "",
    "latitude": "",
    "tags": []
  },
  {
    "id": "new-image-brewing-co",
    "name": "New Image Brewing Co",
    "brewery_type": "brewpub",
    "street": "5622 Yukon St",
    "city": "Arvada",
    "state": "Colorado",
    "postal_code": "80002-2446",
    "website_url": "http://www.nibrewing.com",
    "phone": "7708811010",
    "created_at": "2018-07-24 01:33:06.720415",
    "updated_at": "2018-08-24 00:23:57.319786",
    "country": "United States",
    "longitude": "-105.082459510204",
    "latitude": "39.7993834693878",
    "tags": []
  },
  {
    "id": "someplace-else-brewery",
    "name": "SomePlace Else Brewery",
    "brewery_type": "micro",
    "street": "6425 W 52nd Ave Unit 6/6B",
    "city": "Arvada",
    "state": "Colorado",
    "postal_code": "80002-4008",
    "website_url": "",
    "phone": "7205124162",
    "created_at": "2018-07-24 01:33:07.800939",
    "updated_at": "2018-08-11 21:36:42.458489",
    "country": "United States",
    "longitude": "",
    "latitude": "",
    "tags": []
  }
]