[
  {
    "id": "brewery-in-planning-centennial",
    "name": "Brewery In Planning - Centennial",
    "brewery_type": "planning",
    "street": "",
    "city": "Aurora",
    "state": "Colorado",
    "postal_code": "80015-2207",
    "website_url": "",
    "phone": "",
    "created_at": "2018-07-24 01:33:04.111898",
    "updated_at": "2018-08-11 21:36:32.558074",
    "country": "United States",
    "longitude": "",
    "latitude": "",
    "tags": []
  },
  {
    "id": "cheluna-brewing-company",
    "name": "Cheluna Brewing Company",
    "brewery_type": "micro",
    "street": "2501 Dallas St Unit 148",
    "city": "Aurora",
    "state": "Colorado",
    "postal_code": "80010-1045",
    "website_url": "http://www.cheluna.com",
    "phone": "7206000020",
    "created_at": "2018-07-24 01:33:04.603507",
    "updated_at": "2018-08-11 21:36:33.862391",
    "country": "United States",
    "longitude": "",
    "latitude": "",
    "tags": []
  },
  {
    "id": "dad-and-dudes-breweria",
    "name": "Dad & Dudes Breweria",
    "brewery_type": "brewpub",
    "street": "6730 S Cornerstar Way Ste D",
    "city": "Aurora",
    "state": "Colorado",
    "postal_code": "80016-1571",
    "website_url": "http://breweria.com",
    "phone": "3034005699",
    "created_at": "2018-07-24 01:33:04.901716",
    "updated_at": "2018-08-11 21:36:34.580552",
    "country": "United States",
    "longitude": "",
    "latitude": "",
    "tags": []
  },
  {
    "id": "dry-dock-brewing-co-south-dock",
    "name": "Dry Dock Brewing Co- South Dock",
    "brewery_type": "micro",
    "street": "15120 E Hampden Ave",
    "city": "Aurora",
    "state": "Colorado",
    "postal_code": "80014-3906",
    "website_url": "http://www.drydockbrewing.com",
    "phone": "3034005606",
    "created_at": "2018-07-24 01:33:05.177426",
    "updated_at": "2018-08-24 00:22:53.724849",
    "country": "United States",
    "longitude": "-104.7680096",
    "latitude": "39.6529424",
    "tags": []
  },
  {
    "id": "mascher-brewing-co",
    "name": "Mascher Brewing Co.",
    "brewery_type": "planning",
    "street": "",
    "city": "Aurora",
    "state": "Colorado",
    "postal_code": "80014-8226",
    "website_url": "http://www.mascher.beer/",
    "phone": "8329482020",
    "created_at": "2018-07-24 01:33:06.51189",
    "updated_at": "2018-08-11 21:36:38.620589",
    "country": "United States",
    "longitude": "",
    "latitude": "",
    "tags": []
  },
  {
    "id": "launch-pad-brewery",
    "name": "Launch Pad Brewery",
    "brewery_type": "micro",
    "street": "884 S Buckley Rd",
    "city": "Aurora",
    "state": "Colorado",
    "postal_code": "80017-3174",
    "website_url": "http://www.launchpadbrewery.com",
    "phone": "7208782627",
    "created_at": "2018-07-24 01:33:06.261597",
    "updated_at": "2018-08-24 00:23:38.730752",
    "country": "United States",
    "longitude": "-104.7911253",
    "latitude": "39.6853036",
    "tags": []
  },
  {
    "id": "peak-to-peak-tap-and-brew",
    "name": "Peak To Peak Tap & Brew",
    "brewery_type": "brewpub",
    "street": "16701 E Iliff Ave",
    "city": "Aurora",
    "state": "Colorado",
    "postal_code": "80013-1148",
    "website_url": "http://www.peakbrews.com",
    "phone": "7204468714",
    "created_at": "2018-07-24 01:33:07.027257",
    "updated_at": "2018-08-24 00:24:10.191297",
    "country": "United States",
    "longitude": "-104.8366181",
    "latitude": "39.6750535",
    "tags": []
  },
  {
    "id": "peak-to-peak-tap-and-brew",
    "name": "Peak To Peak Tap & Brew",
    "brewery_type": "micro",
    "street": "9735 E Colfax Ave",
    "city": "Aurora",
    "state": "Colorado",
    "postal_code": "80010",
    "website_url": "",
    "phone": "",
    "created_at": "2018-07-24 01:33:07.041129",
    "updated_at": "2018-08-24 00:24:10.846879",
    "country": "United States",
    "longitude": "-104.8505299",
    "latitude": "39.7402157",
    "tags": []
  },
  {
    "id": "pilothouse-brewing-company",
    "name": "Pilothouse Brewing Company",
    "brewery_type": "micro",
    "street": "4233 S Buckley Rd",
    "city": "Aurora",
    "state": "Colorado",
    "postal_code": "80013-2947",
    "website_url": "http://www.pilothousebrewco.com",
    "phone": "3039944971",
    "created_at": "2018-07-24 01:33:07.136593",
    "updated_at": "2018-08-24 00:24:14.201689",
    "country": "United States",
    "longitude": "-104.791550755102",
    "latitude": "39.6399322244898",
    "tags": []
  },
  {
    "id": "ursula-brewery",
    "name": "Ursula Brewery",
    "brewery_type": "micro",
    "street": "2101 N Ursula St Unit 10",
    "city": "Aurora",
    "state": "Colorado",
    "postal_code": "80045-7448",
    "website_url": "http://www.ursulabrewery.com",
    "phone": "7203248529",
    "created_at": "2018-07-24 01:33:08.542821",
    "updated_at": "2018-08-11 21:36:43.96802",
    "country": "United States",
    "longitude": "",
    "latitude": "",
    "tags": []
  },
  {
    "id": "dry-dock-brewing-co-north-dock",
    "name": "Dry Dock Brewing Co - North Dock",
    "brewery_type": "regional",
    "street": "2801 Tower Rd",
    "city": "Aurora",
    "state": "Colorado",
    "postal_code": "80011-3508",
    "website_url": "http://www.drydockbrewing.com",
    "phone": "3034005606",
    "created_at": "2018-07-24 01:33:05.164785",
    "updated_at": "2018-08-24 00:22:53.151149",
    "country": "United States",
    "longitude": "-104.772404",
    "latitude": "39.758038",
    "tags": []
  }
]