[
  {
    "id": "upslope-brewing-company-flatiron-park",
    "name": "Upslope Brewing Company - Flatiron Park",
    "brewery_type": "micro",
    "street": "1898 S Flatiron Ct Ste 110",
    "city": "Boulder",
    "state": "Colorado",
    "postal_code": "80301-2860",
    "website_url": "http://www.upslopebrewing.com",
    "phone": "",
    "created_at": "2018-07-24 01:33:08.512335",
    "updated_at": "2018-08-24 00:25:03.052721",
    "country": "United States",
    "longitude": "-105.2183136",
    "latitude": "40.0203098",
    "tags": []
  },
  {
    "id": "avery-brewing-co",
    "name": "Avery Brewing Co",
    "brewery_type": "regional",
    "street": "4910 Nautilus Ct N",
    "city": "Boulder",
    "state": "Colorado",
    "postal_code": "80301-3242",
    "website_url": "",
    "phone": "",
    "created_at": "2018-07-24 01:33:03.576387",
    "updated_at": "2018-08-24 00:05:32.893915",
    "country": "United States",
    "longitude": "-105.204765186937",
    "latitude": "40.0625835",
    "tags": []
  },
  {
    "id": "finkel-and-garf-brewing-co",
    "name": "Finkel & Garf Brewing Co.",
    "brewery_type": "micro",
    "street": "5455 Spine Rd Ste A",
    "city": "Boulder",
    "state": "Colorado",
    "postal_code": "80301-3364",
    "website_url": "http://www.finkelandgarf.com",
    "phone": "",
    "created_at": "2018-07-24 01:33:05.435798",
    "updated_at": "2018-08-11 21:36:35.908101",
    "country": "United States",
    "longitude": "",
    "latitude": "",
    "tags": []
  },
  {
    "id": "asher-brewing-co",
    "name": "Asher Brewing Co",
    "brewery_type": "micro",
    "street": "4699 Nautilus Ct S Ste 104",
    "city": "Boulder",
    "state": "Colorado",
    "postal_code": "80301-5306",
    "website_url": "http://asherbrewing.com",
    "phone": "3035301381",
    "created_at": "2018-07-24 01:33:03.501018",
    "updated_at": "2018-08-11 21:36:30.945645",
    "country": "United States",
    "longitude": "",
    "latitude": "",
    "tags": []
  },
  {
    "id": "beyond-the-mountain-brewing-company",
    "name": "Beyond The Mountain Brewing Company",
    "brewery_type": "micro",
    "street": "6035 Longbow Dr Unit 109",
    "city": "Boulder",
    "state": "Colorado",
    "postal_code": "80301-3203",
    "website_url": "http://www.btmbrewing.com",
    "phone": "7574072346",
    "created_at": "2018-07-24 01:33:03.686839",
    "updated_at": "2018-08-11 21:36:31.395924",
    "country": "United States",
    "longitude": "",
    "latitude": "",
    "tags": []
  },
  {
    "id": "bjs-restaurant-and-brewery-boulder",
    "name": "BJs Restaurant & Brewery - Boulder",
    "brewery_type": "brewpub",
    "street": "1690 28th St",
    "city": "Boulder",
    "state": "Colorado",
    "postal_code": "80301-",
    "website_url": "http://www.bjsrestaurants.com",
    "phone": "3034405200",
    "created_at": "2018-07-24 01:33:03.762889",
    "updated_at": "2018-08-24 00:05:45.450646",
    "country": "United States",
    "longitude": "-105.258512",
    "latitude": "40.0291592",
    "tags": []
  },
  {
    "id": "black-cat-brewing",
    "name": "Black Cat Brewing",
    "brewery_type": "planning",
    "street": "",
    "city": "Boulder",
    "state": "Colorado",
    "postal_code": "80302",
    "website_url": "http://www.blackcatbrewing.com",
    "phone": "",
    "created_at": "2018-07-24 01:33:03.799046",
    "updated_at": "2018-08-24 00:05:47.146511",
    "country": "United States",
    "longitude": "-105.2705456",
    "latitude": "40.0149856",
    "tags": []
  },
  {
    "id": "boulder-beer-co",
    "name": "Boulder Beer Co",
    "brewery_type": "regional",
    "street": "2880 Wilderness Pl",
    "city": "Boulder",
    "state": "Colorado",
    "postal_code": "80301-5401",
    "website_url": "",
    "phone": "",
    "created_at": "2018-07-24 01:33:03.994923",
    "updated_at": "2018-08-24 00:06:00.017503",
    "country": "United States",
    "longitude": "-105.2480158",
    "latitude": "40.026439",
    "tags": []
  },
  {
    "id": "boulder-beer-on-walnut",
    "name": "Boulder Beer On Walnut",
    "brewery_type": "brewpub",
    "street": "1123 Walnut St",
    "city": "Boulder",
    "state": "Colorado",
    "postal_code": "80302-5116",
    "website_url": "",
    "phone": "3034471345",
    "created_at": "2018-07-24 01:33:04.011493",
    "updated_at": "2018-08-24 00:06:00.890416",
    "country": "United States",
    "longitude": "-105.2804375",
    "latitude": "40.0168555",
    "tags": []
  },
  {
    "id": "bru-handbuilt-ales-and-eats",
    "name": "BRU Handbuilt Ales and Eats",
    "brewery_type": "brewpub",
    "street": "5290 Arapahoe Ave",
    "city": "Boulder",
    "state": "Colorado",
    "postal_code": "80303-1269",
    "website_url": "http://www.bruboulder.com",
    "phone": "7206385193",
    "created_at": "2018-07-24 01:33:04.312355",
    "updated_at": "2018-08-24 00:22:18.354033",
    "country": "United States",
    "longitude": "-105.2293345",
    "latitude": "40.0141462",
    "tags": []
  },
  {
    "id": "cellar-west-artisan-ales",
    "name": "Cellar West Artisan Ales",
    "brewery_type": "micro",
    "street": "1001 Lee Hill Dr Ste 10",
    "city": "Boulder",
    "state": "Colorado",
    "postal_code": "80302-9471",
    "website_url": "http://www.cellarwest.com",
    "phone": "2627198795",
    "created_at": "2018-07-24 01:33:04.551663",
    "updated_at": "2018-08-11 21:36:33.737194",
    "country": "United States",
    "longitude": "",
    "latitude": "",
    "tags": []
  },
  {
    "id": "fate-brewing-company",
    "name": "FATE Brewing Company",
    "brewery_type": "brewpub",
    "street": "1600 38th St Ste 100",
    "city": "Boulder",
    "state": "Colorado",
    "postal_code": "80301-2610",
    "website_url": "",
    "phone": "",
    "created_at": "2018-07-24 01:33:05.376737",
    "updated_at": "2018-08-24 00:23:01.968128",
    "country": "United States",
    "longitude": "-105.2454818",
    "latitude": "40.0149794",
    "tags": []
  },
  {
    "id": "gunbarrel-brewing-company",
    "name": "Gunbarrel Brewing Company",
    "brewery_type": "micro",
    "street": "7088 Winchester Cir Ste 2",
    "city": "Boulder",
    "state": "Colorado",
    "postal_code": "80301-3761",
    "website_url": "http://www.gunbarrelbrewing.com",
    "phone": "8008035732",
    "created_at": "2018-07-24 01:33:05.814358",
    "updated_at": "2018-08-11 21:36:36.918926",
    "country": "United States",
    "longitude": "",
    "latitude": "",
    "tags": []
  },
  {
    "id": "kettle-and-spoke-brewery-llc",
    "name": "Kettle and Spoke Brewery, LLC",
    "brewery_type": "micro",
    "street": "2500 47th St Ste 12",
    "city": "Boulder",
    "state": "Colorado",
    "postal_code": "80301-2335",
    "website_url": "http://www.kettleandspoke.com",
    "phone": "7196509697",
    "created_at": "2018-07-24 01:33:06.185041",
    "updated_at": "2018-08-11 21:36:37.813894",
    "country": "United States",
    "longitude": "",
    "latitude": "",
    "tags": []
  },
  {
    "id": "mountain-sun-pub-and-brewery",
    "name": "Mountain Sun Pub and Brewery",
    "brewery_type": "brewpub",
    "street": "1535 Pearl St",
    "city": "Boulder",
    "state": "Colorado",
    "postal_code": "80302-5408",
    "website_url": "http://www.mountainsunpub.com",
    "phone": "3035460886",
    "created_at": "2018-07-24 01:33:06.637018",
    "updated_at": "2018-08-24 00:23:54.622257",
    "country": "United States",
    "longitude": "-105.2752277",
    "latitude": "40.0190131",
    "tags": []
  },
  {
    "id": "sanitas-brewing-co",
    "name": "Sanitas Brewing Co",
    "brewery_type": "micro",
    "street": "3550 Frontier Ave Ste A",
    "city": "Boulder",
    "state": "Colorado",
    "postal_code": "80301-2430",
    "website_url": "http://www.sanitasbrewing.com/",
    "phone": "2152667762",
    "created_at": "2018-07-24 01:33:07.681905",
    "updated_at": "2018-08-11 21:36:42.136627",
    "country": "United States",
    "longitude": "",
    "latitude": "",
    "tags": []
  },
  {
    "id": "southern-sun-pub-and-brewery",
    "name": "Southern Sun Pub and Brewery",
    "brewery_type": "brewpub",
    "street": "627 S Broadway St",
    "city": "Boulder",
    "state": "Colorado",
    "postal_code": "80305-5944",
    "website_url": "http://www.mountainsunpub.com",
    "phone": "3035430886",
    "created_at": "2018-07-24 01:33:07.865073",
    "updated_at": "2018-08-11 21:36:42.622359",
    "country": "United States",
    "longitude": "",
    "latitude": "",
    "tags": []
  },
  {
    "id": "unnamed-beer-company-llc",
    "name": "Unnamed Beer Company, LLC",
    "brewery_type": "planning",
    "street": "",
    "city": "Boulder",
    "state": "Colorado",
    "postal_code": "80301",
    "website_url": "http://www.unnamedbeer.com",
    "phone": "",
    "created_at": "2018-07-24 01:33:08.483943",
    "updated_at": "2018-08-11 21:36:43.838894",
    "country": "United States",
    "longitude": "",
    "latitude": "",
    "tags": []
  },
  {
    "id": "upslope-brewing-company",
    "name": "Upslope Brewing Company",
    "brewery_type": "planning",
    "street": "",
    "city": "Boulder",
    "state": "Colorado",
    "postal_code": "80301",
    "website_url": "",
    "phone": "3033961898",
    "created_at": "2018-07-24 01:33:08.498452",
    "updated_at": "2018-08-11 21:36:43.870146",
    "country": "United States",
    "longitude": "",
    "latitude": "",
    "tags": []
  },
  {
    "id": "stein-brewing-company",
    "name": "Stein Brewing Company",
    "brewery_type": "micro",
    "street": "2516 49th St",
    "city": "Boulder",
    "state": "Colorado",
    "postal_code": "80301-2455",
    "website_url": "http://www.jwellsbrewery.com",
    "phone": "3033960384",
    "created_at": "2018-07-24 01:33:07.955262",
    "updated_at": "2018-08-24 00:24:46.869311",
    "country": "United States",
    "longitude": "-105.2378323",
    "latitude": "40.0238083",
    "tags": []
  },
  {
    "id": "the-post-brewing-co",
    "name": "The Post Brewing Co",
    "brewery_type": "brewpub",
    "street": "2027 13th St",
    "city": "Boulder",
    "state": "Colorado",
    "postal_code": "80302-5201",
    "website_url": "http://www.postbrewing.com",
    "phone": "7203723341",
    "created_at": "2018-07-24 01:33:08.179005",
    "updated_at": "2018-08-24 00:24:53.62612",
    "country": "United States",
    "longitude": "-105.278894204082",
    "latitude": "40.0184764897959",
    "tags": []
  },
  {
    "id": "upslope-brewing-company-lee-hill",
    "name": "Upslope Brewing Company - Lee Hill",
    "brewery_type": "regional",
    "street": "1501 Lee Hill Rd Unit 20",
    "city": "Boulder",
    "state": "Colorado",
    "postal_code": "80304-5602",
    "website_url": "http://www.upslopebrewing.com",
    "phone": "3033961898",
    "created_at": "2018-07-24 01:33:08.527174",
    "updated_at": "2018-08-11 21:36:43.93647",
    "country": "United States",
    "longitude": "",
    "latitude": "",
    "tags": []
  },
  {
    "id": "vision-quest-brewing-company",
    "name": "Vision Quest Brewing Company",
    "brewery_type": "micro",
    "street": "2510 47th St Ste A2",
    "city": "Boulder",
    "state": "Colorado",
    "postal_code": "80301-2301",
    "website_url": "http://www.visionquestbrewing.com",
    "phone": "3038986802",
    "created_at": "2018-07-24 01:33:08.671308",
    "updated_at": "2018-08-11 21:36:44.238073",
    "country": "United States",
    "longitude": "",
    "latitude": "",
    "tags": []
  },
  {
    "id": "west-flanders-brewing-co",
    "name": "West Flanders Brewing Co",
    "brewery_type": "brewpub",
    "street": "1125 Pearl St",
    "city": "Boulder",
    "state": "Colorado",
    "postal_code": "80302-5103",
    "website_url": "http://www.wfbrews.com",
    "phone": "3034472739",
    "created_at": "2018-07-24 01:33:08.719399",
    "updated_at": "2018-08-24 00:25:10.30891",
    "country": "United States",
    "longitude": "-105.260866",
    "latitude": "40.0217453",
    "tags": []
  },
  {
    "id": "wild-woods-brewery",
    "name": "Wild Woods Brewery",
    "brewery_type": "micro",
    "street": "5460 Conestoga Ct",
    "city": "Boulder",
    "state": "Colorado",
    "postal_code": "80301-2724",
    "website_url": "http://www.wildwoodsbrewery.com",
    "phone": "3034841465",
    "created_at": "2018-07-24 01:33:08.827502",
    "updated_at": "2018-08-24 00:25:13.496719",
    "country": "United States",
    "longitude": "-105.2258104",
    "latitude": "40.0162153",
    "tags": []
  },
  {
    "id": "new-planet-beer-co",
    "name": "New Planet Beer Co",
    "brewery_type": "contract",
    "street": "3980 Broadway St Ste 103 # 116",
    "city": "Boulder",
    "state": "Colorado",
    "postal_code": "80304-1161",
    "website_url": "http://www.newplanetbeer.com",
    "phone": "3034994978",
    "created_at": "2018-07-24 01:33:06.732077",
    "updated_at": "2018-08-11 21:36:39.217336",
    "country": "United States",
    "longitude": "",
    "latitude": "",
    "tags": []
  },
  {
    "id": "twisted-pine-brewing-co",
    "name": "Twisted Pine Brewing Co",
    "brewery_type": "brewpub",
    "street": "3201 Walnut St Ste A",
    "city": "Boulder",
    "state": "Colorado",
    "postal_code": "80301-2645",
    "website_url": "http://www.twistedpinebrewing.com",
    "phone": "3037869270",
    "created_at": "2018-07-24 01:33:08.417762",
    "updated_at": "2018-08-11 21:36:43.715899",
    "country": "United States",
    "longitude": "",
    "latitude": "",
    "tags": []
  }
]