[
  {
    "id": "4-noses-brewing-company",
    "name": "4 Noses Brewing Company",
    "brewery_type": "micro",
    "street": "8855 W 116th Cir Ste 3",
    "city": "Broomfield",
    "state": "Colorado",
    "postal_code": "80021-2521",
    "website_url": "http://4nosesbrewing.com",
    "phone": "7204602797",
    "created_at": "2018-07-24 01:33:03.333442",
    "updated_at": "2018-08-11 21:36:29.994333",
    "country": "United States",
    "longitude": "",
    "latitude": "",
    "tags": []
  },
  {
    "id": "brewery-in-planning-broomfield",
    "name": "Brewery in Planning - Broomfield",
    "brewery_type": "planning",
    "street": "",
    "city": "Broomfield",
    "state": "Colorado",
    "postal_code": "80023-9407",
    "website_url": "http://www.sawbrew.com",
    "phone": "",
    "created_at": "2018-07-24 01:33:04.088475",
    "updated_at": "2018-08-11 21:36:32.487926",
    "country": "United States",
    "longitude": "",
    "latitude": "",
    "tags": []
  },
  {
    "id": "gordon-biersch-brewery-restaurant-broomfield",
    "name": "Gordon Biersch Brewery Restaurant - Broomfield",
    "brewery_type": "brewpub",
    "street": "1 W Flatiron Crossing Dr Ste 428",
    "city": "Broomfield",
    "state": "Colorado",
    "postal_code": "80021-8214",
    "website_url": "http://www.gordonbiersch.com/restaurant",
    "phone": "7208872991",
    "created_at": "2018-07-24 01:33:05.618812",
    "updated_at": "2018-08-11 21:36:36.359755",
    "country": "United States",
    "longitude": "",
    "latitude": "",
    "tags": []
  },
  {
    "id": "wonderland-brewing-co",
    "name": "Wonderland Brewing Co.",
    "brewery_type": "micro",
    "street": "5450 W 120th Ave",
    "city": "Broomfield",
    "state": "Colorado",
    "postal_code": "80020-5913",
    "website_url": "http://www.wonderlandbrewing.com",
    "phone": "3039530400",
    "created_at": "2018-07-24 01:33:08.881796",
    "updated_at": "2018-08-24 00:25:15.565477",
    "country": "United States",
    "longitude": "-105.056081872213",
    "latitude": "39.91349895",
    "tags": []
  },
  {
    "id": "rails-end-beer-company",
    "name": "Rails End Beer Company",
    "brewery_type": "micro",
    "street": "11625 Reed Ct",
    "city": "Broomfield",
    "state": "Colorado",
    "postal_code": "80020-2834",
    "website_url": "http://www.railsendbeerco.com",
    "phone": "3033538121",
    "created_at": "2018-07-24 01:33:07.272839",
    "updated_at": "2018-08-24 00:24:19.097641",
    "country": "United States",
    "longitude": "-105.075030240563",
    "latitude": "39.9084879",
    "tags": []
  }
]