[
  {
    "id": "105-west-brewing-co",
    "name": "105 West Brewing Co",
    "brewery_type": "micro",
    "street": "1043 Park St",
    "city": "Castle Rock",
    "state": "Colorado",
    "postal_code": "80109-1585",
    "website_url": "http://www.105westbrewing.com",
    "phone": "3033257321",
    "created_at": "2018-07-24 01:33:03.2519",
    "updated_at": "2018-08-24 00:05:12.256542",
    "country": "United States",
    "longitude": "-104.866720584377",
    "latitude": "39.3826949498803",
    "tags": []
  },
  {
    "id": "burly-brewing-company-llc",
    "name": "Burly Brewing Company, LLC",
    "brewery_type": "micro",
    "street": "680 Atchison Way Ste 700-800",
    "city": "Castle Rock",
    "state": "Colorado",
    "postal_code": "80109-3106",
    "website_url": "http://www.burlybrewing.com",
    "phone": "",
    "created_at": "2018-07-24 01:33:04.383222",
    "updated_at": "2018-08-11 21:36:33.358208",
    "country": "United States",
    "longitude": "",
    "latitude": "",
    "tags": []
  },
  {
    "id": "castle-rock-beer-company",
    "name": "Castle Rock Beer Company",
    "brewery_type": "micro",
    "street": "514 Perry St Ste C106",
    "city": "Castle Rock",
    "state": "Colorado",
    "postal_code": "80104-1711",
    "website_url": "http://www.castlerockbeerco.com",
    "phone": "7203289008",
    "created_at": "2018-07-24 01:33:04.539753",
    "updated_at": "2018-08-11 21:36:33.710427",
    "country": "United States",
    "longitude": "",
    "latitude": "",
    "tags": []
  },
  {
    "id": "mcova-craft-beer-works-llc",
    "name": "McOva Craft Beer Works, LLC",
    "brewery_type": "planning",
    "street": "",
    "city": "Castle Rock",
    "state": "Colorado",
    "postal_code": "80104",
    "website_url": "",
    "phone": "3035215027",
    "created_at": "2018-07-24 01:33:06.558549",
    "updated_at": "2018-08-11 21:36:38.738971",
    "country": "United States",
    "longitude": "",
    "latitude": "",
    "tags": []
  },
  {
    "id": "rockyard-brewing-company",
    "name": "Rockyard Brewing Company",
    "brewery_type": "brewpub",
    "street": "880 Castleton Rd",
    "city": "Castle Rock",
    "state": "Colorado",
    "postal_code": "80109-7512",
    "website_url": "http://www.rockyard.com",
    "phone": "3038149273",
    "created_at": "2018-07-24 01:33:07.620897",
    "updated_at": "2018-08-24 00:24:32.638487",
    "country": "United States",
    "longitude": "-104.8723394",
    "latitude": "39.4096188",
    "tags": []
  }
]