[
  {
    "id": "brewery-in-planning-centennial-co",
    "name": "Brewery in Planning - Centennial, CO",
    "brewery_type": "planning",
    "street": "",
    "city": "Centennial",
    "state": "Colorado",
    "postal_code": "80112",
    "website_url": "",
    "phone": "7707572619",
    "created_at": "2018-07-24 01:33:04.123353",
    "updated_at": "2018-08-11 21:36:32.587726",
    "country": "United States",
    "longitude": "",
    "latitude": "",
    "tags": []
  },
  {
    "id": "blue-spruce-brewing",
    "name": "Blue Spruce Brewing",
    "brewery_type": "brewpub",
    "street": "4151 E County Line Rd Unit G",
    "city": "Centennial",
    "state": "Colorado",
    "postal_code": "80122-8113",
    "website_url": "http://www.bluesprucebrewing.com",
    "phone": "3037710590",
    "created_at": "2018-07-24 01:33:03.89374",
    "updated_at": "2018-08-11 21:36:31.958652",
    "country": "United States",
    "longitude": "",
    "latitude": "",
    "tags": []
  },
  {
    "id": "halfpenny-brewing-company",
    "name": "Halfpenny Brewing Company",
    "brewery_type": "micro",
    "street": "5150 E Arapahoe Rd Ste D1-B",
    "city": "Centennial",
    "state": "Colorado",
    "postal_code": "80122-4825",
    "website_url": "http://www.halfpennybrewing.com",
    "phone": "7205830580",
    "created_at": "2018-07-24 01:33:05.826828",
    "updated_at": "2018-08-11 21:36:36.95391",
    "country": "United States",
    "longitude": "",
    "latitude": "",
    "tags": []
  },
  {
    "id": "lost-highway-brewing",
    "name": "Lost Highway Brewing",
    "brewery_type": "micro",
    "street": "12741 E Caley Ave Ste 140",
    "city": "Centennial",
    "state": "Colorado",
    "postal_code": "80111-6407",
    "website_url": "http://www.losthighwaybrewing.com",
    "phone": "",
    "created_at": "2018-07-24 01:33:06.380728",
    "updated_at": "2018-08-11 21:36:38.342176",
    "country": "United States",
    "longitude": "",
    "latitude": "",
    "tags": []
  },
  {
    "id": "resolute-brewing-company",
    "name": "Resolute Brewing Company",
    "brewery_type": "micro",
    "street": "7286 S Yosemite St Ste 110",
    "city": "Centennial",
    "state": "Colorado",
    "postal_code": "80112-2204",
    "website_url": "http://www.resolutebrewingco.com",
    "phone": "7207221238",
    "created_at": "2018-07-24 01:33:07.41651",
    "updated_at": "2018-08-11 21:36:41.277078",
    "country": "United States",
    "longitude": "",
    "latitude": "",
    "tags": []
  },
  {
    "id": "two22-brew",
    "name": "Two22 Brew",
    "brewery_type": "micro",
    "street": "4550 S Reservoir Rd",
    "city": "Centennial",
    "state": "Colorado",
    "postal_code": "80015-2878",
    "website_url": "http://www.two22brew.com",
    "phone": "7203289038",
    "created_at": "2018-07-24 01:33:08.457865",
    "updated_at": "2018-08-24 00:25:02.383033",
    "country": "United States",
    "longitude": "-104.760169827586",
    "latitude": "39.6342909310345",
    "tags": []
  }
]