[
  {
    "id": "brass-brewing-company",
    "name": "Brass Brewing Company",
    "brewery_type": "micro",
    "street": "318 E Colorado Ave",
    "city": "Colorado Springs",
    "state": "Colorado",
    "postal_code": "80903-1949",
    "website_url": "",
    "phone": "",
    "created_at": "2018-07-24 01:33:04.026267",
    "updated_at": "2018-08-24 00:22:11.364164",
    "country": "United States",
    "longitude": "-104.818970612347",
    "latitude": "38.8326073",
    "tags": []
  },
  {
    "id": "peaks-n-pines-brewing-company",
    "name": "Peaks N Pines Brewing Company",
    "brewery_type": "micro",
    "street": "4005 Tutt Blvd",
    "city": "Colorado Springs",
    "state": "Colorado",
    "postal_code": "80922-2508",
    "website_url": "http://www.peaksnpinesbrewery.com",
    "phone": "7193586758",
    "created_at": "2018-07-24 01:33:07.066304",
    "updated_at": "2018-08-24 00:24:11.517372",
    "country": "United States",
    "longitude": "-104.714604513467",
    "latitude": "38.889659925238",
    "tags": []
  },
  {
    "id": "atrevida-beer-company",
    "name": "Atrevida Beer Company",
    "brewery_type": "micro",
    "street": "204 Mount View Ln Unit 3",
    "city": "Colorado Springs",
    "state": "Colorado",
    "postal_code": "80908",
    "website_url": "http://www.atrevidabeerco.com",
    "phone": "7192664200",
    "created_at": "2018-07-24 01:33:03.539273",
    "updated_at": "2018-08-11 21:36:31.05153",
    "country": "United States",
    "longitude": "",
    "latitude": "",
    "tags": []
  },
  {
    "id": "black-forest-brewing-company",
    "name": "Black Forest Brewing Company",
    "brewery_type": "brewpub",
    "street": "11590 Black Forest Rd Ste 50",
    "city": "Colorado Springs",
    "state": "Colorado",
    "postal_code": "80908-6000",
    "website_url": "http://www.blackforestbrewco.com",
    "phone": "7193962011",
    "created_at": "2018-07-24 01:33:03.812128",
    "updated_at": "2018-08-11 21:36:31.741851",
    "country": "United States",
    "longitude": "",
    "latitude": "",
    "tags": []
  },
  {
    "id": "bristol-brewing-co",
    "name": "Bristol Brewing Co",
    "brewery_type": "micro",
    "street": "1604 S Cascade Ave",
    "city": "Colorado Springs",
    "state": "Colorado",
    "postal_code": "80905-2237",
    "website_url": "http://www.bristolbrewing.com",
    "phone": "7196332555",
    "created_at": "2018-07-24 01:33:04.264527",
    "updated_at": "2018-08-24 00:22:15.982756",
    "country": "United States",
    "longitude": "-104.827401",
    "latitude": "38.8108617",
    "tags": []
  },
  {
    "id": "colorado-mountain-brewery-at-the-roundhouse",
    "name": "Colorado Mountain Brewery At the Roundhouse",
    "brewery_type": "brewpub",
    "street": "600 S 21st St Unit 180",
    "city": "Colorado Springs",
    "state": "Colorado",
    "postal_code": "80904-3714",
    "website_url": "http://www.cmbrew.com",
    "phone": "7194668240",
    "created_at": "2018-07-24 01:33:04.739885",
    "updated_at": "2018-08-11 21:36:34.205898",
    "country": "United States",
    "longitude": "",
    "latitude": "",
    "tags": []
  },
  {
    "id": "cerberus-brewing-company",
    "name": "Cerberus Brewing Company",
    "brewery_type": "brewpub",
    "street": "702 W Colorado Ave",
    "city": "Colorado Springs",
    "state": "Colorado",
    "postal_code": "80905-1539",
    "website_url": "http://www.cerberusbrewingco.com",
    "phone": "7196362337",
    "created_at": "2018-07-24 01:33:04.564838",
    "updated_at": "2018-08-24 00:22:30.193385",
    "country": "United States",
    "longitude": "-104.8374071",
    "latitude": "38.8330574",
    "tags": []
  },
  {
    "id": "cogstone-brewing-co",
    "name": "Cogstone Brewing Co",
    "brewery_type": "brewpub",
    "street": "3858 Village Seven Rd",
    "city": "Colorado Springs",
    "state": "Colorado",
    "postal_code": "80917-2801",
    "website_url": "http://www.cogstonebrewing.com",
    "phone": "7194186595",
    "created_at": "2018-07-24 01:33:04.678075",
    "updated_at": "2018-08-24 00:22:34.713188",
    "country": "United States",
    "longitude": "-104.755660034485",
    "latitude": "38.8795959531559",
    "tags": []
  },
  {
    "id": "colorado-mountain-brewery",
    "name": "Colorado Mountain Brewery",
    "brewery_type": "micro",
    "street": "1110 Interquest Pkwy",
    "city": "Colorado Springs",
    "state": "Colorado",
    "postal_code": "80921-4182",
    "website_url": "http://www.cmbrew.com",
    "phone": "7192717951",
    "created_at": "2018-07-24 01:33:04.727403",
    "updated_at": "2018-08-24 00:22:36.921062",
    "country": "United States",
    "longitude": "-104.808398853641",
    "latitude": "38.9910371644874",
    "tags": []
  },
  {
    "id": "fh-beerworks-east",
    "name": "FH Beerworks East",
    "brewery_type": "planning",
    "street": "",
    "city": "Colorado Springs",
    "state": "Colorado",
    "postal_code": "80915",
    "website_url": "",
    "phone": "7196406814",
    "created_at": "2018-07-24 01:33:05.412046",
    "updated_at": "2018-08-11 21:36:35.81928",
    "country": "United States",
    "longitude": "",
    "latitude": "",
    "tags": []
  },
  {
    "id": "dueces-wild-brewery",
    "name": "Dueces Wild Brewery",
    "brewery_type": "micro",
    "street": "660 Peterson Rd",
    "city": "Colorado Springs",
    "state": "Colorado",
    "postal_code": "80915-4002",
    "website_url": "http://www.dwbbrewery.com",
    "phone": "6079729260",
    "created_at": "2018-07-24 01:33:05.188898",
    "updated_at": "2018-08-24 00:22:54.271411",
    "country": "United States",
    "longitude": "-104.7034318",
    "latitude": "38.8877651",
    "tags": []
  },
  {
    "id": "fh-beerworks",
    "name": "FH Beerworks",
    "brewery_type": "micro",
    "street": "521 S Tejon St",
    "city": "Colorado Springs",
    "state": "Colorado",
    "postal_code": "80903-3928",
    "website_url": "",
    "phone": "7196406814",
    "created_at": "2018-07-24 01:33:05.400301",
    "updated_at": "2018-08-24 00:23:03.121025",
    "country": "United States",
    "longitude": "-104.8237318",
    "latitude": "38.8260086",
    "tags": []
  },
  {
    "id": "goat-patch-brewing-co",
    "name": "Goat Patch Brewing Co.",
    "brewery_type": "micro",
    "street": "2727 N Cascade Ave Ste 123",
    "city": "Colorado Springs",
    "state": "Colorado",
    "postal_code": "80907-6288",
    "website_url": "http://www.goatpatchbrewing.com",
    "phone": "7194714628",
    "created_at": "2018-07-24 01:33:05.544781",
    "updated_at": "2018-08-11 21:36:36.186487",
    "country": "United States",
    "longitude": "",
    "latitude": "",
    "tags": []
  },
  {
    "id": "gold-camp-brewing-co",
    "name": "Gold Camp Brewing Co",
    "brewery_type": "micro",
    "street": "1007 S Tejon St",
    "city": "Colorado Springs",
    "state": "Colorado",
    "postal_code": "80903-4238",
    "website_url": "",
    "phone": "7196950344",
    "created_at": "2018-07-24 01:33:05.556527",
    "updated_at": "2018-08-24 00:23:09.644367",
    "country": "United States",
    "longitude": "-104.823552",
    "latitude": "38.8195724",
    "tags": []
  },
  {
    "id": "iron-bird-brewing-co",
    "name": "Iron Bird Brewing Co.",
    "brewery_type": "brewpub",
    "street": "402 S Nevada Ave",
    "city": "Colorado Springs",
    "state": "Colorado",
    "postal_code": "80903-2110",
    "website_url": "http://www.ironbirdbrewing.com",
    "phone": "7194247002",
    "created_at": "2018-07-24 01:33:06.005612",
    "updated_at": "2018-08-24 00:23:27.880984",
    "country": "United States",
    "longitude": "-104.8223799",
    "latitude": "38.8280292",
    "tags": []
  },
  {
    "id": "nano-108-brewing-co",
    "name": "Nano 108 Brewing Co",
    "brewery_type": "micro",
    "street": "2402 Waynoka Rd",
    "city": "Colorado Springs",
    "state": "Colorado",
    "postal_code": "80915-1612",
    "website_url": "http://www.nano108brewing.com",
    "phone": "7195962337",
    "created_at": "2018-07-24 01:33:06.674146",
    "updated_at": "2018-08-11 21:36:39.005328",
    "country": "United States",
    "longitude": "",
    "latitude": "",
    "tags": []
  },
  {
    "id": "local-relic",
    "name": "Local Relic",
    "brewery_type": "brewpub",
    "street": "320 S Weber St",
    "city": "Colorado Springs",
    "state": "Colorado",
    "postal_code": "80903-2125",
    "website_url": "http://www.localrelic.com",
    "phone": "7192700077",
    "created_at": "2018-07-24 01:33:06.319212",
    "updated_at": "2018-08-24 00:23:41.389446",
    "country": "United States",
    "longitude": "-104.820386564551",
    "latitude": "38.82871975",
    "tags": []
  },
  {
    "id": "lost-friend-brewing-company",
    "name": "Lost Friend Brewing Company",
    "brewery_type": "micro",
    "street": "2458 Montebello Square Dr",
    "city": "Colorado Springs",
    "state": "Colorado",
    "postal_code": "80918-1974",
    "website_url": "http://www.lostfriendbrewing.com",
    "phone": "",
    "created_at": "2018-07-24 01:33:06.368104",
    "updated_at": "2018-08-24 00:23:43.836429",
    "country": "United States",
    "longitude": "-104.782362642736",
    "latitude": "38.9082661039119",
    "tags": []
  },
  {
    "id": "phantom-canyon-brewing-co",
    "name": "Phantom Canyon Brewing Co",
    "brewery_type": "brewpub",
    "street": "2 E Pikes Peak Ave",
    "city": "Colorado Springs",
    "state": "Colorado",
    "postal_code": "80903-1504",
    "website_url": "http://www.phantomcanyon.com",
    "phone": "7196352800",
    "created_at": "2018-07-24 01:33:07.105071",
    "updated_at": "2018-08-24 00:24:13.217611",
    "country": "United States",
    "longitude": "-104.824931398737",
    "latitude": "38.83423935",
    "tags": []
  },
  {
    "id": "rocky-mountain-brewery",
    "name": "Rocky Mountain Brewery",
    "brewery_type": "micro",
    "street": "625 Paonia St",
    "city": "Colorado Springs",
    "state": "Colorado",
    "postal_code": "80915-3727",
    "website_url": "http://www.rockymountainbrews.com",
    "phone": "7195281651",
    "created_at": "2018-07-24 01:33:07.597648",
    "updated_at": "2018-08-11 21:36:41.795104",
    "country": "United States",
    "longitude": "",
    "latitude": "",
    "tags": []
  },
  {
    "id": "rock-bottom-brewery-colorado-springs",
    "name": "Rock Bottom Brewery - Colorado Springs",
    "brewery_type": "brewpub",
    "street": "3316 Cinema Point Dr",
    "city": "Colorado Springs",
    "state": "Colorado",
    "postal_code": "80922",
    "website_url": "http://www.rockbottom.com",
    "phone": "7195503586",
    "created_at": "2018-07-24 01:33:07.503435",
    "updated_at": "2018-08-24 00:24:26.901791",
    "country": "United States",
    "longitude": "-104.718194",
    "latitude": "38.8811909",
    "tags": []
  },
  {
    "id": "storybook-brewing",
    "name": "Storybook Brewing",
    "brewery_type": "micro",
    "street": "3121 N El Paso St Ste A",
    "city": "Colorado Springs",
    "state": "Colorado",
    "postal_code": "80907-5469",
    "website_url": "http://www.storybookbrewing.com",
    "phone": "7196336266",
    "created_at": "2018-07-24 01:33:07.994993",
    "updated_at": "2018-08-11 21:36:42.917787",
    "country": "United States",
    "longitude": "",
    "latitude": "",
    "tags": []
  },
  {
    "id": "trinity-brewing",
    "name": "Trinity Brewing",
    "brewery_type": "brewpub",
    "street": "1466 Garden of The Gods Rd Ste 184",
    "city": "Colorado Springs",
    "state": "Colorado",
    "postal_code": "80907-9464",
    "website_url": "http://www.trinitybrew.com",
    "phone": "7196340029",
    "created_at": "2018-07-24 01:33:08.354278",
    "updated_at": "2018-08-11 21:36:43.596738",
    "country": "United States",
    "longitude": "",
    "latitude": "",
    "tags": []
  },
  {
    "id": "whistle-pig-brewing-company",
    "name": "Whistle Pig Brewing Company",
    "brewery_type": "micro",
    "street": "1840 Dominion Way",
    "city": "Colorado Springs",
    "state": "Colorado",
    "postal_code": "80918-1467",
    "website_url": "http://www.whistlepigbrewing.com",
    "phone": "7195981339",
    "created_at": "2018-07-24 01:33:08.797576",
    "updated_at": "2018-08-24 00:25:12.416393",
    "country": "United States",
    "longitude": "-104.793172305483",
    "latitude": "38.9237267524225",
    "tags": []
  },
  {
    "id": "brewery-in-planning-colorado-springs-co",
    "name": "Brewery in Planning - Colorado Springs, CO",
    "brewery_type": "planning",
    "street": "",
    "city": "Colorado Springs",
    "state": "Colorado",
    "postal_code": "80910",
    "website_url": "",
    "phone": "",
    "created_at": "2018-07-24 01:33:04.146747",
    "updated_at": "2018-08-11 21:36:32.62037",
    "country": "United States",
    "longitude": "",
    "latitude": "",
    "tags": []
  },
  {
    "id": "fossil-craft-beer-co",
    "name": "Fossil Craft Beer Co",
    "brewery_type": "micro",
    "street": "2845 Ore Mill Rd Ste 1",
    "city": "Colorado Springs",
    "state": "Colorado",
    "postal_code": "80904-3161",
    "website_url": "http://www.fossilcraftbeer.com",
    "phone": "7193758298",
    "created_at": "2018-07-24 01:33:05.472514",
    "updated_at": "2018-08-11 21:36:36.004969",
    "country": "United States",
    "longitude": "",
    "latitude": "",
    "tags": []
  },
  {
    "id": "red-leg-brewing-company",
    "name": "Red Leg Brewing Company",
    "brewery_type": "micro",
    "street": "4630 Forge Rd Ste B",
    "city": "Colorado Springs",
    "state": "Colorado",
    "postal_code": "80907-3556",
    "website_url": "http://www.redlegbrewingco.com",
    "phone": "7195983776",
    "created_at": "2018-07-24 01:33:07.332116",
    "updated_at": "2018-08-11 21:36:41.03047",
    "country": "United States",
    "longitude": "",
    "latitude": "",
    "tags": []
  },
  {
    "id": "smiling-toad-brewery",
    "name": "Smiling Toad Brewery",
    "brewery_type": "micro",
    "street": "1757 S 8th St Ste 100",
    "city": "Colorado Springs",
    "state": "Colorado",
    "postal_code": "80905-1926",
    "website_url": "http://www.smilingtoadbrewery.com",
    "phone": "7194182936",
    "created_at": "2018-07-24 01:33:07.765114",
    "updated_at": "2018-08-11 21:36:42.374357",
    "country": "United States",
    "longitude": "",
    "latitude": "",
    "tags": []
  }
]