[
  {
    "id": "burgundian-brewing-co",
    "name": "Burgundian Brewing Co.",
    "brewery_type": "micro",
    "street": "4725 Lipan St",
    "city": "Denver",
    "state": "Colorado",
    "postal_code": "80211-2334",
    "website_url": "http://www.facebook.com/BurgundianBrewing",
    "phone": "4704400420",
    "created_at": "2018-07-24 01:33:04.371662",
    "updated_at": "2018-08-24 00:22:21.710582",
    "country": "United States",
    "longitude": "-105.002409475111",
    "latitude": "39.7825168",
    "tags": []
  },
  {
    "id": "chain-reaction-brewing-company",
    "name": "Chain Reaction Brewing Company",
    "brewery_type": "micro",
    "street": "902 S Lipan St",
    "city": "Denver",
    "state": "Colorado",
    "postal_code": "80223-2717",
    "website_url": "http://www.chainreactionbrewingco.com",
    "phone": "3039220960",
    "created_at": "2018-07-24 01:33:04.590933",
    "updated_at": "2018-08-24 00:22:31.364479",
    "country": "United States",
    "longitude": "-105.001629",
    "latitude": "39.698793755102",
    "tags": []
  },
  {
    "id": "ratio-beerworks",
    "name": "Ratio Beerworks",
    "brewery_type": "micro",
    "street": "2920 Larimer St",
    "city": "Denver",
    "state": "Colorado",
    "postal_code": "80205-2309",
    "website_url": "http://ratiobeerworks.com",
    "phone": "3102669264",
    "created_at": "2018-07-24 01:33:07.320226",
    "updated_at": "2018-08-24 00:24:20.330064",
    "country": "United States",
    "longitude": "-104.9812181",
    "latitude": "39.7615104",
    "tags": []
  },
  {
    "id": "the-grateful-gnome-sandwich-shoppe-and-brewery",
    "name": "The Grateful Gnome Sandwich Shoppe and Brewery",
    "brewery_type": "brewpub",
    "street": "4369 Stuart St",
    "city": "Denver",
    "state": "Colorado",
    "postal_code": "80212-2335",
    "website_url": "http://www.thegratefulgnome.com",
    "phone": "7205986863",
    "created_at": "2018-07-24 01:33:08.124528",
    "updated_at": "2018-08-24 00:24:51.406501",
    "country": "United States",
    "longitude": "-105.0432655",
    "latitude": "39.7764426",
    "tags": []
  },
  {
    "id": "the-larimer-beer-company",
    "name": "The Larimer Beer Company",
    "brewery_type": "contract",
    "street": "3620 Newport St",
    "city": "Denver",
    "state": "Colorado",
    "postal_code": "80207-1508",
    "website_url": "http://www.thelarimer.com",
    "phone": "7205076369",
    "created_at": "2018-07-24 01:33:08.150932",
    "updated_at": "2018-08-24 00:24:52.553094",
    "country": "United States",
    "longitude": "-104.909348665308",
    "latitude": "39.7677376780982",
    "tags": []
  },
  {
    "id": "alpine-dog-brewing-co",
    "name": "Alpine Dog Brewing Co",
    "brewery_type": "micro",
    "street": "1505 N Ogden St",
    "city": "Denver",
    "state": "Colorado",
    "postal_code": "80218-1405",
    "website_url": "http://www.alpinedogbrewery.com",
    "phone": "3038321245",
    "created_at": "2018-07-24 01:33:03.409531",
    "updated_at": "2018-08-11 21:36:30.661113",
    "country": "United States",
    "longitude": "",
    "latitude": "",
    "tags": []
  },
  {
    "id": "amalgam-brewing",
    "name": "Amalgam Brewing",
    "brewery_type": "proprietor",
    "street": "6381 Beach St Unit A",
    "city": "Denver",
    "state": "Colorado",
    "postal_code": "80221-2036",
    "website_url": "http://www.amalgambrewing.com",
    "phone": "",
    "created_at": "2018-07-24 01:33:03.446792",
    "updated_at": "2018-08-11 21:36:30.778173",
    "country": "United States",
    "longitude": "",
    "latitude": "",
    "tags": []
  },
  {
    "id": "10-barrel-brewing-co-denver",
    "name": "10 Barrel Brewing Co - Denver",
    "brewery_type": "large",
    "street": "2620 Walnut St",
    "city": "Denver",
    "state": "Colorado",
    "postal_code": "80205-2231",
    "website_url": "",
    "phone": "7205738992",
    "created_at": "2018-07-24 01:33:03.23934",
    "updated_at": "2018-08-24 00:05:11.372618",
    "country": "United States",
    "longitude": "-104.9853655",
    "latitude": "39.7592508",
    "tags": []
  },
  {
    "id": "14er-brewing-company",
    "name": "14er Brewing Company",
    "brewery_type": "proprietor",
    "street": "2801 Walnut St",
    "city": "Denver",
    "state": "Colorado",
    "postal_code": "80205-2235",
    "website_url": "http://www.14erBrewing.com",
    "phone": "7207731437",
    "created_at": "2018-07-24 01:33:03.276983",
    "updated_at": "2018-08-24 00:05:13.974479",
    "country": "United States",
    "longitude": "-104.9839636",
    "latitude": "39.7614112",
    "tags": []
  },
  {
    "id": "aero-craft-brewing",
    "name": "Aero Craft Brewing",
    "brewery_type": "planning",
    "street": "",
    "city": "Denver",
    "state": "Colorado",
    "postal_code": "80212-2199",
    "website_url": "http://www.aerocraft.beer",
    "phone": "3039185446",
    "created_at": "2018-07-24 01:33:03.39705",
    "updated_at": "2018-08-24 00:05:21.032568",
    "country": "United States",
    "longitude": "-104.984696",
    "latitude": "39.7391428",
    "tags": []
  },
  {
    "id": "banded-oak-brewing-company",
    "name": "Banded Oak Brewing Company",
    "brewery_type": "brewpub",
    "street": "470 N Broadway",
    "city": "Denver",
    "state": "Colorado",
    "postal_code": "80203-3404",
    "website_url": "http://Bandedoakbrewing.com",
    "phone": "7204798033",
    "created_at": "2018-07-24 01:33:03.602781",
    "updated_at": "2018-08-24 00:05:34.324318",
    "country": "United States",
    "longitude": "-104.9874187",
    "latitude": "39.7282897",
    "tags": []
  },
  {
    "id": "bierstadt-lagerhaus",
    "name": "Bierstadt Lagerhaus",
    "brewery_type": "brewpub",
    "street": "2875 Blake St",
    "city": "Denver",
    "state": "Colorado",
    "postal_code": "80205-2210",
    "website_url": "http://www.bierstadtlager.com",
    "phone": "7205707824",
    "created_at": "2018-07-24 01:33:03.699799",
    "updated_at": "2018-08-24 00:05:40.35365",
    "country": "United States",
    "longitude": "-104.9838084",
    "latitude": "39.7630094",
    "tags": []
  },
  {
    "id": "brewery-in-planning-denver",
    "name": "Brewery In Planning - Denver",
    "brewery_type": "planning",
    "street": "",
    "city": "Denver",
    "state": "Colorado",
    "postal_code": "80228-5932",
    "website_url": "",
    "phone": "3033498158",
    "created_at": "2018-07-24 01:33:04.169661",
    "updated_at": "2018-08-11 21:36:32.662653",
    "country": "United States",
    "longitude": "",
    "latitude": "",
    "tags": []
  },
  {
    "id": "brewery-in-planning-denver",
    "name": "Brewery in Planning - Denver",
    "brewery_type": "planning",
    "street": "",
    "city": "Denver",
    "state": "Colorado",
    "postal_code": "80209-0383",
    "website_url": "",
    "phone": "",
    "created_at": "2018-07-24 01:33:04.181059",
    "updated_at": "2018-08-11 21:36:32.836776",
    "country": "United States",
    "longitude": "",
    "latitude": "",
    "tags": []
  },
  {
    "id": "briar-common-brewery",
    "name": "Briar Common Brewery",
    "brewery_type": "brewpub",
    "street": "2298 N Clay St",
    "city": "Denver",
    "state": "Colorado",
    "postal_code": "80211-5122",
    "website_url": "http://www.briarcommon.com",
    "phone": "7204703731",
    "created_at": "2018-07-24 01:33:04.252979",
    "updated_at": "2018-08-11 21:36:33.033246",
    "country": "United States",
    "longitude": "",
    "latitude": "",
    "tags": []
  },
  {
    "id": "bruz-beers",
    "name": "Bruz Beers",
    "brewery_type": "micro",
    "street": "1675 W 67th Ave Ste 100",
    "city": "Denver",
    "state": "Colorado",
    "postal_code": "80221-2595",
    "website_url": "http://www.bruzbeers.com",
    "phone": "3036502337",
    "created_at": "2018-07-24 01:33:04.335942",
    "updated_at": "2018-08-11 21:36:33.232936",
    "country": "United States",
    "longitude": "",
    "latitude": "",
    "tags": []
  },
  {
    "id": "black-beak-brewing",
    "name": "Black Beak Brewing",
    "brewery_type": "planning",
    "street": "",
    "city": "Denver",
    "state": "Colorado",
    "postal_code": "80237-1907",
    "website_url": "",
    "phone": "3032107836",
    "created_at": "2018-07-24 01:33:03.77491",
    "updated_at": "2018-08-24 00:05:45.920842",
    "country": "United States",
    "longitude": "-104.984696",
    "latitude": "39.7391428",
    "tags": []
  },
  {
    "id": "black-project-spontaneous-and-wild-ales",
    "name": "Black Project Spontaneous & Wild Ales",
    "brewery_type": "micro",
    "street": "1290 S Broadway",
    "city": "Denver",
    "state": "Colorado",
    "postal_code": "80210-1504",
    "website_url": "http://www.blackprojectbeer.com",
    "phone": "7203342873",
    "created_at": "2018-07-24 01:33:03.825422",
    "updated_at": "2018-08-24 00:05:48.991411",
    "country": "United States",
    "longitude": "-104.9872018",
    "latitude": "39.6933607",
    "tags": []
  },
  {
    "id": "black-shirt-brewing-co",
    "name": "Black Shirt Brewing Co",
    "brewery_type": "brewpub",
    "street": "3719 Walnut St",
    "city": "Denver",
    "state": "Colorado",
    "postal_code": "80205-2436",
    "website_url": "http://www.blackshirtbrewingco.com",
    "phone": "3039932799",
    "created_at": "2018-07-24 01:33:03.839761",
    "updated_at": "2018-08-24 00:05:49.889821",
    "country": "United States",
    "longitude": "-104.9729604",
    "latitude": "39.7698142",
    "tags": []
  },
  {
    "id": "black-sky-brewery",
    "name": "Black Sky Brewery",
    "brewery_type": "brewpub",
    "street": "490 Santa Fe Dr",
    "city": "Denver",
    "state": "Colorado",
    "postal_code": "80204-5024",
    "website_url": "http://www.blackskybrewing.com",
    "phone": "9702154536",
    "created_at": "2018-07-24 01:33:03.853897",
    "updated_at": "2018-08-24 00:05:50.833902",
    "country": "United States",
    "longitude": "-104.9983183",
    "latitude": "39.7239431",
    "tags": []
  },
  {
    "id": "blue-moon-brewery",
    "name": "Blue Moon Brewery",
    "brewery_type": "large",
    "street": "3750 Chestnut Pl",
    "city": "Denver",
    "state": "Colorado",
    "postal_code": "80216-3632",
    "website_url": "",
    "phone": "",
    "created_at": "2018-07-24 01:33:03.867029",
    "updated_at": "2018-08-24 00:05:51.775425",
    "country": "United States",
    "longitude": "-104.9769417",
    "latitude": "39.7735561",
    "tags": []
  },
  {
    "id": "bull-and-bush-brewery",
    "name": "Bull & Bush Brewery",
    "brewery_type": "brewpub",
    "street": "4700 E Cherry Creek South Dr",
    "city": "Denver",
    "state": "Colorado",
    "postal_code": "80246-1819",
    "website_url": "http://www.bullandbush.com",
    "phone": "3037590333",
    "created_at": "2018-07-24 01:33:04.359406",
    "updated_at": "2018-08-24 00:22:21.159947",
    "country": "United States",
    "longitude": "-104.9488456",
    "latitude": "39.7116689",
    "tags": []
  },
  {
    "id": "burns-family-artisan-ales",
    "name": "Burns Family Artisan Ales",
    "brewery_type": "planning",
    "street": "",
    "city": "Denver",
    "state": "Colorado",
    "postal_code": "80219-1655",
    "website_url": "",
    "phone": "2482242697",
    "created_at": "2018-07-24 01:33:04.39486",
    "updated_at": "2018-08-11 21:36:33.387124",
    "country": "United States",
    "longitude": "",
    "latitude": "",
    "tags": []
  },
  {
    "id": "chophouse-and-brewery-denver",
    "name": "ChopHouse and Brewery - Denver",
    "brewery_type": "brewpub",
    "street": "1735 19th St Ste 100",
    "city": "Denver",
    "state": "Colorado",
    "postal_code": "80202-6002",
    "website_url": "http://www.craftworksrestaurants.com",
    "phone": "3032960800",
    "created_at": "2018-07-24 01:33:04.616049",
    "updated_at": "2018-08-11 21:36:33.897188",
    "country": "United States",
    "longitude": "",
    "latitude": "",
    "tags": []
  },
  {
    "id": "co-brew",
    "name": "CO-Brew",
    "brewery_type": "micro",
    "street": "1133 N Broadway",
    "city": "Denver",
    "state": "Colorado",
    "postal_code": "80203-2106",
    "website_url": "http://www.cobrewdenver.com",
    "phone": "7204854959",
    "created_at": "2018-07-24 01:33:04.652647",
    "updated_at": "2018-08-11 21:36:33.995595",
    "country": "United States",
    "longitude": "",
    "latitude": "",
    "tags": []
  },
  {
    "id": "copper-kettle-brewing-company",
    "name": "Copper Kettle Brewing Company",
    "brewery_type": "micro",
    "street": "1338 S Valentia St Ste 100",
    "city": "Denver",
    "state": "Colorado",
    "postal_code": "80247-2167",
    "website_url": "http://www.copperkettledenver.com",
    "phone": "7204432522",
    "created_at": "2018-07-24 01:33:04.806487",
    "updated_at": "2018-08-11 21:36:34.34865",
    "country": "United States",
    "longitude": "",
    "latitude": "",
    "tags": []
  },
  {
    "id": "crooked-stave-artisan-beer-project",
    "name": "Crooked Stave Artisan Beer Project",
    "brewery_type": "micro",
    "street": "1441 W 46th Ave Unit 17",
    "city": "Denver",
    "state": "Colorado",
    "postal_code": "80211-2338",
    "website_url": "http://www.crookedstave.com",
    "phone": "7205083292",
    "created_at": "2018-07-24 01:33:04.853312",
    "updated_at": "2018-08-11 21:36:34.465083",
    "country": "United States",
    "longitude": "",
    "latitude": "",
    "tags": []
  },
  {
    "id": "call-to-arms-brewing-company",
    "name": "Call To Arms Brewing Company",
    "brewery_type": "micro",
    "street": "4526 Tennyson St",
    "city": "Denver",
    "state": "Colorado",
    "postal_code": "80212-2527",
    "website_url": "http://www.facebook.com/calltoarmsbrewing",
    "phone": "",
    "created_at": "2018-07-24 01:33:04.461837",
    "updated_at": "2018-08-24 00:22:25.202263",
    "country": "United States",
    "longitude": "-105.0435373",
    "latitude": "39.7788541",
    "tags": []
  },
  {
    "id": "cerebral-brewing",
    "name": "Cerebral Brewing",
    "brewery_type": "micro",
    "street": "1477 Monroe St",
    "city": "Denver",
    "state": "Colorado",
    "postal_code": "80206-2708",
    "website_url": "http://www.cerebralbrewing.com",
    "phone": "3039277365",
    "created_at": "2018-07-24 01:33:04.57885",
    "updated_at": "2018-08-24 00:22:30.77605",
    "country": "United States",
    "longitude": "-104.945178326531",
    "latitude": "39.7396825306122",
    "tags": []
  },
  {
    "id": "crazy-mountain-brewing-co",
    "name": "Crazy Mountain Brewing Co",
    "brewery_type": "regional",
    "street": "471 Kalamath St",
    "city": "Denver",
    "state": "Colorado",
    "postal_code": "80204-5019",
    "website_url": "http://www.crazymountainbrewery.com",
    "phone": "9709263009",
    "created_at": "2018-07-24 01:33:04.829982",
    "updated_at": "2018-08-24 00:22:41.560598",
    "country": "United States",
    "longitude": "-105.000292571429",
    "latitude": "39.7236117142857",
    "tags": []
  },
  {
    "id": "declaration-brewing-company",
    "name": "Declaration Brewing Company",
    "brewery_type": "micro",
    "street": "2030 S Cherokee St",
    "city": "Denver",
    "state": "Colorado",
    "postal_code": "80223-3917",
    "website_url": "http://www.declarationbrewing.com",
    "phone": "3039557410",
    "created_at": "2018-07-24 01:33:04.938867",
    "updated_at": "2018-08-24 00:22:46.459568",
    "country": "United States",
    "longitude": "-104.991005612245",
    "latitude": "39.6797315510204",
    "tags": []
  },
  {
    "id": "denver-beer-co",
    "name": "Denver Beer Co",
    "brewery_type": "micro",
    "street": "1695 Platte St",
    "city": "Denver",
    "state": "Colorado",
    "postal_code": "80202-1123",
    "website_url": "http://www.denverbeerco.com",
    "phone": "3034332739",
    "created_at": "2018-07-24 01:33:04.963119",
    "updated_at": "2018-08-24 00:22:46.987289",
    "country": "United States",
    "longitude": "-105.0072502",
    "latitude": "39.7583143",
    "tags": []
  },
  {
    "id": "denver-beer-co-canworks",
    "name": "Denver Beer Co Canworks",
    "brewery_type": "micro",
    "street": "4455 Jason St",
    "city": "Denver",
    "state": "Colorado",
    "postal_code": "80211-2412",
    "website_url": "",
    "phone": "7202954781",
    "created_at": "2018-07-24 01:33:04.975267",
    "updated_at": "2018-08-24 00:22:47.52556",
    "country": "United States",
    "longitude": "-105.0008302",
    "latitude": "39.7769429",
    "tags": []
  },
  {
    "id": "desteeg-brewing-co/blind-faith-brewing",
    "name": "DeSteeg Brewing Co/Blind Faith Brewing",
    "brewery_type": "micro",
    "street": "4342 Tennyson St",
    "city": "Denver",
    "state": "Colorado",
    "postal_code": "80212-2308",
    "website_url": "http://www.desteegbrewing.com",
    "phone": "3034849698",
    "created_at": "2018-07-24 01:33:04.999697",
    "updated_at": "2018-08-24 00:22:48.610189",
    "country": "United States",
    "longitude": "-105.0438193",
    "latitude": "39.7760619",
    "tags": []
  },
  {
    "id": "diebolt-brewing",
    "name": "Diebolt Brewing",
    "brewery_type": "micro",
    "street": "3855 Mariposa St",
    "city": "Denver",
    "state": "Colorado",
    "postal_code": "80211-2647",
    "website_url": "http://www.dieboltbrewing.com",
    "phone": "7206435940",
    "created_at": "2018-07-24 01:33:05.04179",
    "updated_at": "2018-08-24 00:22:49.109277",
    "country": "United States",
    "longitude": "-105.0032079",
    "latitude": "39.770332",
    "tags": []
  },
  {
    "id": "dos-luces-brewery",
    "name": "Dos Luces Brewery",
    "brewery_type": "contract",
    "street": "1236 S Broadway",
    "city": "Denver",
    "state": "Colorado",
    "postal_code": "80210-1504",
    "website_url": "http://www.dosluces.com",
    "phone": "3037254527",
    "created_at": "2018-07-24 01:33:05.11574",
    "updated_at": "2018-08-24 00:22:51.524144",
    "country": "United States",
    "longitude": "-104.9874923",
    "latitude": "39.6830067",
    "tags": []
  },
  {
    "id": "epic-brewing-co-llc",
    "name": "Epic Brewing Co., LLC",
    "brewery_type": "micro",
    "street": "3001 Walnut St",
    "city": "Denver",
    "state": "Colorado",
    "postal_code": "80205-2324",
    "website_url": "http://www.epicbrewing.com",
    "phone": "7205397410",
    "created_at": "2018-07-24 01:33:05.312576",
    "updated_at": "2018-08-24 00:22:59.35387",
    "country": "United States",
    "longitude": "-104.9813405",
    "latitude": "39.7632294",
    "tags": []
  },
  {
    "id": "factotum-brewhouse",
    "name": "Factotum Brewhouse",
    "brewery_type": "micro",
    "street": "3845 Lipan St",
    "city": "Denver",
    "state": "Colorado",
    "postal_code": "80211-2651",
    "website_url": "http://www.factotumbrewhouse.com",
    "phone": "7204414735",
    "created_at": "2018-07-24 01:33:05.364815",
    "updated_at": "2018-08-24 00:23:01.453087",
    "country": "United States",
    "longitude": "-105.0020653",
    "latitude": "39.7702043",
    "tags": []
  },
  {
    "id": "fermaentra",
    "name": "Fermaentra",
    "brewery_type": "micro",
    "street": "1715 E Evans Ave",
    "city": "Denver",
    "state": "Colorado",
    "postal_code": "80210-4601",
    "website_url": "http://www.fermaentra.com",
    "phone": "3039550736",
    "created_at": "2018-07-24 01:33:05.388348",
    "updated_at": "2018-08-24 00:23:02.588704",
    "country": "United States",
    "longitude": "-104.9428631",
    "latitude": "39.6784277",
    "tags": []
  },
  {
    "id": "goldspot-brewing-co",
    "name": "Goldspot Brewing Co",
    "brewery_type": "micro",
    "street": "4970 Lowell Blvd",
    "city": "Denver",
    "state": "Colorado",
    "postal_code": "80221-1028",
    "website_url": "http://www.goldspotbrewing.com",
    "phone": "3039555657",
    "created_at": "2018-07-24 01:33:05.594111",
    "updated_at": "2018-08-24 00:23:11.468822",
    "country": "United States",
    "longitude": "-105.0343545",
    "latitude": "39.7868924",
    "tags": []
  },
  {
    "id": "good-river-beer-company",
    "name": "Good River Beer Company",
    "brewery_type": "contract",
    "street": "1790 S Bannock St.",
    "city": "Denver",
    "state": "Colorado",
    "postal_code": "80223",
    "website_url": "http://www.grbeerco.com",
    "phone": "6023697442",
    "created_at": "2018-07-24 01:33:05.606986",
    "updated_at": "2018-08-24 00:23:12.094167",
    "country": "United States",
    "longitude": "-104.98981685351",
    "latitude": "39.6842121795073",
    "tags": []
  },
  {
    "id": "grandmas-house",
    "name": "Grandma's House",
    "brewery_type": "micro",
    "street": "1710 S Broadway",
    "city": "Denver",
    "state": "Colorado",
    "postal_code": "80210-3102",
    "website_url": "http://www.grandmasbeer.com",
    "phone": "3035786754",
    "created_at": "2018-07-24 01:33:05.666381",
    "updated_at": "2018-08-24 00:23:14.926573",
    "country": "United States",
    "longitude": "-104.987273714286",
    "latitude": "39.7435056734694",
    "tags": []
  },
  {
    "id": "great-divide-brewing-co",
    "name": "Great Divide Brewing Co",
    "brewery_type": "regional",
    "street": "2201 Arapahoe St",
    "city": "Denver",
    "state": "Colorado",
    "postal_code": "80205-2512",
    "website_url": "http://www.greatdivide.com",
    "phone": "3032969460",
    "created_at": "2018-07-24 01:33:05.693326",
    "updated_at": "2018-08-24 00:23:15.857846",
    "country": "United States",
    "longitude": "-104.9885279",
    "latitude": "39.7539229",
    "tags": []
  },
  {
    "id": "hogshead-brewery",
    "name": "Hogshead Brewery",
    "brewery_type": "micro",
    "street": "4460 W 29th Ave",
    "city": "Denver",
    "state": "Colorado",
    "postal_code": "80212-3015",
    "website_url": "http://www.hogsheadbrewery.com",
    "phone": "3038869655",
    "created_at": "2018-07-24 01:33:05.88608",
    "updated_at": "2018-08-24 00:23:24.567537",
    "country": "United States",
    "longitude": "-105.04506",
    "latitude": "39.758232",
    "tags": []
  },
  {
    "id": "j-moes-brewing-company",
    "name": "J Moe's Brewing Company",
    "brewery_type": "brewpub",
    "street": "7314 Washington St",
    "city": "Denver",
    "state": "Colorado",
    "postal_code": "80229-6302",
    "website_url": "http://www.creedebeer.com",
    "phone": "3032874824",
    "created_at": "2018-07-24 01:33:06.065316",
    "updated_at": "2018-08-24 00:23:30.114668",
    "country": "United States",
    "longitude": "-104.9791943",
    "latitude": "39.7800007",
    "tags": []
  },
  {
    "id": "jagged-mountain-brewery",
    "name": "Jagged Mountain Brewery",
    "brewery_type": "micro",
    "street": "1139 20th St",
    "city": "Denver",
    "state": "Colorado",
    "postal_code": "80202-1811",
    "website_url": "http://www.jaggedmountainbrewery.com",
    "phone": "7206892337",
    "created_at": "2018-07-24 01:33:06.093055",
    "updated_at": "2018-08-24 00:23:31.988753",
    "country": "United States",
    "longitude": "-104.9913673",
    "latitude": "39.7522457",
    "tags": []
  },
  {
    "id": "lowdown-brewery-kitchen",
    "name": "Lowdown Brewery + Kitchen",
    "brewery_type": "brewpub",
    "street": "800 N Lincoln St Unit 2",
    "city": "Denver",
    "state": "Colorado",
    "postal_code": "80203-2710",
    "website_url": "http://www.lowdownbrewery.com",
    "phone": "7205248065",
    "created_at": "2018-07-24 01:33:06.404697",
    "updated_at": "2018-08-11 21:36:38.396464",
    "country": "United States",
    "longitude": "",
    "latitude": "",
    "tags": []
  },
  {
    "id": "lady-justice-brewing-company",
    "name": "Lady Justice Brewing Company",
    "brewery_type": "micro",
    "street": "4375 Eaton St",
    "city": "Denver",
    "state": "Colorado",
    "postal_code": "80212-7308",
    "website_url": "http://www.ladyjusticebrewing.com",
    "phone": "",
    "created_at": "2018-07-24 01:33:06.209657",
    "updated_at": "2018-08-24 00:23:36.524757",
    "country": "United States",
    "longitude": "-105.0593393",
    "latitude": "39.7909855",
    "tags": []
  },
  {
    "id": "little-machine",
    "name": "Little Machine",
    "brewery_type": "micro",
    "street": "2924 W 20th Ave",
    "city": "Denver",
    "state": "Colorado",
    "postal_code": "80211-4622",
    "website_url": "http://www.littlemachinebeer.com",
    "phone": "3032847893",
    "created_at": "2018-07-24 01:33:06.296827",
    "updated_at": "2018-08-24 00:23:40.257771",
    "country": "United States",
    "longitude": "-105.0243557",
    "latitude": "39.7474051",
    "tags": []
  },
  {
    "id": "long-table-brewing",
    "name": "Long Table Brewing",
    "brewery_type": "micro",
    "street": "2895 Fairfax St",
    "city": "Denver",
    "state": "Colorado",
    "postal_code": "80207-2748",
    "website_url": "",
    "phone": "",
    "created_at": "2018-07-24 01:33:06.355077",
    "updated_at": "2018-08-24 00:23:43.324958",
    "country": "United States",
    "longitude": "-104.928343",
    "latitude": "39.7581802448792",
    "tags": []
  },
  {
    "id": "mockery-brewing",
    "name": "Mockery Brewing",
    "brewery_type": "micro",
    "street": "3501 Delgany St",
    "city": "Denver",
    "state": "Colorado",
    "postal_code": "80216-3617",
    "website_url": "http://Mockerybrewing.com",
    "phone": "3039532058",
    "created_at": "2018-07-24 01:33:06.585713",
    "updated_at": "2018-08-24 00:23:52.348084",
    "country": "United States",
    "longitude": "-104.9797349",
    "latitude": "39.7712389",
    "tags": []
  },
  {
    "id": "new-belgium-the-woods-at-the-source",
    "name": "New Belgium - The Woods At The Source",
    "brewery_type": "planning",
    "street": "",
    "city": "Denver",
    "state": "Colorado",
    "postal_code": "80216-5021",
    "website_url": "http://www.newbelgium.com/Brewery/TheWoods",
    "phone": "",
    "created_at": "2018-07-24 01:33:06.696973",
    "updated_at": "2018-08-11 21:36:39.107897",
    "country": "United States",
    "longitude": "",
    "latitude": "",
    "tags": []
  },
  {
    "id": "oasis-brewery",
    "name": "Oasis Brewery",
    "brewery_type": "micro",
    "street": "3257 N Lowell Blvd",
    "city": "Denver",
    "state": "Colorado",
    "postal_code": "80211",
    "website_url": "http://www.oasisbeer.com",
    "phone": "3033174369",
    "created_at": "2018-07-24 01:33:06.768536",
    "updated_at": "2018-08-11 21:36:39.331072",
    "country": "United States",
    "longitude": "",
    "latitude": "",
    "tags": []
  },
  {
    "id": "novel-strand-brewing",
    "name": "Novel Strand Brewing",
    "brewery_type": "micro",
    "street": "305 W 1st Ave",
    "city": "Denver",
    "state": "Colorado",
    "postal_code": "80223-1509",
    "website_url": "",
    "phone": "5189613217",
    "created_at": "2018-07-24 01:33:06.756534",
    "updated_at": "2018-08-24 00:23:59.032238",
    "country": "United States",
    "longitude": "-104.992318204082",
    "latitude": "39.718471",
    "tags": []
  },
  {
    "id": "odell-brewing-co-denver",
    "name": "Odell Brewing Co - Denver",
    "brewery_type": "micro",
    "street": "2945 Larimer St",
    "city": "Denver",
    "state": "Colorado",
    "postal_code": "80205-2308",
    "website_url": "",
    "phone": "",
    "created_at": "2018-07-24 01:33:06.814316",
    "updated_at": "2018-08-24 00:24:02.084264",
    "country": "United States",
    "longitude": "-104.9810078",
    "latitude": "39.7621447",
    "tags": []
  },
  {
    "id": "our-mutual-friend-brewing",
    "name": "Our Mutual Friend Brewing",
    "brewery_type": "micro",
    "street": "2810 Larimer St",
    "city": "Denver",
    "state": "Colorado",
    "postal_code": "80205-2223",
    "website_url": "http://www.omfbeer.com",
    "phone": "3032963441",
    "created_at": "2018-07-24 01:33:06.881926",
    "updated_at": "2018-08-24 00:24:05.331537",
    "country": "United States",
    "longitude": "-104.9825596",
    "latitude": "39.7605777",
    "tags": []
  },
  {
    "id": "pints-pub-brewery-and-freehouse",
    "name": "Pints Pub Brewery and Freehouse",
    "brewery_type": "brewpub",
    "street": "221 W 13th Ave",
    "city": "Denver",
    "state": "Colorado",
    "postal_code": "80204-2711",
    "website_url": "http://www.pintspub.com",
    "phone": "3035347543",
    "created_at": "2018-07-24 01:33:07.151425",
    "updated_at": "2018-08-24 00:24:14.767607",
    "country": "United States",
    "longitude": "-104.9908538",
    "latitude": "39.737018",
    "tags": []
  },
  {
    "id": "platt-park-brewing-co",
    "name": "Platt Park Brewing Co.",
    "brewery_type": "micro",
    "street": "1875 S Pearl St",
    "city": "Denver",
    "state": "Colorado",
    "postal_code": "80210-3136",
    "website_url": "http://www.plattparkbrewing.com",
    "phone": "3039686674",
    "created_at": "2018-07-24 01:33:07.176607",
    "updated_at": "2018-08-24 00:24:15.845813",
    "country": "United States",
    "longitude": "-104.980596679125",
    "latitude": "39.6826741641985",
    "tags": []
  },
  {
    "id": "prost-brewing",
    "name": "Prost Brewing",
    "brewery_type": "micro",
    "street": "2540 19th St",
    "city": "Denver",
    "state": "Colorado",
    "postal_code": "80211-3910",
    "website_url": "http://www.prostbrewing.com",
    "phone": "3037291175",
    "created_at": "2018-07-24 01:33:07.200742",
    "updated_at": "2018-08-24 00:24:16.842841",
    "country": "United States",
    "longitude": "-105.0067758",
    "latitude": "39.761363",
    "tags": []
  },
  {
    "id": "raices-brewing-co",
    "name": "Raices Brewing Co",
    "brewery_type": "planning",
    "street": "",
    "city": "Denver",
    "state": "Colorado",
    "postal_code": "80204",
    "website_url": "http://www.raicesbrewing.com",
    "phone": "2024237060",
    "created_at": "2018-07-24 01:33:07.261132",
    "updated_at": "2018-08-11 21:36:40.839684",
    "country": "United States",
    "longitude": "",
    "latitude": "",
    "tags": []
  },
  {
    "id": "red-truck-beer-company",
    "name": "Red Truck Beer Company",
    "brewery_type": "planning",
    "street": "",
    "city": "Denver",
    "state": "Colorado",
    "postal_code": "80216-3612",
    "website_url": "",
    "phone": "",
    "created_at": "2018-07-24 01:33:07.35639",
    "updated_at": "2018-08-11 21:36:41.096109",
    "country": "United States",
    "longitude": "",
    "latitude": "",
    "tags": []
  },
  {
    "id": "river-north-brewery",
    "name": "River North Brewery",
    "brewery_type": "micro",
    "street": "6021 Washington St Unit A",
    "city": "Denver",
    "state": "Colorado",
    "postal_code": "80216-1153",
    "website_url": "http://www.rivernorthbrewery.com",
    "phone": "7858656057",
    "created_at": "2018-07-24 01:33:07.451311",
    "updated_at": "2018-08-11 21:36:41.367154",
    "country": "United States",
    "longitude": "",
    "latitude": "",
    "tags": []
  },
  {
    "id": "river-north-brewery-rino",
    "name": "River North Brewery - RiNo",
    "brewery_type": "planning",
    "street": "",
    "city": "Denver",
    "state": "Colorado",
    "postal_code": "80205-2440",
    "website_url": "http://www.rivernorthbrewery.com",
    "phone": "7858656057",
    "created_at": "2018-07-24 01:33:07.463596",
    "updated_at": "2018-08-11 21:36:41.416041",
    "country": "United States",
    "longitude": "",
    "latitude": "",
    "tags": []
  },
  {
    "id": "rock-bottom-brewery-denver",
    "name": "Rock Bottom Brewery - Denver",
    "brewery_type": "brewpub",
    "street": "1001 16th St Ste 100",
    "city": "Denver",
    "state": "Colorado",
    "postal_code": "80265-0100",
    "website_url": "http://www.rockbottom.com",
    "phone": "3035347616",
    "created_at": "2018-07-24 01:33:07.515026",
    "updated_at": "2018-08-11 21:36:41.537667",
    "country": "United States",
    "longitude": "",
    "latitude": "",
    "tags": []
  },
  {
    "id": "rustica-brewing-company",
    "name": "Rustica Brewing Company",
    "brewery_type": "micro",
    "street": "2370 S Kalamath St Unit A",
    "city": "Denver",
    "state": "Colorado",
    "postal_code": "80223-4248",
    "website_url": "http://www.rusticabrewery.com",
    "phone": "7203979682",
    "created_at": "2018-07-24 01:33:07.644147",
    "updated_at": "2018-08-11 21:36:42.012652",
    "country": "United States",
    "longitude": "",
    "latitude": "",
    "tags": []
  },
  {
    "id": "renegade-brewing-company",
    "name": "Renegade Brewing Company",
    "brewery_type": "micro",
    "street": "918 W 1st Ave",
    "city": "Denver",
    "state": "Colorado",
    "postal_code": "80223-1534",
    "website_url": "http://renegadebrewing.com",
    "phone": "3035345407",
    "created_at": "2018-07-24 01:33:07.392908",
    "updated_at": "2018-08-24 00:24:23.192917",
    "country": "United States",
    "longitude": "-104.999263734694",
    "latitude": "39.7183139183674",
    "tags": []
  },
  {
    "id": "renegade-brewing-company-production",
    "name": "Renegade Brewing Company - Production",
    "brewery_type": "micro",
    "street": "918 W 1st Ave",
    "city": "Denver",
    "state": "Colorado",
    "postal_code": "80223-1534",
    "website_url": "http://www.renegadebrewing.com",
    "phone": "7204014089",
    "created_at": "2018-07-24 01:33:07.404765",
    "updated_at": "2018-08-24 00:24:23.678621",
    "country": "United States",
    "longitude": "-104.999263734694",
    "latitude": "39.7183139183674",
    "tags": []
  },
  {
    "id": "seedstock-brewery",
    "name": "Seedstock Brewery",
    "brewery_type": "micro",
    "street": "3610 W Colfax Ave",
    "city": "Denver",
    "state": "Colorado",
    "postal_code": "80204-1513",
    "website_url": "http://www.seedstockbrewery.com",
    "phone": "7204767831",
    "created_at": "2018-07-24 01:33:07.693659",
    "updated_at": "2018-08-24 00:24:35.848858",
    "country": "United States",
    "longitude": "-105.034851939335",
    "latitude": "39.7402520324939",
    "tags": []
  },
  {
    "id": "sleeping-giant-brewing-company",
    "name": "Sleeping Giant Brewing Company",
    "brewery_type": "micro",
    "street": "2500 W 5th Ave",
    "city": "Denver",
    "state": "Colorado",
    "postal_code": "80204-4803",
    "website_url": "http://www.sleepinggiantbrewing.com",
    "phone": "",
    "created_at": "2018-07-24 01:33:07.753424",
    "updated_at": "2018-08-24 00:24:38.502682",
    "country": "United States",
    "longitude": "-105.01677288236",
    "latitude": "39.723797496944",
    "tags": []
  },
  {
    "id": "strange-craft-beer-co",
    "name": "Strange Craft Beer Co",
    "brewery_type": "micro",
    "street": "1330 Zuni St Ste M",
    "city": "Denver",
    "state": "Colorado",
    "postal_code": "80204-2328",
    "website_url": "http://www.strangecraft.com",
    "phone": "7209852337",
    "created_at": "2018-07-24 01:33:08.012625",
    "updated_at": "2018-08-11 21:36:42.945717",
    "country": "United States",
    "longitude": "",
    "latitude": "",
    "tags": []
  },
  {
    "id": "teachers-lounge-brewing",
    "name": "Teachers Lounge Brewing",
    "brewery_type": "planning",
    "street": "",
    "city": "Denver",
    "state": "Colorado",
    "postal_code": "80210-3349",
    "website_url": "http://www.eachersloungebrewing.com",
    "phone": "3038685142",
    "created_at": "2018-07-24 01:33:08.058049",
    "updated_at": "2018-08-11 21:36:43.043343",
    "country": "United States",
    "longitude": "",
    "latitude": "",
    "tags": []
  },
  {
    "id": "tivoli-brewing-company",
    "name": "Tivoli Brewing Company",
    "brewery_type": "micro",
    "street": "900 Auraria Pkwy Unit 240",
    "city": "Denver",
    "state": "Colorado",
    "postal_code": "80204-1897",
    "website_url": "",
    "phone": "3035826039",
    "created_at": "2018-07-24 01:33:08.305321",
    "updated_at": "2018-08-11 21:36:43.507235",
    "country": "United States",
    "longitude": "",
    "latitude": "",
    "tags": []
  },
  {
    "id": "toms-urban-kitchen-and-brewery",
    "name": "Tom's Urban Kitchen and Brewery",
    "brewery_type": "planning",
    "street": "",
    "city": "Denver",
    "state": "Colorado",
    "postal_code": "80249-6310",
    "website_url": "",
    "phone": "3035826039",
    "created_at": "2018-07-24 01:33:08.339189",
    "updated_at": "2018-08-11 21:36:43.570773",
    "country": "United States",
    "longitude": "",
    "latitude": "",
    "tags": []
  },
  {
    "id": "trve-brewing-co",
    "name": "TRVE Brewing Co",
    "brewery_type": "micro",
    "street": "2600 W. 2nd Ave Unit 8",
    "city": "Denver",
    "state": "Colorado",
    "postal_code": "80219",
    "website_url": "http://trvebrewing.com",
    "phone": "3033511021",
    "created_at": "2018-07-24 01:33:08.369562",
    "updated_at": "2018-08-11 21:36:43.625977",
    "country": "United States",
    "longitude": "",
    "latitude": "",
    "tags": []
  },
  {
    "id": "trve-brewing-co-the-acid-temple",
    "name": "TRVE Brewing Co. - The Acid Temple",
    "brewery_type": "micro",
    "street": "2600 W. 2nd Ave Unit 8",
    "city": "Denver",
    "state": "Colorado",
    "postal_code": "80219",
    "website_url": "",
    "phone": "3033511021",
    "created_at": "2018-07-24 01:33:08.387388",
    "updated_at": "2018-08-11 21:36:43.66397",
    "country": "United States",
    "longitude": "",
    "latitude": "",
    "tags": []
  },
  {
    "id": "the-intrepid-sojourner-beer-project",
    "name": "The Intrepid Sojourner Beer Project",
    "brewery_type": "micro",
    "street": "925 W 8th Ave",
    "city": "Denver",
    "state": "Colorado",
    "postal_code": "80204-4333",
    "website_url": "http://sojournerbeers.com",
    "phone": "8122498792",
    "created_at": "2018-07-24 01:33:08.138363",
    "updated_at": "2018-08-24 00:24:52.01942",
    "country": "United States",
    "longitude": "-104.9993865",
    "latitude": "39.7291386",
    "tags": []
  },
  {
    "id": "the-sandlot-brewery-at-coors-field",
    "name": "The Sandlot Brewery At Coors Field",
    "brewery_type": "large",
    "street": "2145 Blake St",
    "city": "Denver",
    "state": "Colorado",
    "postal_code": "80205-2010",
    "website_url": "http://www.millercoors.com",
    "phone": "3032981587",
    "created_at": "2018-07-24 01:33:08.210695",
    "updated_at": "2018-08-24 00:24:54.731636",
    "country": "United States",
    "longitude": "-104.992648394272",
    "latitude": "39.7557183618995",
    "tags": []
  },
  {
    "id": "thirsty-monk-pub-brewery",
    "name": "Thirsty Monk Pub Brewery",
    "brewery_type": "micro",
    "street": "1604 E 17th Ave",
    "city": "Denver",
    "state": "Colorado",
    "postal_code": "80218-1621",
    "website_url": "",
    "phone": "",
    "created_at": "2018-07-24 01:33:08.22754",
    "updated_at": "2018-08-24 00:24:55.220792",
    "country": "United States",
    "longitude": "-104.9682507754",
    "latitude": "39.743154",
    "tags": []
  },
  {
    "id": "westbound-and-down",
    "name": "Westbound and Down",
    "brewery_type": "planning",
    "street": "",
    "city": "Denver",
    "state": "Colorado",
    "postal_code": "80204",
    "website_url": "",
    "phone": "7205023121",
    "created_at": "2018-07-24 01:33:08.749889",
    "updated_at": "2018-08-11 21:36:44.380942",
    "country": "United States",
    "longitude": "",
    "latitude": "",
    "tags": []
  },
  {
    "id": "wits-end-brewing-co",
    "name": "Wit's End Brewing Co",
    "brewery_type": "micro",
    "street": "1330 Zuni St Ste N",
    "city": "Denver",
    "state": "Colorado",
    "postal_code": "80204-2328",
    "website_url": "http://www.witsendbrewing.com",
    "phone": "3033599119",
    "created_at": "2018-07-24 01:33:08.867939",
    "updated_at": "2018-08-11 21:36:44.615934",
    "country": "United States",
    "longitude": "",
    "latitude": "",
    "tags": []
  },
  {
    "id": "zephyr-brewing-co",
    "name": "Zephyr Brewing Co",
    "brewery_type": "micro",
    "street": "1609 E 58th Ave Ste G",
    "city": "Denver",
    "state": "Colorado",
    "postal_code": "80216-1528",
    "website_url": "http://www.zephyrbrewingco.com",
    "phone": "7202959374",
    "created_at": "2018-07-24 01:33:08.946349",
    "updated_at": "2018-08-11 21:36:44.791507",
    "country": "United States",
    "longitude": "",
    "latitude": "",
    "tags": []
  },
  {
    "id": "vine-street-pub-and-brewery",
    "name": "Vine Street Pub & Brewery",
    "brewery_type": "brewpub",
    "street": "1700 Vine St",
    "city": "Denver",
    "state": "Colorado",
    "postal_code": "80206-1120",
    "website_url": "http://www.mountainsunpub.com",
    "phone": "3033882337",
    "created_at": "2018-07-24 01:33:08.657334",
    "updated_at": "2018-08-24 00:25:08.088482",
    "country": "United States",
    "longitude": "-104.9627421",
    "latitude": "39.7434087",
    "tags": []
  },
  {
    "id": "woods-boss-brewing-company",
    "name": "Woods Boss Brewing Company",
    "brewery_type": "micro",
    "street": "2210 California St",
    "city": "Denver",
    "state": "Colorado",
    "postal_code": "80205-2824",
    "website_url": "http://www.woodsbossbrew.com",
    "phone": "9149609225",
    "created_at": "2018-07-24 01:33:08.894055",
    "updated_at": "2018-08-24 00:25:16.051845",
    "country": "United States",
    "longitude": "-104.9845374",
    "latitude": "39.7509153",
    "tags": []
  },
  {
    "id": "wynkoop-brewing-co",
    "name": "Wynkoop Brewing Co",
    "brewery_type": "brewpub",
    "street": "1634 18th St",
    "city": "Denver",
    "state": "Colorado",
    "postal_code": "80202-1212",
    "website_url": "http://www.wynkoop.com",
    "phone": "3032972700",
    "created_at": "2018-07-24 01:33:08.919298",
    "updated_at": "2018-08-24 00:25:16.549188",
    "country": "United States",
    "longitude": "-104.9984831",
    "latitude": "39.7535446",
    "tags": []
  },
  {
    "id": "zuni-street-brewing-company",
    "name": "Zuni Street Brewing Company",
    "brewery_type": "micro",
    "street": "2355 W 29th Ave",
    "city": "Denver",
    "state": "Colorado",
    "postal_code": "80211-3753",
    "website_url": "http://www.zunistreetbrewing.com",
    "phone": "3038626525",
    "created_at": "2018-07-24 01:33:08.958471",
    "updated_at": "2018-08-24 00:25:18.12193",
    "country": "United States",
    "longitude": "-105.015409",
    "latitude": "39.7585929",
    "tags": []
  },
  {
    "id": "baere-brewing-company",
    "name": "Baere Brewing Company",
    "brewery_type": "micro",
    "street": "320 Broadway, Unit E",
    "city": "Denver",
    "state": "Colorado",
    "postal_code": "80203-3955",
    "website_url": "http://www.baerebrewing.com",
    "phone": "9709014810",
    "created_at": "2018-07-24 01:33:03.589149",
    "updated_at": "2018-08-11 21:36:31.180199",
    "country": "United States",
    "longitude": "",
    "latitude": "",
    "tags": []
  },
  {
    "id": "brewability-lab",
    "name": "Brewability Lab",
    "brewery_type": "micro",
    "street": "12445 E 39th Ave Unit 314",
    "city": "Denver",
    "state": "Colorado",
    "postal_code": "80239-3456",
    "website_url": "http://www.Brewabilitylab.com",
    "phone": "8163515085",
    "created_at": "2018-07-24 01:33:04.076332",
    "updated_at": "2018-08-11 21:36:32.452337",
    "country": "United States",
    "longitude": "",
    "latitude": "",
    "tags": []
  },
  {
    "id": "comrade-brewing-company",
    "name": "Comrade Brewing Company",
    "brewery_type": "micro",
    "street": "7667 E Iliff Ave Ste F",
    "city": "Denver",
    "state": "Colorado",
    "postal_code": "80231-5361",
    "website_url": "http://comradebrewing.com",
    "phone": "7207480700",
    "created_at": "2018-07-24 01:33:04.766846",
    "updated_at": "2018-08-11 21:36:34.258923",
    "country": "United States",
    "longitude": "",
    "latitude": "",
    "tags": []
  },
  {
    "id": "alternation-brewing-company",
    "name": "Alternation Brewing Company",
    "brewery_type": "micro",
    "street": "1539 S Broadway",
    "city": "Denver",
    "state": "Colorado",
    "postal_code": "80210-2607",
    "website_url": "http://www.alternationbrewing.com",
    "phone": "3038025340",
    "created_at": "2018-07-24 01:33:03.43393",
    "updated_at": "2018-08-24 00:05:23.399881",
    "country": "United States",
    "longitude": "-104.987611697826",
    "latitude": "39.6886637350385",
    "tags": []
  },
  {
    "id": "fiction-beer-company",
    "name": "Fiction Beer Company",
    "brewery_type": "micro",
    "street": "7101 E Colfax Ave",
    "city": "Denver",
    "state": "Colorado",
    "postal_code": "80220-1805",
    "website_url": "http://www.fictionbeer.com",
    "phone": "7204567163",
    "created_at": "2018-07-24 01:33:05.424043",
    "updated_at": "2018-08-24 00:23:03.791579",
    "country": "United States",
    "longitude": "-104.8854207",
    "latitude": "39.7402188",
    "tags": []
  },
  {
    "id": "great-divide-brewing-co-rino-barrel-bar",
    "name": "Great Divide Brewing Co - RiNo Barrel Bar",
    "brewery_type": "micro",
    "street": "1812 35th St",
    "city": "Denver",
    "state": "Colorado",
    "postal_code": "80216-3665",
    "website_url": "http://greatdivide.com/",
    "phone": "3032969460",
    "created_at": "2018-07-24 01:33:05.705823",
    "updated_at": "2018-08-24 00:23:16.328244",
    "country": "United States",
    "longitude": "-104.979247",
    "latitude": "39.7703322",
    "tags": []
  },
  {
    "id": "spangalang-brewery",
    "name": "Spangalang Brewery",
    "brewery_type": "micro",
    "street": "2736 Welton St Ste 102",
    "city": "Denver",
    "state": "Colorado",
    "postal_code": "80205-2900",
    "website_url": "http://www.spangalangbrewery.com",
    "phone": "3032971276",
    "created_at": "2018-07-24 01:33:07.877299",
    "updated_at": "2018-08-24 00:24:44.144982",
    "country": "United States",
    "longitude": "-104.9770361",
    "latitude": "39.7552227",
    "tags": []
  },
  {
    "id": "station-26-brewing-co",
    "name": "Station 26 Brewing Co",
    "brewery_type": "micro",
    "street": "7045 E 38th Ave",
    "city": "Denver",
    "state": "Colorado",
    "postal_code": "80207-1541",
    "website_url": "http://www.station26brewing.co",
    "phone": "",
    "created_at": "2018-07-24 01:33:07.926635",
    "updated_at": "2018-08-24 00:24:45.821118",
    "country": "United States",
    "longitude": "-104.90626077551",
    "latitude": "39.7693533469388",
    "tags": []
  }
]