[
  {
    "id": "animas-brewing-co",
    "name": "Animas Brewing Co",
    "brewery_type": "brewpub",
    "street": "1560 E 2nd Ave",
    "city": "Durango",
    "state": "Colorado",
    "postal_code": "81301-5186",
    "website_url": "http://www.animasbrewing.com",
    "phone": "9704038850",
    "created_at": "2018-07-24 01:33:03.487934",
    "updated_at": "2018-08-24 00:05:26.896984",
    "country": "United States",
    "longitude": "-107.876991231164",
    "latitude": "37.2799721542463",
    "tags": []
  },
  {
    "id": "brew-pub-and-kitchen",
    "name": "Brew Pub and Kitchen",
    "brewery_type": "brewpub",
    "street": "117 W College Dr",
    "city": "Durango",
    "state": "Colorado",
    "postal_code": "81301-5407",
    "website_url": "http://www.brewpubkitchen.com",
    "phone": "9702595959",
    "created_at": "2018-07-24 01:33:04.063443",
    "updated_at": "2018-08-24 00:22:13.082515",
    "country": "United States",
    "longitude": "-107.883154906291",
    "latitude": "37.2703646364737",
    "tags": []
  },
  {
    "id": "carver-brewing-co",
    "name": "Carver Brewing Co",
    "brewery_type": "brewpub",
    "street": "1022 Main Ave",
    "city": "Durango",
    "state": "Colorado",
    "postal_code": "81301-5124",
    "website_url": "http://carverbrewing.com",
    "phone": "9702592545",
    "created_at": "2018-07-24 01:33:04.512507",
    "updated_at": "2018-08-24 00:22:27.374345",
    "country": "United States",
    "longitude": "-107.8800415",
    "latitude": "37.2748415",
    "tags": []
  },
  {
    "id": "durango-brewing-co",
    "name": "Durango Brewing Co",
    "brewery_type": "brewpub",
    "street": "3000 Main Ave",
    "city": "Durango",
    "state": "Colorado",
    "postal_code": "81301-4245",
    "website_url": "http://www.durangobrewing.com",
    "phone": "9702473396",
    "created_at": "2018-07-24 01:33:05.201361",
    "updated_at": "2018-08-24 00:22:54.841237",
    "country": "United States",
    "longitude": "-107.871981",
    "latitude": "37.297647",
    "tags": []
  },
  {
    "id": "ska-brewing",
    "name": "SKA Brewing",
    "brewery_type": "regional",
    "street": "225 Girard, Bodo Park",
    "city": "Durango",
    "state": "Colorado",
    "postal_code": "81303-6827",
    "website_url": "",
    "phone": "",
    "created_at": "2018-07-24 01:33:07.741637",
    "updated_at": "2018-08-11 21:36:42.315137",
    "country": "United States",
    "longitude": "",
    "latitude": "",
    "tags": []
  },
  {
    "id": "steamworks-brewing-co",
    "name": "Steamworks Brewing Co",
    "brewery_type": "brewpub",
    "street": "801 E 2nd Ave",
    "city": "Durango",
    "state": "Colorado",
    "postal_code": "81301-5425",
    "website_url": "http://www.steamworksbrewing.com",
    "phone": "9702599200",
    "created_at": "2018-07-24 01:33:07.940959",
    "updated_at": "2018-08-24 00:24:46.373778",
    "country": "United States",
    "longitude": "-107.87979",
    "latitude": "37.272176",
    "tags": []
  }
]