[
  {
    "id": "lariat-lodge-brewing",
    "name": "Lariat Lodge Brewing",
    "brewery_type": "brewpub",
    "street": "27618 Fireweed Dr",
    "city": "Evergreen",
    "state": "Colorado",
    "postal_code": "80439-8462",
    "website_url": "http://www.LariatLodgeBrewing.com",
    "phone": "3036741842",
    "created_at": "2018-07-24 01:33:06.249614",
    "updated_at": "2018-08-24 00:23:38.065576",
    "country": "United States",
    "longitude": "-105.313692483851",
    "latitude": "39.639351447261",
    "tags": []
  },
  {
    "id": "barrel-dog-brewing",
    "name": "Barrel Dog Brewing",
    "brewery_type": "micro",
    "street": "",
    "city": "Evergreen",
    "state": "Colorado",
    "postal_code": "80439",
    "website_url": "",
    "phone": "5599176846",
    "created_at": "2018-07-24 01:33:03.63255",
    "updated_at": "2018-08-24 00:05:35.691505",
    "country": "United States",
    "longitude": "-105.321457978674",
    "latitude": "39.6361637",
    "tags": []
  },
  {
    "id": "el-rancho-brewing",
    "name": "El Rancho Brewing",
    "brewery_type": "brewpub",
    "street": "29260 US Highway 40",
    "city": "Evergreen",
    "state": "Colorado",
    "postal_code": "80439-3700",
    "website_url": "http://www.elranchobrewing.com",
    "phone": "3036702739",
    "created_at": "2018-07-24 01:33:05.262504",
    "updated_at": "2018-08-11 21:36:35.439511",
    "country": "United States",
    "longitude": "",
    "latitude": "",
    "tags": []
  },
  {
    "id": "evergreen-brewery",
    "name": "Evergreen Brewery",
    "brewery_type": "brewpub",
    "street": "2962 Evergreen Pkwy",
    "city": "Evergreen",
    "state": "Colorado",
    "postal_code": "80439-7995",
    "website_url": "http://www.evergreentaphouse.com",
    "phone": "3037368419",
    "created_at": "2018-07-24 01:33:05.352931",
    "updated_at": "2018-08-11 21:36:35.644905",
    "country": "United States",
    "longitude": "",
    "latitude": "",
    "tags": []
  }
]