[
  {
    "id": "jessup-farm-barrel-house",
    "name": "Jessup Farm Barrel House",
    "brewery_type": "micro",
    "street": "1921 Jessup Dr",
    "city": "Fort Collins",
    "state": "Colorado",
    "postal_code": "80525-2551",
    "website_url": "http://jessupfarm.com/barrel-house/",
    "phone": "9705688345",
    "created_at": "2018-07-24 01:33:06.132586",
    "updated_at": "2018-08-24 00:23:33.661372",
    "country": "United States",
    "longitude": "-105.0380013",
    "latitude": "40.5620458",
    "tags": []
  },
  {
    "id": "new-belgium-brewing-co",
    "name": "New Belgium Brewing Co",
    "brewery_type": "regional",
    "street": "500 Linden St",
    "city": "Fort Collins",
    "state": "Colorado",
    "postal_code": "80524-2457",
    "website_url": "http://www.newbelgium.com",
    "phone": "9702210524",
    "created_at": "2018-07-24 01:33:06.708698",
    "updated_at": "2018-08-24 00:23:56.828734",
    "country": "United States",
    "longitude": "-105.067842181802",
    "latitude": "40.59335825",
    "tags": []
  },
  {
    "id": "odell-brewing-co",
    "name": "Odell Brewing Co",
    "brewery_type": "regional",
    "street": "800 E Lincoln Ave",
    "city": "Fort Collins",
    "state": "Colorado",
    "postal_code": "80524-2507",
    "website_url": "http://www.odellbrewing.com",
    "phone": "9704989070",
    "created_at": "2018-07-24 01:33:06.803284",
    "updated_at": "2018-08-24 00:24:01.453426",
    "country": "United States",
    "longitude": "-105.063332717858",
    "latitude": "40.5895239",
    "tags": []
  },
  {
    "id": "red-truck-beer-company-ltd",
    "name": "Red Truck Beer Company Ltd.",
    "brewery_type": "micro",
    "street": "1020 E Lincoln Ave",
    "city": "Fort Collins",
    "state": "Colorado",
    "postal_code": "80524-2509",
    "website_url": "",
    "phone": "6046824733",
    "created_at": "2018-07-24 01:33:07.368785",
    "updated_at": "2018-08-24 00:24:22.140719",
    "country": "United States",
    "longitude": "-105.058489475164",
    "latitude": "40.58916845",
    "tags": []
  },
  {
    "id": "rally-king-brewing",
    "name": "Rally King Brewing",
    "brewery_type": "micro",
    "street": "1624 S Lemay Ave Unit 4",
    "city": "Fort Collins",
    "state": "Colorado",
    "postal_code": "80525-1188",
    "website_url": "http://www.rallykingbrewing.com",
    "phone": "9705688936",
    "created_at": "2018-07-24 01:33:07.284883",
    "updated_at": "2018-08-11 21:36:40.902403",
    "country": "United States",
    "longitude": "",
    "latitude": "",
    "tags": []
  },
  {
    "id": "anheuser-busch-inc-fort-collins",
    "name": "Anheuser-Busch Inc - Fort Collins",
    "brewery_type": "large",
    "street": "2351 Busch Dr",
    "city": "Fort Collins",
    "state": "Colorado",
    "postal_code": "80524-9400",
    "website_url": "",
    "phone": "9704904500",
    "created_at": "2018-07-24 01:33:03.473643",
    "updated_at": "2018-08-24 00:05:25.960761",
    "country": "United States",
    "longitude": "-105.001968629944",
    "latitude": "40.6181781101695",
    "tags": []
  },
  {
    "id": "coopersmiths-pub-and-brewing",
    "name": "CooperSmiths Pub and Brewing",
    "brewery_type": "brewpub",
    "street": "5 Old Town Sq",
    "city": "Fort Collins",
    "state": "Colorado",
    "postal_code": "80524-2446",
    "website_url": "http://www.coopersmithspub.com",
    "phone": "9704980483",
    "created_at": "2018-07-24 01:33:04.778748",
    "updated_at": "2018-08-24 00:22:39.241784",
    "country": "United States",
    "longitude": "-105.0755188",
    "latitude": "40.5873784",
    "tags": []
  },
  {
    "id": "funkwerks",
    "name": "Funkwerks",
    "brewery_type": "micro",
    "street": "1900 E Lincoln Ave Unit B",
    "city": "Fort Collins",
    "state": "Colorado",
    "postal_code": "80524-2789",
    "website_url": "http://www.funkwerks.com",
    "phone": "9704823865",
    "created_at": "2018-07-24 01:33:05.508634",
    "updated_at": "2018-08-11 21:36:36.098539",
    "country": "United States",
    "longitude": "",
    "latitude": "",
    "tags": []
  },
  {
    "id": "gilded-goat-brewing-company",
    "name": "Gilded Goat Brewing Company",
    "brewery_type": "micro",
    "street": "3500 S College Ave Ste 194",
    "city": "Fort Collins",
    "state": "Colorado",
    "postal_code": "80525-2639",
    "website_url": "http://www.gildedgoatbrewing.com",
    "phone": "9708257192",
    "created_at": "2018-07-24 01:33:05.52076",
    "updated_at": "2018-08-11 21:36:36.128429",
    "country": "United States",
    "longitude": "",
    "latitude": "",
    "tags": []
  },
  {
    "id": "equinox-brewing",
    "name": "Equinox Brewing",
    "brewery_type": "micro",
    "street": "133 Remington St",
    "city": "Fort Collins",
    "state": "Colorado",
    "postal_code": "80524-2833",
    "website_url": "http://www.equinoxbrewing.com",
    "phone": "9704841368",
    "created_at": "2018-07-24 01:33:05.326701",
    "updated_at": "2018-08-24 00:22:59.864744",
    "country": "United States",
    "longitude": "-105.0757134",
    "latitude": "40.5863266",
    "tags": []
  },
  {
    "id": "intersect-brewing",
    "name": "Intersect Brewing",
    "brewery_type": "micro",
    "street": "2160 W Drake Rd Unit A1",
    "city": "Fort Collins",
    "state": "Colorado",
    "postal_code": "80526-1486",
    "website_url": "http://www.intersectbrewing.com",
    "phone": "9706822041",
    "created_at": "2018-07-24 01:33:05.992237",
    "updated_at": "2018-08-11 21:36:37.381831",
    "country": "United States",
    "longitude": "",
    "latitude": "",
    "tags": []
  },
  {
    "id": "mcclellans-brewing-company",
    "name": "McClellan's Brewing Company",
    "brewery_type": "brewpub",
    "street": "1035 S Taft Hill Rd",
    "city": "Fort Collins",
    "state": "Colorado",
    "postal_code": "80521-4222",
    "website_url": "http://www.mcclellansbrewingcompany.com",
    "phone": "9705688473",
    "created_at": "2018-07-24 01:33:06.547197",
    "updated_at": "2018-08-24 00:23:51.060979",
    "country": "United States",
    "longitude": "-105.11518055102",
    "latitude": "40.5737952040816",
    "tags": []
  },
  {
    "id": "prost-brewing-fort-collins",
    "name": "Prost Brewing Fort Collins",
    "brewery_type": "planning",
    "street": "",
    "city": "Fort Collins",
    "state": "Colorado",
    "postal_code": "80524-2162",
    "website_url": "",
    "phone": "9704842421",
    "created_at": "2018-07-24 01:33:07.212667",
    "updated_at": "2018-08-11 21:36:40.701814",
    "country": "United States",
    "longitude": "",
    "latitude": "",
    "tags": []
  },
  {
    "id": "purpose-brewing-and-cellars",
    "name": "Purpose Brewing and Cellars",
    "brewery_type": "micro",
    "street": "4025 S Mason St Unit C",
    "city": "Fort Collins",
    "state": "Colorado",
    "postal_code": "80525-5953",
    "website_url": "http://www.purposebrewing.com",
    "phone": "9703774107",
    "created_at": "2018-07-24 01:33:07.249341",
    "updated_at": "2018-08-11 21:36:40.808957",
    "country": "United States",
    "longitude": "",
    "latitude": "",
    "tags": []
  },
  {
    "id": "ramskeller",
    "name": "Ramskeller",
    "brewery_type": "planning",
    "street": "",
    "city": "Fort Collins",
    "state": "Colorado",
    "postal_code": "80523-0001",
    "website_url": "",
    "phone": "9704911055",
    "created_at": "2018-07-24 01:33:07.296953",
    "updated_at": "2018-08-11 21:36:40.932787",
    "country": "United States",
    "longitude": "",
    "latitude": "",
    "tags": []
  },
  {
    "id": "snowbank-brewing",
    "name": "Snowbank Brewing",
    "brewery_type": "micro",
    "street": "225 N Lemay Ave Ste 1",
    "city": "Fort Collins",
    "state": "Colorado",
    "postal_code": "80524-2555",
    "website_url": "http://www.snowbank.beer",
    "phone": "9709995658",
    "created_at": "2018-07-24 01:33:07.788639",
    "updated_at": "2018-08-11 21:36:42.428268",
    "country": "United States",
    "longitude": "",
    "latitude": "",
    "tags": []
  },
  {
    "id": "soul-squared-brewing-co",
    "name": "Soul Squared Brewing Co.",
    "brewery_type": "micro",
    "street": "6412 N County Road 15",
    "city": "Fort Collins",
    "state": "Colorado",
    "postal_code": "80524",
    "website_url": "http://www.soulsquaredbrewing.com",
    "phone": "",
    "created_at": "2018-07-24 01:33:07.829061",
    "updated_at": "2018-08-11 21:36:42.523718",
    "country": "United States",
    "longitude": "",
    "latitude": "",
    "tags": []
  },
  {
    "id": "three-four-beer-company",
    "name": "Three Four Beer Company",
    "brewery_type": "brewpub",
    "street": "829 S Shields St",
    "city": "Fort Collins",
    "state": "Colorado",
    "postal_code": "80521-3599",
    "website_url": "http://www.threefourbeerco.com",
    "phone": "9706821560",
    "created_at": "2018-07-24 01:33:08.259139",
    "updated_at": "2018-08-24 00:24:56.601786",
    "country": "United States",
    "longitude": "-105.0959634",
    "latitude": "40.5726176",
    "tags": []
  },
  {
    "id": "zwei-brewing-co",
    "name": "Zwei Brewing Co",
    "brewery_type": "micro",
    "street": "4612 S Mason St Ste 120",
    "city": "Fort Collins",
    "state": "Colorado",
    "postal_code": "80525-3794",
    "website_url": "http://www.zweibruderbrewing.com",
    "phone": "9702232482",
    "created_at": "2018-07-24 01:33:08.970321",
    "updated_at": "2018-08-11 21:36:44.847947",
    "country": "United States",
    "longitude": "",
    "latitude": "",
    "tags": []
  },
  {
    "id": "black-bottle-brewery",
    "name": "Black Bottle Brewery",
    "brewery_type": "brewpub",
    "street": "1611 S College Ave Ste STE1609",
    "city": "Fort Collins",
    "state": "Colorado",
    "postal_code": "80525-1074",
    "website_url": "http://www.blackbottlebrewery.com",
    "phone": "9704932337",
    "created_at": "2018-07-24 01:33:03.786926",
    "updated_at": "2018-08-11 21:36:31.671382",
    "country": "United States",
    "longitude": "",
    "latitude": "",
    "tags": []
  },
  {
    "id": "dc-oakes-brewhouse-and-eatery",
    "name": "D.C. Oakes Brewhouse and Eatery",
    "brewery_type": "brewpub",
    "street": "3581 E Harmony Suite 110",
    "city": "Fort Collins",
    "state": "Colorado",
    "postal_code": "80528",
    "website_url": "http://www.dcoakesbrewhouse.com",
    "phone": "3034061757",
    "created_at": "2018-07-24 01:33:04.890365",
    "updated_at": "2018-08-11 21:36:34.553148",
    "country": "United States",
    "longitude": "",
    "latitude": "",
    "tags": []
  },
  {
    "id": "horse-and-dragon-brewing-company",
    "name": "Horse & Dragon Brewing Company",
    "brewery_type": "micro",
    "street": "124 Racquette Dr",
    "city": "Fort Collins",
    "state": "Colorado",
    "postal_code": "80524-2757",
    "website_url": "http://www.horseanddragonbrewing.com",
    "phone": "9706318038",
    "created_at": "2018-07-24 01:33:05.920848",
    "updated_at": "2018-08-11 21:36:37.202935",
    "country": "United States",
    "longitude": "",
    "latitude": "",
    "tags": []
  },
  {
    "id": "maxline-brewing",
    "name": "Maxline Brewing",
    "brewery_type": "micro",
    "street": "2724 McClelland Dr Ste 190",
    "city": "Fort Collins",
    "state": "Colorado",
    "postal_code": "80525-2575",
    "website_url": "http://www.maxlinebrewing.com",
    "phone": "9702862855",
    "created_at": "2018-07-24 01:33:06.53561",
    "updated_at": "2018-08-24 00:23:50.487117",
    "country": "United States",
    "longitude": "-105.079748938842",
    "latitude": "40.5505901157245",
    "tags": []
  },
  {
    "id": "pitchers-sports-restaurant-and-brewery",
    "name": "Pitchers Sports Restaurant and Brewery",
    "brewery_type": "brewpub",
    "street": "1100 W Drake Rd",
    "city": "Fort Collins",
    "state": "Colorado",
    "postal_code": "80526-6008",
    "website_url": "http://www.pitchersbrewery.com",
    "phone": "9704935374",
    "created_at": "2018-07-24 01:33:07.164486",
    "updated_at": "2018-08-24 00:24:15.304607",
    "country": "United States",
    "longitude": "-105.097395899661",
    "latitude": "40.55306785",
    "tags": []
  }
]