[
  {
    "id": "barrels-and-bottles-brewery",
    "name": "Barrels & Bottles Brewery",
    "brewery_type": "brewpub",
    "street": "600 12th St Ste 160",
    "city": "Golden",
    "state": "Colorado",
    "postal_code": "80401-6145",
    "website_url": "http://www.barrelsbottles.com",
    "phone": "7203283643",
    "created_at": "2018-07-24 01:33:03.645911",
    "updated_at": "2018-08-24 00:05:36.634454",
    "country": "United States",
    "longitude": "-105.2202098",
    "latitude": "39.7562107",
    "tags": []
  },
  {
    "id": "mountain-toad-brewing",
    "name": "Mountain Toad Brewing",
    "brewery_type": "micro",
    "street": "900 Washington Ave",
    "city": "Golden",
    "state": "Colorado",
    "postal_code": "80401-1047",
    "website_url": "http://mountaintoadbrewing.com",
    "phone": "7206383244",
    "created_at": "2018-07-24 01:33:06.662393",
    "updated_at": "2018-08-24 00:23:55.661388",
    "country": "United States",
    "longitude": "-105.22425625",
    "latitude": "39.75807905",
    "tags": []
  },
  {
    "id": "cannonball-creek-brewing-co",
    "name": "Cannonball Creek Brewing Co",
    "brewery_type": "micro",
    "street": "393 Washington Ave Unit A",
    "city": "Golden",
    "state": "Colorado",
    "postal_code": "80403-1889",
    "website_url": "http://www.cannonballcreekbrewing.com",
    "phone": "3032780111",
    "created_at": "2018-07-24 01:33:04.474291",
    "updated_at": "2018-08-11 21:36:33.562298",
    "country": "United States",
    "longitude": "",
    "latitude": "",
    "tags": []
  },
  {
    "id": "coda-brewing-company",
    "name": "Coda Brewing Company",
    "brewery_type": "planning",
    "street": "",
    "city": "Golden",
    "state": "Colorado",
    "postal_code": "80401",
    "website_url": "http://codabrewing.com",
    "phone": "3038956475",
    "created_at": "2018-07-24 01:33:04.665254",
    "updated_at": "2018-08-11 21:36:34.028197",
    "country": "United States",
    "longitude": "",
    "latitude": "",
    "tags": []
  },
  {
    "id": "holidaily-brewing-co",
    "name": "Holidaily Brewing Co",
    "brewery_type": "micro",
    "street": "801 Brickyard Cir Ste B",
    "city": "Golden",
    "state": "Colorado",
    "postal_code": "80403-8026",
    "website_url": "http://www.holidailybrewing.com",
    "phone": "3032782337",
    "created_at": "2018-07-24 01:33:05.89758",
    "updated_at": "2018-08-11 21:36:37.141113",
    "country": "United States",
    "longitude": "",
    "latitude": "",
    "tags": []
  },
  {
    "id": "holidaily-production-facility",
    "name": "Holidaily Production Facility",
    "brewery_type": "planning",
    "street": "",
    "city": "Golden",
    "state": "Colorado",
    "postal_code": "80403",
    "website_url": "",
    "phone": "",
    "created_at": "2018-07-24 01:33:05.908977",
    "updated_at": "2018-08-11 21:36:37.166655",
    "country": "United States",
    "longitude": "",
    "latitude": "",
    "tags": []
  },
  {
    "id": "golden-city-brewery",
    "name": "Golden City Brewery",
    "brewery_type": "brewpub",
    "street": "920 1/2 12th St",
    "city": "Golden",
    "state": "Colorado",
    "postal_code": "80401-1181",
    "website_url": "",
    "phone": "3032798092",
    "created_at": "2018-07-24 01:33:05.581758",
    "updated_at": "2018-08-24 00:23:10.828861",
    "country": "United States",
    "longitude": "-105.222781326531",
    "latitude": "39.7547116734694",
    "tags": []
  },
  {
    "id": "kanook-beer-company",
    "name": "Kanook Beer Company",
    "brewery_type": "planning",
    "street": "",
    "city": "Golden",
    "state": "Colorado",
    "postal_code": "80403-2674",
    "website_url": "http://www.kanookbeer.com",
    "phone": "3036188362",
    "created_at": "2018-07-24 01:33:06.172656",
    "updated_at": "2018-08-11 21:36:37.7848",
    "country": "United States",
    "longitude": "",
    "latitude": "",
    "tags": []
  },
  {
    "id": "millercoors-brewing-co-golden",
    "name": "MillerCoors Brewing Co - Golden",
    "brewery_type": "large",
    "street": "311 10th St",
    "city": "Golden",
    "state": "Colorado",
    "postal_code": "80401-5811",
    "website_url": "",
    "phone": "3032776246",
    "created_at": "2018-07-24 01:33:06.570192",
    "updated_at": "2018-08-24 00:23:51.663249",
    "country": "United States",
    "longitude": "-105.219592",
    "latitude": "39.759495",
    "tags": []
  },
  {
    "id": "over-yonder-brewing-company",
    "name": "Over Yonder Brewing Company",
    "brewery_type": "planning",
    "street": "",
    "city": "Golden",
    "state": "Colorado",
    "postal_code": "80403-8590",
    "website_url": "",
    "phone": "7203638089",
    "created_at": "2018-07-24 01:33:06.939284",
    "updated_at": "2018-08-11 21:36:39.849461",
    "country": "United States",
    "longitude": "",
    "latitude": "",
    "tags": []
  },
  {
    "id": "new-terrain-brewing-company",
    "name": "New Terrain Brewing Company",
    "brewery_type": "micro",
    "street": "16401 Table Mountain Pkwy",
    "city": "Golden",
    "state": "Colorado",
    "postal_code": "80403-1863",
    "website_url": "http://newterrainbrewing.com",
    "phone": "7206977848",
    "created_at": "2018-07-24 01:33:06.744176",
    "updated_at": "2018-08-24 00:23:58.454021",
    "country": "United States",
    "longitude": "-105.185103571308",
    "latitude": "39.7778197470628",
    "tags": []
  },
  {
    "id": "sherpa-brewery-pvt-ltd",
    "name": "Sherpa Brewery Pvt. Ltd.",
    "brewery_type": "contract",
    "street": "1708 W 17th Dr",
    "city": "Golden",
    "state": "Colorado",
    "postal_code": "80401-2507",
    "website_url": "",
    "phone": "",
    "created_at": "2018-07-24 01:33:07.71722",
    "updated_at": "2018-08-24 00:24:36.923072",
    "country": "United States",
    "longitude": "-105.19634236597",
    "latitude": "39.7443713",
    "tags": []
  }
]