[
  {
    "id": "rocky-mountain-taphouse-llc",
    "name": "Rocky Mountain Taphouse, LLC",
    "brewery_type": "micro",
    "street": "3050 67th Ave Ste 104",
    "city": "Greeley",
    "state": "Colorado",
    "postal_code": "80634-9604",
    "website_url": "http://www.rockymountaintaphouse.com",
    "phone": "9703026551",
    "created_at": "2018-07-24 01:33:07.609294",
    "updated_at": "2018-08-24 00:24:32.112728",
    "country": "United States",
    "longitude": "-104.7859342",
    "latitude": "40.387892",
    "tags": []
  },
  {
    "id": "broken-plow-brewery",
    "name": "Broken Plow Brewery",
    "brewery_type": "micro",
    "street": "4731 W 10th St Unit G",
    "city": "Greeley",
    "state": "Colorado",
    "postal_code": "80634-2046",
    "website_url": "http://www.brokenplowbrewery.com",
    "phone": "9703978373",
    "created_at": "2018-07-24 01:33:04.300628",
    "updated_at": "2018-08-11 21:36:33.15257",
    "country": "United States",
    "longitude": "",
    "latitude": "",
    "tags": []
  },
  {
    "id": "brix-taphouse-and-brewery",
    "name": "Brix Taphouse and Brewery",
    "brewery_type": "brewpub",
    "street": "813 8th St",
    "city": "Greeley",
    "state": "Colorado",
    "postal_code": "80631-3911",
    "website_url": "http://www.brixtaphouseandbrewery.com",
    "phone": "9703976146",
    "created_at": "2018-07-24 01:33:04.276641",
    "updated_at": "2018-08-24 00:22:16.570797",
    "country": "United States",
    "longitude": "-104.691137122449",
    "latitude": "40.4249546122449",
    "tags": []
  },
  {
    "id": "crabtree-brewing",
    "name": "Crabtree Brewing",
    "brewery_type": "micro",
    "street": "2961 W 29th St",
    "city": "Greeley",
    "state": "Colorado",
    "postal_code": "80631-8538",
    "website_url": "http://www.crabtreebrewing.com",
    "phone": "9703560516",
    "created_at": "2018-07-24 01:33:04.818128",
    "updated_at": "2018-08-24 00:22:41.021116",
    "country": "United States",
    "longitude": "-104.7875038",
    "latitude": "40.3899004",
    "tags": []
  },
  {
    "id": "green-earth-brewing-company",
    "name": "Green Earth Brewing Company",
    "brewery_type": "micro",
    "street": "725 10th St Unit A",
    "city": "Greeley",
    "state": "Colorado",
    "postal_code": "80631-1139",
    "website_url": "http://www.greenearthbrewingco.com",
    "phone": "9707022332",
    "created_at": "2018-07-24 01:33:05.731235",
    "updated_at": "2018-08-11 21:36:36.671958",
    "country": "United States",
    "longitude": "",
    "latitude": "",
    "tags": []
  },
  {
    "id": "wiley-roots-brewing-co",
    "name": "Wiley Roots Brewing Co",
    "brewery_type": "micro",
    "street": "625 3rd St Unit D",
    "city": "Greeley",
    "state": "Colorado",
    "postal_code": "80631-9132",
    "website_url": "http://www.wileyrootsbrewing.com",
    "phone": "9706911641",
    "created_at": "2018-07-24 01:33:08.854813",
    "updated_at": "2018-08-11 21:36:44.585955",
    "country": "United States",
    "longitude": "",
    "latitude": "",
    "tags": []
  },
  {
    "id": "weldwerks-brewing-co",
    "name": "WeldWerks Brewing Co.",
    "brewery_type": "micro",
    "street": "508 8th Ave",
    "city": "Greeley",
    "state": "Colorado",
    "postal_code": "80631-3921",
    "website_url": "http://www.weldwerksbrewing.com",
    "phone": "9705185226",
    "created_at": "2018-07-24 01:33:08.704491",
    "updated_at": "2018-08-24 00:25:09.709507",
    "country": "United States",
    "longitude": "-104.6911497",
    "latitude": "40.3998251",
    "tags": []
  },
  {
    "id": "brewery-in-planning-greeley",
    "name": "Brewery In Planning - Greeley",
    "brewery_type": "planning",
    "street": "",
    "city": "Greeley",
    "state": "Colorado",
    "postal_code": "80639-0001",
    "website_url": "",
    "phone": "",
    "created_at": "2018-07-24 01:33:04.20392",
    "updated_at": "2018-08-11 21:36:32.900529",
    "country": "United States",
    "longitude": "",
    "latitude": "",
    "tags": []
  }
]