[
  {
    "id": "front-range-brewing-co",
    "name": "Front Range Brewing Co.",
    "brewery_type": "brewpub",
    "street": "400 W South Boulder Rd Ste 1650",
    "city": "Lafayette",
    "state": "Colorado",
    "postal_code": "80026-2743",
    "website_url": "http://www.frontrangebrewingcompany.com",
    "phone": "3033390767",
    "created_at": "2018-07-24 01:33:05.496196",
    "updated_at": "2018-08-11 21:36:36.069098",
    "country": "United States",
    "longitude": "",
    "latitude": "",
    "tags": []
  },
  {
    "id": "endo-brewing-company",
    "name": "Endo Brewing Company",
    "brewery_type": "micro",
    "street": "2755 Dagny Way Ste 101",
    "city": "Lafayette",
    "state": "Colorado",
    "postal_code": "80026-8023",
    "website_url": "http://endobrewing.com",
    "phone": "7204428052",
    "created_at": "2018-07-24 01:33:05.30026",
    "updated_at": "2018-08-24 00:22:58.880852",
    "country": "United States",
    "longitude": "-105.1341065",
    "latitude": "40.0144311",
    "tags": []
  },
  {
    "id": "liquid-mechanics-brewing-company",
    "name": "Liquid Mechanics Brewing Company",
    "brewery_type": "micro",
    "street": "297 N US Highway 287",
    "city": "Lafayette",
    "state": "Colorado",
    "postal_code": "80026-8932",
    "website_url": "http://www.liquidmechanicsbrewing.com",
    "phone": "7205507813",
    "created_at": "2018-07-24 01:33:06.284996",
    "updated_at": "2018-08-11 21:36:38.097242",
    "country": "United States",
    "longitude": "",
    "latitude": "",
    "tags": []
  },
  {
    "id": "odd13-production-facility",
    "name": "Odd13 Production Facility",
    "brewery_type": "micro",
    "street": "505 Stacy Ct Ste D",
    "city": "Lafayette",
    "state": "Colorado",
    "postal_code": "80026",
    "website_url": "",
    "phone": "",
    "created_at": "2018-07-24 01:33:06.791953",
    "updated_at": "2018-08-11 21:36:39.394217",
    "country": "United States",
    "longitude": "",
    "latitude": "",
    "tags": []
  },
  {
    "id": "odd13-brewing-inc",
    "name": "Odd13 Brewing Inc",
    "brewery_type": "micro",
    "street": "301 E Simpson St",
    "city": "Lafayette",
    "state": "Colorado",
    "postal_code": "80026-2325",
    "website_url": "http://www.odd13brewing.com",
    "phone": "3039974164",
    "created_at": "2018-07-24 01:33:06.779935",
    "updated_at": "2018-08-24 00:24:00.00051",
    "country": "United States",
    "longitude": "-105.0878839",
    "latitude": "39.9983626",
    "tags": []
  },
  {
    "id": "the-post-brewing-co",
    "name": "The Post Brewing Co",
    "brewery_type": "brewpub",
    "street": "105 W Emma St",
    "city": "Lafayette",
    "state": "Colorado",
    "postal_code": "80026-1501",
    "website_url": "http://www.postbrewing.com",
    "phone": "3035932066",
    "created_at": "2018-07-24 01:33:08.193043",
    "updated_at": "2018-08-24 00:24:54.148834",
    "country": "United States",
    "longitude": "-105.091316505787",
    "latitude": "39.99461105",
    "tags": []
  },
  {
    "id": "uturn-bbq",
    "name": "Uturn BBQ",
    "brewery_type": "brewpub",
    "street": "599 Crossing Dr",
    "city": "Lafayette",
    "state": "Colorado",
    "postal_code": "80026-1797",
    "website_url": "http://www.uturnbbq.com",
    "phone": "3039936033",
    "created_at": "2018-07-24 01:33:08.579284",
    "updated_at": "2018-08-24 00:25:05.15955",
    "country": "United States",
    "longitude": "-105.101616301982",
    "latitude": "40.0035307",
    "tags": []
  }
]