[
  {
    "id": "6-and-40-brewery/taproom",
    "name": "6 & 40 Brewery/Taproom",
    "brewery_type": "planning",
    "street": "",
    "city": "Lakewood",
    "state": "Colorado",
    "postal_code": "80215-5548",
    "website_url": "http://www.tomsbrewshop.com",
    "phone": "3032325347",
    "created_at": "2018-07-24 01:33:03.359134",
    "updated_at": "2018-08-24 00:05:19.150906",
    "country": "United States",
    "longitude": "-105.11005818223",
    "latitude": "39.6311085",
    "tags": []
  },
  {
    "id": "green-mountain-beer-company",
    "name": "Green Mountain Beer Company",
    "brewery_type": "micro",
    "street": "2585 S Lewis Way Unit 110",
    "city": "Lakewood",
    "state": "Colorado",
    "postal_code": "80227-6560",
    "website_url": "http://www.greenmountainbeercompany.com",
    "phone": "3039860201",
    "created_at": "2018-07-24 01:33:05.742784",
    "updated_at": "2018-08-11 21:36:36.711142",
    "country": "United States",
    "longitude": "",
    "latitude": "",
    "tags": []
  },
  {
    "id": "idk-beer-co",
    "name": "IDK Beer Co",
    "brewery_type": "planning",
    "street": "",
    "city": "Lakewood",
    "state": "Colorado",
    "postal_code": "80228-4251",
    "website_url": "",
    "phone": "",
    "created_at": "2018-07-24 01:33:05.944413",
    "updated_at": "2018-08-11 21:36:37.263418",
    "country": "United States",
    "longitude": "",
    "latitude": "",
    "tags": []
  },
  {
    "id": "ironworks-brewery-and-pub",
    "name": "Ironworks Brewery & Pub",
    "brewery_type": "brewpub",
    "street": "12354 W Alameda Pkwy Ste 110",
    "city": "Lakewood",
    "state": "Colorado",
    "postal_code": "80228-2844",
    "website_url": "http://www.ironworkspub.com",
    "phone": "3039855818",
    "created_at": "2018-07-24 01:33:06.040856",
    "updated_at": "2018-08-11 21:36:37.481315",
    "country": "United States",
    "longitude": "",
    "latitude": "",
    "tags": []
  },
  {
    "id": "great-frontier-brewing-company",
    "name": "Great Frontier Brewing Company",
    "brewery_type": "micro",
    "street": "2010 S Oak St",
    "city": "Lakewood",
    "state": "Colorado",
    "postal_code": "80227-2050",
    "website_url": "http://www.greatfrontierbeer.com",
    "phone": "7203281758",
    "created_at": "2018-07-24 01:33:05.719968",
    "updated_at": "2018-08-24 00:23:16.885173",
    "country": "United States",
    "longitude": "-105.117721624754",
    "latitude": "39.6813614",
    "tags": []
  },
  {
    "id": "landlocked-ales",
    "name": "Landlocked Ales",
    "brewery_type": "micro",
    "street": "3225 S Wadsworth Blvd Unit R",
    "city": "Lakewood",
    "state": "Colorado",
    "postal_code": "80227-5009",
    "website_url": "http://www.landlockedales.com",
    "phone": "3032848748",
    "created_at": "2018-07-24 01:33:06.237752",
    "updated_at": "2018-08-11 21:36:37.941523",
    "country": "United States",
    "longitude": "",
    "latitude": "",
    "tags": []
  },
  {
    "id": "westfax-brewing-co",
    "name": "WestFax Brewing Co.",
    "brewery_type": "micro",
    "street": "6733 W Colfax Ave",
    "city": "Lakewood",
    "state": "Colorado",
    "postal_code": "80214-1807",
    "website_url": "http://www.westfaxbrewingcompany.com",
    "phone": "3032333742",
    "created_at": "2018-07-24 01:33:08.766308",
    "updated_at": "2018-08-24 00:25:11.300599",
    "country": "United States",
    "longitude": "-105.0710839",
    "latitude": "39.7415749",
    "tags": []
  }
]