[
  {
    "id": "38-state-brewing",
    "name": "38 State Brewing",
    "brewery_type": "micro",
    "street": "8071 S Broadway Ste A",
    "city": "Littleton",
    "state": "Colorado",
    "postal_code": "80122-2730",
    "website_url": "http://www.38statebrew.com",
    "phone": "7206383678",
    "created_at": "2018-07-24 01:33:03.319859",
    "updated_at": "2018-08-11 21:36:29.954261",
    "country": "United States",
    "longitude": "",
    "latitude": "",
    "tags": []
  },
  {
    "id": "acidulous-brewing-company",
    "name": "Acidulous Brewing Company",
    "brewery_type": "contract",
    "street": "6712 S Independence St",
    "city": "Littleton",
    "state": "Colorado",
    "postal_code": "80128-4046",
    "website_url": "",
    "phone": "3039952895",
    "created_at": "2018-07-24 01:33:03.383736",
    "updated_at": "2018-08-24 00:05:20.580167",
    "country": "United States",
    "longitude": "-105.1059543",
    "latitude": "39.5383949",
    "tags": []
  },
  {
    "id": "blue-spruce-brewing-littleton",
    "name": "Blue Spruce Brewing Littleton",
    "brewery_type": "brewpub",
    "street": "10577 W Centennial Rd",
    "city": "Littleton",
    "state": "Colorado",
    "postal_code": "80127-4233",
    "website_url": "http://www.bluesprucebrewing.com",
    "phone": "",
    "created_at": "2018-07-24 01:33:03.906617",
    "updated_at": "2018-08-11 21:36:32.002646",
    "country": "United States",
    "longitude": "",
    "latitude": "",
    "tags": []
  },
  {
    "id": "breckenridge-brewery",
    "name": "Breckenridge Brewery",
    "brewery_type": "large",
    "street": "2920 Brewery Ln",
    "city": "Littleton",
    "state": "Colorado",
    "postal_code": "80120-2850",
    "website_url": "http://www.breckenridgebrewery.com",
    "phone": "3036232739",
    "created_at": "2018-07-24 01:33:04.038838",
    "updated_at": "2018-08-11 21:36:32.359112",
    "country": "United States",
    "longitude": "",
    "latitude": "",
    "tags": []
  },
  {
    "id": "brewery-in-planning-highlands-ranch",
    "name": "Brewery In Planning - Highlands Ranch",
    "brewery_type": "planning",
    "street": "",
    "city": "Littleton",
    "state": "Colorado",
    "postal_code": "80126-5547",
    "website_url": "",
    "phone": "",
    "created_at": "2018-07-24 01:33:04.215846",
    "updated_at": "2018-08-11 21:36:32.94194",
    "country": "United States",
    "longitude": "",
    "latitude": "",
    "tags": []
  },
  {
    "id": "coal-mine-ave-brewing-company",
    "name": "Coal Mine Ave Brewing Company",
    "brewery_type": "micro",
    "street": "9719 W Coal Mine Ave Unit A",
    "city": "Littleton",
    "state": "Colorado",
    "postal_code": "80123-8000",
    "website_url": "http://www.coalmineavebrewing.com",
    "phone": "7205044866",
    "created_at": "2018-07-24 01:33:04.640276",
    "updated_at": "2018-08-11 21:36:33.962265",
    "country": "United States",
    "longitude": "",
    "latitude": "",
    "tags": []
  },
  {
    "id": "locavore-beer-works",
    "name": "Locavore Beer Works",
    "brewery_type": "micro",
    "street": "5950 S Platte Canyon Rd Ste D13",
    "city": "Littleton",
    "state": "Colorado",
    "postal_code": "80123-7539",
    "website_url": "http://www.locavorebeerworks.com",
    "phone": "7204764419",
    "created_at": "2018-07-24 01:33:06.330884",
    "updated_at": "2018-08-11 21:36:38.225556",
    "country": "United States",
    "longitude": "",
    "latitude": "",
    "tags": []
  },
  {
    "id": "saint-patricks-brewing-company",
    "name": "Saint Patrick's Brewing Company",
    "brewery_type": "micro",
    "street": "2842 W Bowles Ave",
    "city": "Littleton",
    "state": "Colorado",
    "postal_code": "80120-1843",
    "website_url": "http://www.stpatricksbrewco.com",
    "phone": "3037187575",
    "created_at": "2018-07-24 01:33:07.65605",
    "updated_at": "2018-08-24 00:24:34.237514",
    "country": "United States",
    "longitude": "-105.024584",
    "latitude": "39.6125875",
    "tags": []
  },
  {
    "id": "living-the-dream-brewing-co",
    "name": "Living the Dream Brewing Co.",
    "brewery_type": "micro",
    "street": "12305 Dumont Way Unit A",
    "city": "Littleton",
    "state": "Colorado",
    "postal_code": "80125-9788",
    "website_url": "http://www.livingthedreambrewing.com",
    "phone": "3032849585",
    "created_at": "2018-07-24 01:33:06.308087",
    "updated_at": "2018-08-11 21:36:38.154944",
    "country": "United States",
    "longitude": "",
    "latitude": "",
    "tags": []
  }
]