[
  {
    "id": "300-suns-brewing-company",
    "name": "300 Suns Brewing Company",
    "brewery_type": "brewpub",
    "street": "335 1st Ave Unit C",
    "city": "Longmont",
    "state": "Colorado",
    "postal_code": "80501-5958",
    "website_url": "http://www.300sunsbrewing.com",
    "phone": "",
    "created_at": "2018-07-24 01:33:03.30507",
    "updated_at": "2018-08-11 21:36:29.918226",
    "country": "United States",
    "longitude": "",
    "latitude": "",
    "tags": []
  },
  {
    "id": "brewmented",
    "name": "Brewmented",
    "brewery_type": "micro",
    "street": "900 S Hover St Ste C",
    "city": "Longmont",
    "state": "Colorado",
    "postal_code": "80501-7941",
    "website_url": "http://www.brewmented.com",
    "phone": "8772579956",
    "created_at": "2018-07-24 01:33:04.239941",
    "updated_at": "2018-08-11 21:36:33.00549",
    "country": "United States",
    "longitude": "",
    "latitude": "",
    "tags": []
  },
  {
    "id": "bootstrap-brewing",
    "name": "Bootstrap Brewing",
    "brewery_type": "micro",
    "street": "142 Pratt St",
    "city": "Longmont",
    "state": "Colorado",
    "postal_code": "80501",
    "website_url": "",
    "phone": "3036524186",
    "created_at": "2018-07-24 01:33:03.956505",
    "updated_at": "2018-08-24 00:05:57.287988",
    "country": "United States",
    "longitude": "-105.106280819542",
    "latitude": "40.16140505",
    "tags": []
  },
  {
    "id": "grossen-bart-brewery",
    "name": "Grossen Bart Brewery",
    "brewery_type": "micro",
    "street": "1025 Delaware Ave Unit A",
    "city": "Longmont",
    "state": "Colorado",
    "postal_code": "80501-6188",
    "website_url": "http://www.grossenbart.com",
    "phone": "7204382060",
    "created_at": "2018-07-24 01:33:05.790458",
    "updated_at": "2018-08-11 21:36:36.863153",
    "country": "United States",
    "longitude": "",
    "latitude": "",
    "tags": []
  },
  {
    "id": "left-hand-brewing-company",
    "name": "Left Hand Brewing Company",
    "brewery_type": "regional",
    "street": "1265 Boston Ave",
    "city": "Longmont",
    "state": "Colorado",
    "postal_code": "80501-5809",
    "website_url": "http://www.lefthandbrewing.com",
    "phone": "3037720258",
    "created_at": "2018-07-24 01:33:06.273393",
    "updated_at": "2018-08-24 00:23:39.251307",
    "country": "United States",
    "longitude": "-105.116840311558",
    "latitude": "40.158688",
    "tags": []
  },
  {
    "id": "open-door-brewing-company",
    "name": "Open Door Brewing Company",
    "brewery_type": "contract",
    "street": "2030 Ionosphere St Unit G",
    "city": "Longmont",
    "state": "Colorado",
    "postal_code": "80504-8459",
    "website_url": "http://www.opendoorbrewco.com",
    "phone": "7205931401",
    "created_at": "2018-07-24 01:33:06.847829",
    "updated_at": "2018-08-11 21:36:39.551902",
    "country": "United States",
    "longitude": "",
    "latitude": "",
    "tags": []
  },
  {
    "id": "oskar-blues-brewery-and-tasty-weasel-tap-room",
    "name": "Oskar Blues Brewery & Tasty Weasel Tap Room",
    "brewery_type": "regional",
    "street": "1800 Pike Rd Unit B",
    "city": "Longmont",
    "state": "Colorado",
    "postal_code": "80501-6794",
    "website_url": "http://www.oskarblues.com",
    "phone": "3037760724",
    "created_at": "2018-07-24 01:33:06.870565",
    "updated_at": "2018-08-11 21:36:39.617685",
    "country": "United States",
    "longitude": "",
    "latitude": "",
    "tags": []
  },
  {
    "id": "out-world-brewing",
    "name": "Out World Brewing",
    "brewery_type": "planning",
    "street": "",
    "city": "Longmont",
    "state": "Colorado",
    "postal_code": "80503-7285",
    "website_url": "http://www.outworld.beer",
    "phone": "",
    "created_at": "2018-07-24 01:33:06.916103",
    "updated_at": "2018-08-11 21:36:39.782506",
    "country": "United States",
    "longitude": "",
    "latitude": "",
    "tags": []
  },
  {
    "id": "primitive-beer-llc",
    "name": "Primitive Beer LLC",
    "brewery_type": "micro",
    "street": "2025 Ionosphere St Unit 101",
    "city": "Longmont",
    "state": "Colorado",
    "postal_code": "80504-7439",
    "website_url": "http://www.Primitive.beer",
    "phone": "9142557436",
    "created_at": "2018-07-24 01:33:07.188967",
    "updated_at": "2018-08-11 21:36:40.64455",
    "country": "United States",
    "longitude": "",
    "latitude": "",
    "tags": []
  },
  {
    "id": "pumphouse-brewery-and-restaurant",
    "name": "Pumphouse Brewery and Restaurant",
    "brewery_type": "brewpub",
    "street": "540 Main St",
    "city": "Longmont",
    "state": "Colorado",
    "postal_code": "80501-5537",
    "website_url": "http://www.pumphousebrewery.com",
    "phone": "3037020881",
    "created_at": "2018-07-24 01:33:07.237085",
    "updated_at": "2018-08-24 00:24:17.916518",
    "country": "United States",
    "longitude": "-105.1020999",
    "latitude": "40.1687619",
    "tags": []
  },
  {
    "id": "rhythm-river-brewing-company",
    "name": "Rhythm River Brewing Company",
    "brewery_type": "planning",
    "street": "",
    "city": "Longmont",
    "state": "Colorado",
    "postal_code": "80504-2226",
    "website_url": "http://www.rhythmriverbrewing.com",
    "phone": "",
    "created_at": "2018-07-24 01:33:07.428317",
    "updated_at": "2018-08-11 21:36:41.313349",
    "country": "United States",
    "longitude": "",
    "latitude": "",
    "tags": []
  },
  {
    "id": "shoes-and-brews",
    "name": "Shoes & Brews",
    "brewery_type": "micro",
    "street": "63 S Pratt Pkwy Unit B",
    "city": "Longmont",
    "state": "Colorado",
    "postal_code": "80501-1702",
    "website_url": "http://www.shoesbrews.com",
    "phone": "7203404290",
    "created_at": "2018-07-24 01:33:07.729059",
    "updated_at": "2018-08-11 21:36:42.2666",
    "country": "United States",
    "longitude": "",
    "latitude": "",
    "tags": []
  },
  {
    "id": "wibby-brewing",
    "name": "Wibby Brewing",
    "brewery_type": "micro",
    "street": "209 Emery St",
    "city": "Longmont",
    "state": "Colorado",
    "postal_code": "80501-5910",
    "website_url": "http://www.wibbybrewing.com",
    "phone": "",
    "created_at": "2018-07-24 01:33:08.813135",
    "updated_at": "2018-08-24 00:25:13.0021",
    "country": "United States",
    "longitude": "-105.100209775206",
    "latitude": "40.1623965",
    "tags": []
  }
]