[
  {
    "id": "crystal-springs-brewing-co",
    "name": "Crystal Springs Brewing Co",
    "brewery_type": "micro",
    "street": "657 S Taylor Ave",
    "city": "Louisville",
    "state": "Colorado",
    "postal_code": "80027-3063",
    "website_url": "http://www.crystalspringsbrewing.com",
    "phone": "3038845602",
    "created_at": "2018-07-24 01:33:04.877659",
    "updated_at": "2018-08-24 00:22:43.801674",
    "country": "United States",
    "longitude": "-105.119781",
    "latitude": "39.964883",
    "tags": []
  },
  {
    "id": "12degree-brewing",
    "name": "12Degree Brewing",
    "brewery_type": "brewpub",
    "street": "820 Main St",
    "city": "Louisville",
    "state": "Colorado",
    "postal_code": "80027-1865",
    "website_url": "http://www.12degree.com",
    "phone": "3035791004",
    "created_at": "2018-07-24 01:33:03.26453",
    "updated_at": "2018-08-24 00:05:13.131825",
    "country": "United States",
    "longitude": "-105.1319826",
    "latitude": "39.9782443",
    "tags": []
  },
  {
    "id": "gravity-brewing",
    "name": "Gravity Brewing",
    "brewery_type": "micro",
    "street": "1150 Pine St Unit B",
    "city": "Louisville",
    "state": "Colorado",
    "postal_code": "80027-1463",
    "website_url": "http://www.thegravitybrewing.com",
    "phone": "3035440746",
    "created_at": "2018-07-24 01:33:05.678643",
    "updated_at": "2018-08-11 21:36:36.5344",
    "country": "United States",
    "longitude": "",
    "latitude": "",
    "tags": []
  },
  {
    "id": "redgarden-brewery",
    "name": "Redgarden Brewery",
    "brewery_type": "brewpub",
    "street": "1700 Dogwood St",
    "city": "Louisville",
    "state": "Colorado",
    "postal_code": "80027-1102",
    "website_url": "http://www.redgardenbrewery.com",
    "phone": "3036199601",
    "created_at": "2018-07-24 01:33:07.381186",
    "updated_at": "2018-08-24 00:24:22.660777",
    "country": "United States",
    "longitude": "-105.1138827",
    "latitude": "39.9674475",
    "tags": []
  }
]