[
  {
    "id": "big-beaver-brewing-co",
    "name": "Big Beaver Brewing Co",
    "brewery_type": "micro",
    "street": "2707 W Eisenhower Blvd Ste 9",
    "city": "Loveland",
    "state": "Colorado",
    "postal_code": "80537-3141",
    "website_url": "http://www.bigbeaverbrew.com",
    "phone": "9708186064",
    "created_at": "2018-07-24 01:33:03.724734",
    "updated_at": "2018-08-11 21:36:31.505653",
    "country": "United States",
    "longitude": "",
    "latitude": "",
    "tags": []
  },
  {
    "id": "big-thompson-brewery",
    "name": "Big Thompson Brewery",
    "brewery_type": "micro",
    "street": "114 E 15th St",
    "city": "Loveland",
    "state": "Colorado",
    "postal_code": "80538-3832",
    "website_url": "",
    "phone": "",
    "created_at": "2018-07-24 01:33:03.749807",
    "updated_at": "2018-08-24 00:05:44.442681",
    "country": "United States",
    "longitude": "-105.074668714286",
    "latitude": "40.4081124285714",
    "tags": []
  },
  {
    "id": "buckhorn-brewers-llc",
    "name": "Buckhorn Brewers LLC",
    "brewery_type": "micro",
    "street": "4229 W Eisenhower Blvd",
    "city": "Loveland",
    "state": "Colorado",
    "postal_code": "80537-9202",
    "website_url": "",
    "phone": "9709808688",
    "created_at": "2018-07-24 01:33:04.34784",
    "updated_at": "2018-08-24 00:22:19.998163",
    "country": "United States",
    "longitude": "-105.0925735",
    "latitude": "40.4058904",
    "tags": []
  },
  {
    "id": "crow-hop-brewing-co-ltd",
    "name": "Crow Hop Brewing Co. Ltd.",
    "brewery_type": "micro",
    "street": "214 E 4th St",
    "city": "Loveland",
    "state": "Colorado",
    "postal_code": "80537-5632",
    "website_url": "http://www.crowhopbrewing.com",
    "phone": "9706330643",
    "created_at": "2018-07-24 01:33:04.865673",
    "updated_at": "2018-08-24 00:22:43.28022",
    "country": "United States",
    "longitude": "-105.073514428571",
    "latitude": "40.3953648571429",
    "tags": []
  },
  {
    "id": "dratz-brewing-company",
    "name": "Dratz Brewing Company",
    "brewery_type": "planning",
    "street": "",
    "city": "Loveland",
    "state": "Colorado",
    "postal_code": "80537",
    "website_url": "http://www.dratzbrewing.com",
    "phone": "9705660036",
    "created_at": "2018-07-24 01:33:05.152778",
    "updated_at": "2018-08-11 21:36:35.190674",
    "country": "United States",
    "longitude": "",
    "latitude": "",
    "tags": []
  },
  {
    "id": "grimm-brothers-brewhouse-llc",
    "name": "Grimm Brothers Brewhouse, LLC",
    "brewery_type": "micro",
    "street": "623 Denver Ave",
    "city": "Loveland",
    "state": "Colorado",
    "postal_code": "80537-5127",
    "website_url": "http://www.grimmbeer.com",
    "phone": "9706246045",
    "created_at": "2018-07-24 01:33:05.754362",
    "updated_at": "2018-08-11 21:36:36.758221",
    "country": "United States",
    "longitude": "",
    "latitude": "",
    "tags": []
  },
  {
    "id": "loveland-aleworks",
    "name": "Loveland Aleworks",
    "brewery_type": "micro",
    "street": "118 W 4th St",
    "city": "Loveland",
    "state": "Colorado",
    "postal_code": "80537-5523",
    "website_url": "http://www.lovelandaleworks.com",
    "phone": "9704057465",
    "created_at": "2018-07-24 01:33:06.393158",
    "updated_at": "2018-08-24 00:23:45.042053",
    "country": "United States",
    "longitude": "-105.076967204082",
    "latitude": "40.395410122449",
    "tags": []
  },
  {
    "id": "rock-bottom-brewery-centerra-promenade",
    "name": "Rock Bottom Brewery - Centerra Promenade",
    "brewery_type": "brewpub",
    "street": "6025 Sky Pond Dr",
    "city": "Loveland",
    "state": "Colorado",
    "postal_code": "80538-9013",
    "website_url": "http://www.rockbottom.com",
    "phone": "9706222077",
    "created_at": "2018-07-24 01:33:07.490958",
    "updated_at": "2018-08-24 00:24:26.323883",
    "country": "United States",
    "longitude": "-104.990384978473",
    "latitude": "40.418114",
    "tags": []
  },
  {
    "id": "tilted-barrel-brew-pub",
    "name": "Tilted Barrel Brew Pub",
    "brewery_type": "contract",
    "street": "110 E 29th St",
    "city": "Loveland",
    "state": "Colorado",
    "postal_code": "80538",
    "website_url": "http://www.tiltedbarrelbrewpub.com",
    "phone": "9706198950",
    "created_at": "2018-07-24 01:33:08.273687",
    "updated_at": "2018-08-24 00:24:57.170673",
    "country": "United States",
    "longitude": "-105.077316734694",
    "latitude": "40.4215801632653",
    "tags": []
  },
  {
    "id": "verboten-brewing",
    "name": "Verboten Brewing",
    "brewery_type": "micro",
    "street": "127 E 5th St",
    "city": "Loveland",
    "state": "Colorado",
    "postal_code": "80537-5503",
    "website_url": "http://www.verbotenbrewing.com",
    "phone": "9707757371",
    "created_at": "2018-07-24 01:33:08.610961",
    "updated_at": "2018-08-24 00:25:06.313398",
    "country": "United States",
    "longitude": "-105.074967387755",
    "latitude": "40.396586122449",
    "tags": []
  }
]