[
  {
    "id": "colorado-boy-pizzeria",
    "name": "Colorado Boy Pizzeria",
    "brewery_type": "brewpub",
    "street": "320 E Main St",
    "city": "Montrose",
    "state": "Colorado",
    "postal_code": "81401-3928",
    "website_url": "http://www.coloradoboy.com",
    "phone": "9702402790",
    "created_at": "2018-07-24 01:33:04.691256",
    "updated_at": "2018-08-24 00:22:35.298832",
    "country": "United States",
    "longitude": "-107.877365975036",
    "latitude": "38.4788787229881",
    "tags": []
  },
  {
    "id": "horsefly-brewing-co",
    "name": "Horsefly Brewing Co",
    "brewery_type": "brewpub",
    "street": "846 E Main St",
    "city": "Montrose",
    "state": "Colorado",
    "postal_code": "81401-3938",
    "website_url": "http://www.horseflybrewing.com",
    "phone": "9702496889",
    "created_at": "2018-07-24 01:33:05.933013",
    "updated_at": "2018-08-24 00:23:26.173915",
    "country": "United States",
    "longitude": "-107.871305973622",
    "latitude": "38.48272365",
    "tags": []
  },
  {
    "id": "ss-fermentations-ltd",
    "name": "SS Fermentations Ltd.",
    "brewery_type": "planning",
    "street": "",
    "city": "Montrose",
    "state": "Colorado",
    "postal_code": "81401-3927",
    "website_url": "",
    "phone": "9706184332",
    "created_at": "2018-07-24 01:33:07.914374",
    "updated_at": "2018-08-11 21:36:42.742167",
    "country": "United States",
    "longitude": "",
    "latitude": "",
    "tags": []
  },
  {
    "id": "two-rascals-brewing-co",
    "name": "Two Rascals Brewing Co",
    "brewery_type": "micro",
    "street": "147 N 1st St",
    "city": "Montrose",
    "state": "Colorado",
    "postal_code": "81401-3601",
    "website_url": "http://www.tworascalsbrewing.com",
    "phone": "9702498689",
    "created_at": "2018-07-24 01:33:08.436358",
    "updated_at": "2018-08-24 00:25:01.744891",
    "country": "United States",
    "longitude": "-107.8800003",
    "latitude": "38.4788199",
    "tags": []
  }
]