[
  {
    "id": "cb-and-potts/big-horn-brewery-westminster",
    "name": "C.B. and Potts/Big Horn Brewery - Westminster",
    "brewery_type": "brewpub",
    "street": "1257 W 120th Ave",
    "city": "Westminster",
    "state": "Colorado",
    "postal_code": "80234-2725",
    "website_url": "http://www.cbpotts.com",
    "phone": "3034515767",
    "created_at": "2018-07-24 01:33:04.447664",
    "updated_at": "2018-08-24 00:22:24.510974",
    "country": "United States",
    "longitude": "-105.004089874687",
    "latitude": "39.9137611541353",
    "tags": []
  },
  {
    "id": "frolic-brewing-company",
    "name": "Frolic Brewing Company",
    "brewery_type": "brewpub",
    "street": "12910 Zuni St Ste 1300",
    "city": "Westminster",
    "state": "Colorado",
    "postal_code": "80234-1313",
    "website_url": "http://www.frolicbrewing.com",
    "phone": "",
    "created_at": "2018-07-24 01:33:05.484439",
    "updated_at": "2018-08-11 21:36:36.037641",
    "country": "United States",
    "longitude": "",
    "latitude": "",
    "tags": []
  },
  {
    "id": "kokopelli-beer-company",
    "name": "Kokopelli Beer Company",
    "brewery_type": "brewpub",
    "street": "8931 Harlan St",
    "city": "Westminster",
    "state": "Colorado",
    "postal_code": "80031-2931",
    "website_url": "http://www.kokopellibeer.com",
    "phone": "7208406835",
    "created_at": "2018-07-24 01:33:06.197047",
    "updated_at": "2018-08-24 00:23:35.938122",
    "country": "United States",
    "longitude": "-105.06403858694",
    "latitude": "39.8590102032508",
    "tags": []
  },
  {
    "id": "rock-bottom-brewery-orchard-cntr",
    "name": "Rock Bottom Brewery - Orchard Cntr",
    "brewery_type": "brewpub",
    "street": "14694 Orchard Pkwy Unit 400",
    "city": "Westminster",
    "state": "Colorado",
    "postal_code": "80023-9198",
    "website_url": "http://www.rockbottom.com",
    "phone": "3032551625",
    "created_at": "2018-07-24 01:33:07.550592",
    "updated_at": "2018-08-11 21:36:41.654659",
    "country": "United States",
    "longitude": "",
    "latitude": "",
    "tags": []
  },
  {
    "id": "rock-bottom-brewery-westminster",
    "name": "Rock Bottom Brewery - Westminster",
    "brewery_type": "brewpub",
    "street": "10633 Westminster Blvd Unit 900",
    "city": "Westminster",
    "state": "Colorado",
    "postal_code": "80020-4176",
    "website_url": "http://www.rockbottom.com",
    "phone": "7205660198",
    "created_at": "2018-07-24 01:33:07.562322",
    "updated_at": "2018-08-11 21:36:41.698014",
    "country": "United States",
    "longitude": "",
    "latitude": "",
    "tags": []
  },
  {
    "id": "westminster-brewing-co",
    "name": "Westminster Brewing Co",
    "brewery_type": "micro",
    "street": "7655 W 108th Ave Ste 600",
    "city": "Westminster",
    "state": "Colorado",
    "postal_code": "80021-2805",
    "website_url": "http://westminsterbrewingco.com",
    "phone": "3032841864",
    "created_at": "2018-07-24 01:33:08.782889",
    "updated_at": "2018-08-11 21:36:44.436365",
    "country": "United States",
    "longitude": "",
    "latitude": "",
    "tags": []
  }
]