[
  {
    "id": "firehouse-brewing-co",
    "name": "Firehouse Brewing Co",
    "brewery_type": "brewpub",
    "street": "610 Main St",
    "city": "Rapid City",
    "state": "South Dakota",
    "postal_code": "57701-2736",
    "website_url": "http://www.firehousebrewing.com",
    "phone": "6053481915",
    "created_at": "2018-07-24 01:34:15.325327",
    "updated_at": "2018-08-24 16:15:45.696259",
    "country": "United States",
    "longitude": "-103.227556215794",
    "latitude": "44.08144085",
    "tags": []
  },
  {
    "id": "dakota-point-brewing-llc",
    "name": "Dakota Point Brewing LLC",
    "brewery_type": "micro",
    "street": "405 Canal St Ste 1200",
    "city": "Rapid City",
    "state": "South Dakota",
    "postal_code": "57701-2577",
    "website_url": "http://www.dakotapointbrewing.com",
    "phone": "6057912739",
    "created_at": "2018-07-24 01:34:15.23629",
    "updated_at": "2018-08-11 21:39:38.643374",
    "country": "United States",
    "longitude": "",
    "latitude": "",
    "tags": []
  },
  {
    "id": "lost-cabin-beer-co",
    "name": "Lost Cabin Beer Co.",
    "brewery_type": "micro",
    "street": "1401 W Omaha St Ste 3",
    "city": "Rapid City",
    "state": "South Dakota",
    "postal_code": "57701-3163",
    "website_url": "http://www.lostcabin.beer",
    "phone": "6057185678",
    "created_at": "2018-07-24 01:34:15.41819",
    "updated_at": "2018-08-11 21:39:39.358918",
    "country": "United States",
    "longitude": "",
    "latitude": "",
    "tags": []
  },
  {
    "id": "hay-camp-brewing-company",
    "name": "Hay Camp Brewing Company",
    "brewery_type": "micro",
    "street": "601 Kansas City St",
    "city": "Rapid City",
    "state": "South Dakota",
    "postal_code": "57701-3622",
    "website_url": "http://www.haycampbrewing.com",
    "phone": "6057181167",
    "created_at": "2018-07-24 01:34:15.372134",
    "updated_at": "2018-08-24 16:15:50.171974",
    "country": "United States",
    "longitude": "-103.227816",
    "latitude": "44.07889",
    "tags": []
  }
]