[
  {
    "id": "granite-city-food-and-brewery-#2",
    "name": "Granite City Food & Brewery (#2)",
    "brewery_type": "brewpub",
    "street": "2620 S Louise Ave",
    "city": "Sioux Falls",
    "state": "South Dakota",
    "postal_code": "57106-4329",
    "website_url": "http://www.gcfb.net",
    "phone": "6053620000",
    "created_at": "2018-07-24 01:34:15.356051",
    "updated_at": "2018-08-24 16:15:48.699428",
    "country": "United States",
    "longitude": "-96.7727843992402",
    "latitude": "43.523371915769",
    "tags": []
  },
  {
    "id": "fernson-brewing-company",
    "name": "Fernson Brewing Company",
    "brewery_type": "micro",
    "street": "1400 E Robur Dr",
    "city": "Sioux Falls",
    "state": "South Dakota",
    "postal_code": "57104-0582",
    "website_url": "http://fernson.com",
    "phone": "6057893822",
    "created_at": "2018-07-24 01:34:15.302618",
    "updated_at": "2018-08-24 16:15:44.197132",
    "country": "United States",
    "longitude": "-96.7085261318935",
    "latitude": "43.6078529748557",
    "tags": []
  },
  {
    "id": "gandy-dancer-brew-works",
    "name": "Gandy Dancer Brew Works",
    "brewery_type": "brewpub",
    "street": "420 E 8th St",
    "city": "Sioux Falls",
    "state": "South Dakota",
    "postal_code": "57103-7025",
    "website_url": "http://www.monkshouseofalerepute.com",
    "phone": "6053519268",
    "created_at": "2018-07-24 01:34:15.341007",
    "updated_at": "2018-08-24 16:15:47.195858",
    "country": "United States",
    "longitude": "-96.7218594",
    "latitude": "43.5488749",
    "tags": []
  },
  {
    "id": "woodgrain-brewing-company",
    "name": "WoodGrain Brewing Company",
    "brewery_type": "micro",
    "street": "101 S Phillips Ave Ste 100",
    "city": "Sioux Falls",
    "state": "South Dakota",
    "postal_code": "57104-6719",
    "website_url": "http://www.woodgrainbrew.com",
    "phone": "6053105316",
    "created_at": "2018-07-24 01:34:15.573387",
    "updated_at": "2018-08-11 21:39:39.92438",
    "country": "United States",
    "longitude": "",
    "latitude": "",
    "tags": []
  },
  {
    "id": "panacea-brewing-company-/-remedy-brewing-company",
    "name": "Panacea Brewing Company / Remedy Brewing Company",
    "brewery_type": "brewpub",
    "street": "401 E 8th St Ste 120",
    "city": "Sioux Falls",
    "state": "South Dakota",
    "postal_code": "57103-7012",
    "website_url": "http://www.remedybrewco.com",
    "phone": "6052141327",
    "created_at": "2018-07-24 01:34:15.479231",
    "updated_at": "2018-08-11 21:39:39.624781",
    "country": "United States",
    "longitude": "",
    "latitude": "",
    "tags": []
  }
]