[
  {
    "id": "back-street-brewery-and-tasting-room",
    "name": "Back Street Brewery & Tasting Room",
    "brewery_type": "micro",
    "street": "1884 S Santa Cruz St",
    "city": "Anaheim",
    "state": "California",
    "postal_code": "92805-6726",
    "website_url": "http://www.backstreetbrew.com",
    "phone": "6572364050",
    "created_at": "2018-07-24 01:32:51.974845",
    "updated_at": "2018-08-23 23:24:45.724315",
    "country": "United States",
    "longitude": "-117.896089444444",
    "latitude": "33.7998367777778",
    "tags": []
  },
  {
    "id": "asylum-brewing",
    "name": "Asylum Brewing",
    "brewery_type": "micro",
    "street": "2970 E. La Palma Ave. Suite D",
    "city": "Anaheim",
    "state": "California",
    "postal_code": "92806",
    "website_url": "http://Www.asylumbrewing.beer",
    "phone": "9494495191",
    "created_at": "2018-07-24 01:32:51.890349",
    "updated_at": "2018-08-11 21:35:54.956795",
    "country": "United States",
    "longitude": "",
    "latitude": "",
    "tags": []
  },
  {
    "id": "anaheim-brewery",
    "name": "Anaheim Brewery",
    "brewery_type": "micro",
    "street": "336 S Anaheim Blvd",
    "city": "Anaheim",
    "state": "California",
    "postal_code": "92805-3830",
    "website_url": "http://www.anaheimbrew.com",
    "phone": "7147801888",
    "created_at": "2018-07-24 01:32:51.677452",
    "updated_at": "2018-08-23 23:24:24.709387",
    "country": "United States",
    "longitude": "-117.9125249",
    "latitude": "33.8328226",
    "tags": []
  },
  {
    "id": "ballast-point-brewing-company",
    "name": "Ballast Point Brewing Company",
    "brewery_type": "planning",
    "street": "",
    "city": "Anaheim",
    "state": "California",
    "postal_code": "92802-2294",
    "website_url": "",
    "phone": "",
    "created_at": "2018-07-24 01:32:52.074242",
    "updated_at": "2018-08-23 23:24:50.617709",
    "country": "United States",
    "longitude": "-117.911732",
    "latitude": "33.8347516",
    "tags": []
  },
  {
    "id": "bottle-logic-brewing",
    "name": "Bottle Logic Brewing",
    "brewery_type": "micro",
    "street": "1072 N Armando St",
    "city": "Anaheim",
    "state": "California",
    "postal_code": "92806-2605",
    "website_url": "http://www.bottlelogic.com",
    "phone": "714660",
    "created_at": "2018-07-24 01:32:52.882599",
    "updated_at": "2018-08-23 23:25:50.12386",
    "country": "United States",
    "longitude": "-117.859722637846",
    "latitude": "33.8495705",
    "tags": []
  },
  {
    "id": "brewheim-brewing-company",
    "name": "Brewheim Brewing Company",
    "brewery_type": "planning",
    "street": "",
    "city": "Anaheim",
    "state": "California",
    "postal_code": "92806",
    "website_url": "http://www.brewheim.com",
    "phone": "",
    "created_at": "2018-07-24 01:32:53.284928",
    "updated_at": "2018-08-23 23:26:10.410177",
    "country": "United States",
    "longitude": "-117.911732",
    "latitude": "33.8347516",
    "tags": []
  },
  {
    "id": "bruery-terreux",
    "name": "Bruery Terreux",
    "brewery_type": "micro",
    "street": "1174 N Grove St",
    "city": "Anaheim",
    "state": "California",
    "postal_code": "92806-2129",
    "website_url": "http://www.thebruery.com",
    "phone": "7149966258",
    "created_at": "2018-07-24 01:32:53.394538",
    "updated_at": "2018-08-23 23:26:17.982975",
    "country": "United States",
    "longitude": "-117.841875871588",
    "latitude": "33.8579369161764",
    "tags": []
  },
  {
    "id": "golden-road-brewing",
    "name": "Golden Road Brewing",
    "brewery_type": "large",
    "street": "2210 E Orangewood Ave",
    "city": "Anaheim",
    "state": "California",
    "postal_code": "92806",
    "website_url": "",
    "phone": "7149124015",
    "created_at": "2018-07-24 01:32:55.873108",
    "updated_at": "2018-08-11 21:36:04.874391",
    "country": "United States",
    "longitude": "",
    "latitude": "",
    "tags": []
  },
  {
    "id": "h2ops-llc",
    "name": "H2OPS LLC",
    "brewery_type": "planning",
    "street": "",
    "city": "Anaheim",
    "state": "California",
    "postal_code": "92808-1225",
    "website_url": "http://www.h2ops.com",
    "phone": "7143924414",
    "created_at": "2018-07-24 01:32:56.145572",
    "updated_at": "2018-08-23 23:29:06.195049",
    "country": "United States",
    "longitude": "-117.911732",
    "latitude": "33.8347516",
    "tags": []
  },
  {
    "id": "hoparazzi-brewing-co",
    "name": "Hoparazzi Brewing Co",
    "brewery_type": "micro",
    "street": "2910 E La Palma Ave Ste D",
    "city": "Anaheim",
    "state": "California",
    "postal_code": "92806-2618",
    "website_url": "",
    "phone": "",
    "created_at": "2018-07-24 01:32:56.62688",
    "updated_at": "2018-08-11 21:36:07.050897",
    "country": "United States",
    "longitude": "",
    "latitude": "",
    "tags": []
  },
  {
    "id": "karl-strauss-brewing-co-anaheim",
    "name": "Karl Strauss Brewing Co - Anaheim",
    "brewery_type": "brewpub",
    "street": "2390 E Orangewood Ave Ste 100",
    "city": "Anaheim",
    "state": "California",
    "postal_code": "92806-6141",
    "website_url": "",
    "phone": "7149401772",
    "created_at": "2018-07-24 01:32:57.221466",
    "updated_at": "2018-08-11 21:36:09.778792",
    "country": "United States",
    "longitude": "",
    "latitude": "",
    "tags": []
  },
  {
    "id": "legends-craft-brewery",
    "name": "Legends Craft Brewery",
    "brewery_type": "micro",
    "street": "1301 S Lewis St",
    "city": "Anaheim",
    "state": "California",
    "postal_code": "92805-6431",
    "website_url": "http://www.legendsbeer.com",
    "phone": "8883270202",
    "created_at": "2018-07-24 01:32:57.732897",
    "updated_at": "2018-08-23 23:58:56.443957",
    "country": "United States",
    "longitude": "-117.898062087944",
    "latitude": "33.8162808526878",
    "tags": []
  },
  {
    "id": "noble-ale-works",
    "name": "Noble Ale Works",
    "brewery_type": "micro",
    "street": "1621 S Sinclair St Ste B",
    "city": "Anaheim",
    "state": "California",
    "postal_code": "92806-5947",
    "website_url": "http://www.noblealeworks.com",
    "phone": "7146342739",
    "created_at": "2018-07-24 01:32:58.742446",
    "updated_at": "2018-08-11 21:36:14.474286",
    "country": "United States",
    "longitude": "",
    "latitude": "",
    "tags": []
  },
  {
    "id": "all-american-ale-works",
    "name": "All-American Ale Works",
    "brewery_type": "micro",
    "street": "5120 E La Palma Ave Ste 103",
    "city": "Anaheim",
    "state": "California",
    "postal_code": "92807-2082",
    "website_url": "http://www.all-americanaleworks.com",
    "phone": "9517412771",
    "created_at": "2018-07-24 01:32:51.476835",
    "updated_at": "2018-08-11 21:35:53.981375",
    "country": "United States",
    "longitude": "",
    "latitude": "",
    "tags": []
  },
  {
    "id": "jt-schmids-restaurant-and-brewery",
    "name": "JT Schmids Restaurant & Brewery",
    "brewery_type": "brewpub",
    "street": "2610 E Katella Ave",
    "city": "Anaheim",
    "state": "California",
    "postal_code": "92806-5903",
    "website_url": "http://www.jtschmids.com",
    "phone": "7146349200",
    "created_at": "2018-07-24 01:32:57.112782",
    "updated_at": "2018-08-23 23:58:11.267722",
    "country": "United States",
    "longitude": "-117.8770639",
    "latitude": "33.8056683",
    "tags": []
  },
  {
    "id": "phantom-ales",
    "name": "Phantom Ales",
    "brewery_type": "brewpub",
    "street": "1211 N Las Brisas St",
    "city": "Anaheim",
    "state": "California",
    "postal_code": "92806-1823",
    "website_url": "http://www.phantomales.com",
    "phone": "7146309463",
    "created_at": "2018-07-24 01:32:59.417784",
    "updated_at": "2018-08-24 00:00:51.208676",
    "country": "United States",
    "longitude": "-117.8667466",
    "latitude": "33.8540325",
    "tags": []
  },
  {
    "id": "unsung-brewing-company-taproom",
    "name": "Unsung Brewing Company- Taproom",
    "brewery_type": "micro",
    "street": "500 S Anaheim Blvd Ste B",
    "city": "Anaheim",
    "state": "California",
    "postal_code": "92805-4725",
    "website_url": "",
    "phone": "",
    "created_at": "2018-07-24 01:33:02.728515",
    "updated_at": "2018-08-11 21:36:27.20652",
    "country": "United States",
    "longitude": "",
    "latitude": "",
    "tags": []
  }
]