[
  {
    "id": "auburn-alehouse",
    "name": "Auburn Alehouse",
    "brewery_type": "brewpub",
    "street": "289 Washington St",
    "city": "Auburn",
    "state": "California",
    "postal_code": "95603-5036",
    "website_url": "http://www.auburnalehouse.com",
    "phone": "5308852537",
    "created_at": "2018-07-24 01:32:51.916482",
    "updated_at": "2018-08-23 23:24:41.928649",
    "country": "United States",
    "longitude": "-121.078958250811",
    "latitude": "38.8961210674875",
    "tags": []
  },
  {
    "id": "moonraker-brewing-company-production-facility",
    "name": "Moonraker Brewing Company (Production Facility)",
    "brewery_type": "micro",
    "street": "2349 Rickenbacker Way",
    "city": "Auburn",
    "state": "California",
    "postal_code": "95602",
    "website_url": "",
    "phone": "5307456816",
    "created_at": "2018-07-24 01:32:58.471039",
    "updated_at": "2018-08-23 23:59:46.490966",
    "country": "United States",
    "longitude": "-121.081368585457",
    "latitude": "38.952499158384",
    "tags": []
  },
  {
    "id": "tap-and-vine",
    "name": "Tap and Vine",
    "brewery_type": "brewpub",
    "street": "907 Lincoln Way",
    "city": "Auburn",
    "state": "California",
    "postal_code": "95603",
    "website_url": "http://www.tapandvineauburn.com",
    "phone": "5308898463",
    "created_at": "2018-07-24 01:33:01.748535",
    "updated_at": "2018-08-24 00:03:34.148674",
    "country": "United States",
    "longitude": "-121.06949555199",
    "latitude": "38.8995673848688",
    "tags": []
  },
  {
    "id": "knee-deep-brewing-co",
    "name": "Knee Deep Brewing Co.",
    "brewery_type": "regional",
    "street": "13395 New Airport Rd Ste H",
    "city": "Auburn",
    "state": "California",
    "postal_code": "95602-7419",
    "website_url": "http://www.kneedeepbrewing.com",
    "phone": "5307974677",
    "created_at": "2018-07-24 01:32:57.43729",
    "updated_at": "2018-08-11 21:36:10.893015",
    "country": "United States",
    "longitude": "",
    "latitude": "",
    "tags": []
  },
  {
    "id": "moonraker-brewing-co",
    "name": "Moonraker Brewing Co.",
    "brewery_type": "micro",
    "street": "12970 Earhart Ave Ste 100",
    "city": "Auburn",
    "state": "California",
    "postal_code": "95602-9022",
    "website_url": "http://www.moonrakerbrewing.com",
    "phone": "5307456816",
    "created_at": "2018-07-24 01:32:58.459473",
    "updated_at": "2018-08-11 21:36:13.781259",
    "country": "United States",
    "longitude": "",
    "latitude": "",
    "tags": []
  },
  {
    "id": "crooked-lane-brewing-co",
    "name": "Crooked Lane Brewing Co",
    "brewery_type": "micro",
    "street": "536 Grass Valley Hwy",
    "city": "Auburn",
    "state": "California",
    "postal_code": "95603-3807",
    "website_url": "http://www.crookedlanebrewing.com",
    "phone": "5306137434",
    "created_at": "2018-07-24 01:32:54.217841",
    "updated_at": "2018-08-23 23:27:09.162508",
    "country": "United States",
    "longitude": "-121.076938366006",
    "latitude": "38.9086988790416",
    "tags": []
  }
]