[
  {
    "id": "fieldwork-brewing-co",
    "name": "Fieldwork Brewing Co",
    "brewery_type": "regional",
    "street": "1160 6th St",
    "city": "Berkeley",
    "state": "California",
    "postal_code": "94710-1247",
    "website_url": "http://www.fieldworkbrewing.com",
    "phone": "5108981203",
    "created_at": "2018-07-24 01:32:55.370598",
    "updated_at": "2018-08-23 23:28:19.100135",
    "country": "United States",
    "longitude": "-122.302214696327",
    "latitude": "37.88157297059",
    "tags": []
  },
  {
    "id": "the-rare-barrel",
    "name": "The Rare Barrel",
    "brewery_type": "micro",
    "street": "940 Parker St",
    "city": "Berkeley",
    "state": "California",
    "postal_code": "94710",
    "website_url": "http://www.therarebarrel.com",
    "phone": "5109846585",
    "created_at": "2018-07-24 01:33:02.119915",
    "updated_at": "2018-08-24 00:03:55.603239",
    "country": "United States",
    "longitude": "-122.2914445",
    "latitude": "37.8576209",
    "tags": []
  },
  {
    "id": "gilman-brewing-company",
    "name": "Gilman Brewing Company",
    "brewery_type": "micro",
    "street": "912 Gilman St",
    "city": "Berkeley",
    "state": "California",
    "postal_code": "94710-1424",
    "website_url": "http://www.gilmanbrew.com",
    "phone": "",
    "created_at": "2018-07-24 01:32:55.809817",
    "updated_at": "2018-08-23 23:28:46.95377",
    "country": "United States",
    "longitude": "-122.2998747",
    "latitude": "37.879466",
    "tags": []
  },
  {
    "id": "hoi-polloi-brewpub-and-beat-lounge",
    "name": "Hoi Polloi Brewpub and Beat Lounge",
    "brewery_type": "micro",
    "street": "1763 Alcatraz Ave",
    "city": "Berkeley",
    "state": "California",
    "postal_code": "94703",
    "website_url": "",
    "phone": "5108587334",
    "created_at": "2018-07-24 01:32:56.525205",
    "updated_at": "2018-08-23 23:29:27.704529",
    "country": "United States",
    "longitude": "-122.272181",
    "latitude": "37.8487711",
    "tags": []
  },
  {
    "id": "jupiter",
    "name": "Jupiter",
    "brewery_type": "brewpub",
    "street": "2181 Shattuck Ave",
    "city": "Berkeley",
    "state": "California",
    "postal_code": "94704-1308",
    "website_url": "http://www.jupiterbeer.com",
    "phone": "5108438277",
    "created_at": "2018-07-24 01:32:57.160336",
    "updated_at": "2018-08-23 23:58:14.942812",
    "country": "United States",
    "longitude": "-122.2676799",
    "latitude": "37.8697889",
    "tags": []
  },
  {
    "id": "triple-rock-brewery-and-alehouse",
    "name": "Triple Rock Brewery and Alehouse",
    "brewery_type": "brewpub",
    "street": "1920 Shattuck Ave",
    "city": "Berkeley",
    "state": "California",
    "postal_code": "94704-1022",
    "website_url": "http://www.triplerock.com",
    "phone": "5108432739",
    "created_at": "2018-07-24 01:33:02.568129",
    "updated_at": "2018-08-24 00:04:27.698327",
    "country": "United States",
    "longitude": "-122.268746",
    "latitude": "37.873419",
    "tags": []
  },
  {
    "id": "trumer-brewery",
    "name": "Trumer Brewery",
    "brewery_type": "regional",
    "street": "1404 4th St",
    "city": "Berkeley",
    "state": "California",
    "postal_code": "94710-1323",
    "website_url": "http://www.trumer-international.com",
    "phone": "5105261160",
    "created_at": "2018-07-24 01:33:02.603896",
    "updated_at": "2018-08-24 00:04:30.492117",
    "country": "United States",
    "longitude": "-122.303026514994",
    "latitude": "37.8768652612762",
    "tags": []
  },
  {
    "id": "lucky-devil-brewing",
    "name": "Lucky Devil Brewing",
    "brewery_type": "contract",
    "street": "1134 Delaware St Apt E",
    "city": "Berkeley",
    "state": "California",
    "postal_code": "94702-1672",
    "website_url": "http://www.luckydevilbrewery.com",
    "phone": "5109692865",
    "created_at": "2018-07-24 01:32:57.989811",
    "updated_at": "2018-08-11 21:36:12.399602",
    "country": "United States",
    "longitude": "",
    "latitude": "",
    "tags": []
  }
]