[
  {
    "id": "brewery-at-simmzys-burbank",
    "name": "Brewery At Simmzys Burbank",
    "brewery_type": "brewpub",
    "street": "3000 W Olive Ave",
    "city": "Burbank",
    "state": "California",
    "postal_code": "91505-4537",
    "website_url": "http://www.Simmzys.com",
    "phone": "8189622500",
    "created_at": "2018-07-24 01:32:52.9919",
    "updated_at": "2018-08-23 23:25:58.721226",
    "country": "United States",
    "longitude": "-118.3336262",
    "latitude": "34.1572656",
    "tags": []
  },
  {
    "id": "gordon-biersch-brewery-restaurant-burbank",
    "name": "Gordon Biersch Brewery Restaurant - Burbank",
    "brewery_type": "brewpub",
    "street": "145 S San Fernando Blvd",
    "city": "Burbank",
    "state": "California",
    "postal_code": "91502-1322",
    "website_url": "http://www.gordonbiersch.com/restaurant",
    "phone": "8185695240",
    "created_at": "2018-07-24 01:32:55.922288",
    "updated_at": "2018-08-23 23:28:54.249245",
    "country": "United States",
    "longitude": "-118.308339665739",
    "latitude": "34.1804175878314",
    "tags": []
  },
  {
    "id": "henson-brewing",
    "name": "Henson Brewing",
    "brewery_type": "micro",
    "street": "",
    "city": "Burbank",
    "state": "California",
    "postal_code": "91504",
    "website_url": "http://www.facebook.com/HensonBrewing/",
    "phone": "",
    "created_at": "2018-07-24 01:32:56.387246",
    "updated_at": "2018-08-23 23:29:20.039595",
    "country": "United States",
    "longitude": "-118.3258554",
    "latitude": "34.1816482",
    "tags": []
  },
  {
    "id": "lincoln-beer-company",
    "name": "Lincoln Beer Company",
    "brewery_type": "micro",
    "street": "3083 N Lima St",
    "city": "Burbank",
    "state": "California",
    "postal_code": "91504-2013",
    "website_url": "http://www.lincolnbeercompany.com",
    "phone": "8186874206",
    "created_at": "2018-07-24 01:32:57.7839",
    "updated_at": "2018-08-23 23:59:00.811879",
    "country": "United States",
    "longitude": "-118.346620636364",
    "latitude": "34.2060527272727",
    "tags": []
  },
  {
    "id": "verdugo-west-brewing-company",
    "name": "Verdugo West Brewing Company",
    "brewery_type": "micro",
    "street": "156 W Verdugo Ave",
    "city": "Burbank",
    "state": "California",
    "postal_code": "91502-2132",
    "website_url": "http://www.verdugowestbrewing.com",
    "phone": "8188415040",
    "created_at": "2018-07-24 01:33:02.822997",
    "updated_at": "2018-08-24 00:04:46.177428",
    "country": "United States",
    "longitude": "-118.310368236032",
    "latitude": "34.17375015",
    "tags": []
  }
]