[
  {
    "id": "rouleur-brewing-company",
    "name": "Rouleur Brewing Company",
    "brewery_type": "micro",
    "street": "5840 El Camino Real Ste 101",
    "city": "Carlsbad",
    "state": "California",
    "postal_code": "92008-8804",
    "website_url": "http://www.rouleurbrewing.com",
    "phone": "4422445111",
    "created_at": "2018-07-24 01:33:00.225052",
    "updated_at": "2018-08-24 00:01:45.520254",
    "country": "United States",
    "longitude": "-117.269558",
    "latitude": "33.133904",
    "tags": []
  },
  {
    "id": "culver-beer-company",
    "name": "Culver Beer Company",
    "brewery_type": "micro",
    "street": "2719 Loker Ave W Ste D",
    "city": "Carlsbad",
    "state": "California",
    "postal_code": "92010-6679",
    "website_url": "http://www.culverbeer.com",
    "phone": "7608142355",
    "created_at": "2018-07-24 01:32:54.244343",
    "updated_at": "2018-08-11 21:36:00.746414",
    "country": "United States",
    "longitude": "",
    "latitude": "",
    "tags": []
  },
  {
    "id": "arcana-brewing-company",
    "name": "Arcana Brewing Company",
    "brewery_type": "micro",
    "street": "5621 Palmer Way Ste C",
    "city": "Carlsbad",
    "state": "California",
    "postal_code": "92010-7254",
    "website_url": "http://www.arcanabrewing.com",
    "phone": "",
    "created_at": "2018-07-24 01:32:51.794775",
    "updated_at": "2018-08-11 21:35:54.752915",
    "country": "United States",
    "longitude": "",
    "latitude": "",
    "tags": []
  },
  {
    "id": "burgeon-beer-company",
    "name": "Burgeon Beer Company",
    "brewery_type": "micro",
    "street": "6350 Yarrow Dr Ste C",
    "city": "Carlsbad",
    "state": "California",
    "postal_code": "92011-1544",
    "website_url": "http://www.burgeonbeer.com",
    "phone": "7608142548",
    "created_at": "2018-07-24 01:32:53.441292",
    "updated_at": "2018-08-11 21:35:58.547073",
    "country": "United States",
    "longitude": "",
    "latitude": "",
    "tags": []
  },
  {
    "id": "guadalupe-brewery",
    "name": "Guadalupe Brewery",
    "brewery_type": "micro",
    "street": "5674 El Camino Real Ste D",
    "city": "Carlsbad",
    "state": "California",
    "postal_code": "92008-7130",
    "website_url": "http://www.guadalupebrewery.com",
    "phone": "8587514278",
    "created_at": "2018-07-24 01:32:56.104966",
    "updated_at": "2018-08-11 21:36:05.416122",
    "country": "United States",
    "longitude": "",
    "latitude": "",
    "tags": []
  },
  {
    "id": "karl-strauss-brewing-co-carlsbad",
    "name": "Karl Strauss Brewing Co - Carlsbad",
    "brewery_type": "brewpub",
    "street": "5801 Armada Dr",
    "city": "Carlsbad",
    "state": "California",
    "postal_code": "92008-4609",
    "website_url": "http://www.karlstrauss.com",
    "phone": "7604312739",
    "created_at": "2018-07-24 01:32:57.233084",
    "updated_at": "2018-08-23 23:58:19.763988",
    "country": "United States",
    "longitude": "-117.314236",
    "latitude": "33.124447",
    "tags": []
  },
  {
    "id": "papa-marces-cerveceria",
    "name": "Papa Marce's Cerveceria",
    "brewery_type": "planning",
    "street": "",
    "city": "Carlsbad",
    "state": "California",
    "postal_code": "92008",
    "website_url": "http://www.papamarces.com",
    "phone": "8584146976",
    "created_at": "2018-07-24 01:32:59.304221",
    "updated_at": "2018-08-24 00:00:43.76908",
    "country": "United States",
    "longitude": "-117.3505966",
    "latitude": "33.1580933",
    "tags": []
  },
  {
    "id": "pizza-port-bressi-ranch",
    "name": "Pizza Port - Bressi Ranch",
    "brewery_type": "regional",
    "street": "2730 Gateway Rd",
    "city": "Carlsbad",
    "state": "California",
    "postal_code": "92009-1730",
    "website_url": "http://www.pizzaport.com",
    "phone": "7607071655",
    "created_at": "2018-07-24 01:32:59.485696",
    "updated_at": "2018-08-24 00:00:55.788701",
    "country": "United States",
    "longitude": "-117.251077328407",
    "latitude": "33.1280776077661",
    "tags": []
  },
  {
    "id": "pizza-port-carlsbad",
    "name": "Pizza Port Carlsbad",
    "brewery_type": "regional",
    "street": "571 Carlsbad Village Dr",
    "city": "Carlsbad",
    "state": "California",
    "postal_code": "92008-2304",
    "website_url": "http://www.pizzaport.com",
    "phone": "7607207007",
    "created_at": "2018-07-24 01:32:59.502698",
    "updated_at": "2018-08-24 00:00:56.674472",
    "country": "United States",
    "longitude": "-117.347715240745",
    "latitude": "33.1598703",
    "tags": []
  },
  {
    "id": "kuracali-inc",
    "name": "Kuracali Inc",
    "brewery_type": "proprietor",
    "street": "821 Caminito del Reposo",
    "city": "Carlsbad",
    "state": "California",
    "postal_code": "92011-2404",
    "website_url": "http://www.kuracali.com",
    "phone": "8587756502",
    "created_at": "2018-07-24 01:32:57.475571",
    "updated_at": "2018-08-23 23:58:38.040808",
    "country": "United States",
    "longitude": "-117.315852",
    "latitude": "33.11493",
    "tags": []
  }
]