[
  {
    "id": "brewlab",
    "name": "BrewLAB",
    "brewery_type": "micro",
    "street": "4191 Carpinteria Ave Ste 8",
    "city": "Carpinteria",
    "state": "California",
    "postal_code": "93013-3302",
    "website_url": "http://www.brewlabcraft.com/",
    "phone": "",
    "created_at": "2018-07-24 01:32:53.308028",
    "updated_at": "2018-08-11 21:35:58.237349",
    "country": "United States",
    "longitude": "",
    "latitude": "",
    "tags": []
  },
  {
    "id": "island-brewing-co",
    "name": "Island Brewing Co",
    "brewery_type": "micro",
    "street": "5049 6th St",
    "city": "Carpinteria",
    "state": "California",
    "postal_code": "93013-2001",
    "website_url": "http://www.islandbrewingcompany.com",
    "phone": "8057458272",
    "created_at": "2018-07-24 01:32:57.004391",
    "updated_at": "2018-08-23 23:30:01.354355",
    "country": "United States",
    "longitude": "-119.521007020408",
    "latitude": "34.3959039183673",
    "tags": []
  },
  {
    "id": "rincon-brewery",
    "name": "Rincon Brewery",
    "brewery_type": "brewpub",
    "street": "5065 Carpinteria Ave",
    "city": "Carpinteria",
    "state": "California",
    "postal_code": "93013-2046",
    "website_url": "http://www.rinconbrewery.com",
    "phone": "8056846044",
    "created_at": "2018-07-24 01:32:59.969057",
    "updated_at": "2018-08-24 00:01:31.346006",
    "country": "United States",
    "longitude": "-119.517858636364",
    "latitude": "34.39834",
    "tags": []
  },
  {
    "id": "teeccino-brewing-company",
    "name": "Teeccino Brewing Company",
    "brewery_type": "planning",
    "street": "",
    "city": "Carpinteria",
    "state": "California",
    "postal_code": "93013-2905",
    "website_url": "http://www.teeccino.com",
    "phone": "8059660999",
    "created_at": "2018-07-24 01:33:01.854474",
    "updated_at": "2018-08-24 00:03:40.844412",
    "country": "United States",
    "longitude": "-119.5184564",
    "latitude": "34.3988838",
    "tags": []
  }
]