[
  {
    "id": "559-local-brewing",
    "name": "559 Local Brewing",
    "brewery_type": "micro",
    "street": "608 4th St",
    "city": "Clovis",
    "state": "California",
    "postal_code": "93612-1183",
    "website_url": "http://www.fresnobrewingcompany.com",
    "phone": "5594731875",
    "created_at": "2018-07-24 01:32:51.238816",
    "updated_at": "2018-08-23 23:23:53.237117",
    "country": "United States",
    "longitude": "-119.701748652921",
    "latitude": "36.8251717101389",
    "tags": []
  },
  {
    "id": "kings-river-brewing-company",
    "name": "Kings River Brewing Company",
    "brewery_type": "planning",
    "street": "",
    "city": "Clovis",
    "state": "California",
    "postal_code": "93612-2825",
    "website_url": "http://www.kingsriverbrewing.com",
    "phone": "5599060615",
    "created_at": "2018-07-24 01:32:57.425147",
    "updated_at": "2018-08-23 23:58:34.343483",
    "country": "United States",
    "longitude": "-119.7029194",
    "latitude": "36.8252277",
    "tags": []
  },
  {
    "id": "machinehead-brewing-co",
    "name": "MachineHead Brewing Co.",
    "brewery_type": "planning",
    "street": "",
    "city": "Clovis",
    "state": "California",
    "postal_code": "93612",
    "website_url": "",
    "phone": "",
    "created_at": "2018-07-24 01:32:58.030967",
    "updated_at": "2018-08-23 23:59:16.599932",
    "country": "United States",
    "longitude": "-119.7029194",
    "latitude": "36.8252277",
    "tags": []
  },
  {
    "id": "rileys-brew-pub",
    "name": "Riley's Brew Pub",
    "brewery_type": "brewpub",
    "street": "2674 Owens Mountain Pkwy Ste 104",
    "city": "Clovis",
    "state": "California",
    "postal_code": "93611-9588",
    "website_url": "http://rileysbrew.pub",
    "phone": "5598622925",
    "created_at": "2018-07-24 01:32:59.943868",
    "updated_at": "2018-08-24 00:01:29.528991",
    "country": "United States",
    "longitude": "-119.6452626",
    "latitude": "36.855494",
    "tags": []
  },
  {
    "id": "zone-9-brewing-company",
    "name": "Zone 9 Brewing Company",
    "brewery_type": "micro",
    "street": "1450 Tollhouse Rd Ste 105",
    "city": "Clovis",
    "state": "California",
    "postal_code": "93611-0503",
    "website_url": "",
    "phone": "5592600539",
    "created_at": "2018-07-24 01:33:03.154496",
    "updated_at": "2018-08-24 00:05:09.435818",
    "country": "United States",
    "longitude": "-119.690656660515",
    "latitude": "36.8261033101924",
    "tags": []
  }
]