[
  {
    "id": "main-street-brewery",
    "name": "Main Street Brewery",
    "brewery_type": "brewpub",
    "street": "493 N Main St",
    "city": "Corona",
    "state": "California",
    "postal_code": "92880-2042",
    "website_url": "http://www.mainstreetbrewery.com",
    "phone": "9513711471",
    "created_at": "2018-07-24 01:32:58.130066",
    "updated_at": "2018-08-23 23:59:23.408755",
    "country": "United States",
    "longitude": "-117.5636924",
    "latitude": "33.8925168",
    "tags": []
  },
  {
    "id": "skyland-ale-works",
    "name": "Skyland Ale Works",
    "brewery_type": "micro",
    "street": "1869 Pomona Rd Ste E",
    "city": "Corona",
    "state": "California",
    "postal_code": "92880-1789",
    "website_url": "http://www.skylandaleworks.com",
    "phone": "9518173037",
    "created_at": "2018-07-24 01:33:00.873172",
    "updated_at": "2018-08-11 21:36:21.011704",
    "country": "United States",
    "longitude": "",
    "latitude": "",
    "tags": []
  },
  {
    "id": "stone-church-brewing",
    "name": "Stone Church Brewing",
    "brewery_type": "micro",
    "street": "2785 Cabot Dr Ste 160",
    "city": "Corona",
    "state": "California",
    "postal_code": "92883-7388",
    "website_url": "http://www.stonechurchbrewing.com",
    "phone": "3105676582",
    "created_at": "2018-07-24 01:33:01.483282",
    "updated_at": "2018-08-24 00:03:15.295693",
    "country": "United States",
    "longitude": "-117.5046237",
    "latitude": "33.8131807",
    "tags": []
  },
  {
    "id": "storytellers-brewery-and-meet-house-llc",
    "name": "Storytellers Brewery and Meet House, LLC",
    "brewery_type": "planning",
    "street": "",
    "city": "Corona",
    "state": "California",
    "postal_code": "92880-1798",
    "website_url": "http://www.storytellersbrewery.com",
    "phone": "9092475710",
    "created_at": "2018-07-24 01:33:01.496435",
    "updated_at": "2018-08-24 00:03:15.776412",
    "country": "United States",
    "longitude": "-117.5664449",
    "latitude": "33.8752945",
    "tags": []
  },
  {
    "id": "taps-fish-house-and-brewery-corona",
    "name": "TAPS Fish House and Brewery - Corona",
    "brewery_type": "brewpub",
    "street": "2745 Lakeshore Dr",
    "city": "Corona",
    "state": "California",
    "postal_code": "92883-7367",
    "website_url": "",
    "phone": "9512775800",
    "created_at": "2018-07-24 01:33:01.815405",
    "updated_at": "2018-08-24 00:03:38.525283",
    "country": "United States",
    "longitude": "-117.508854100175",
    "latitude": "33.8140831529874",
    "tags": []
  }
]