[
  {
    "id": "dreaming-dog-brewery",
    "name": "Dreaming Dog Brewery",
    "brewery_type": "micro",
    "street": "2501 W Taron Ct",
    "city": "Elk Grove",
    "state": "California",
    "postal_code": "95757-8423",
    "website_url": "",
    "phone": "",
    "created_at": "2018-07-24 01:32:54.632443",
    "updated_at": "2018-08-11 21:36:01.729471",
    "country": "United States",
    "longitude": "",
    "latitude": "",
    "tags": []
  },
  {
    "id": "tilted-mash-brewery",
    "name": "Tilted Mash Brewery",
    "brewery_type": "micro",
    "street": "9175 Union Park Way",
    "city": "Elk Grove",
    "state": "California",
    "postal_code": "95624-2792",
    "website_url": "http://www.tiltedmash.com",
    "phone": "",
    "created_at": "2018-07-24 01:33:02.353449",
    "updated_at": "2018-08-24 00:04:13.35612",
    "country": "United States",
    "longitude": "-121.361147165058",
    "latitude": "38.3880465600215",
    "tags": []
  },
  {
    "id": "waterman-brewing-company",
    "name": "Waterman Brewing Company",
    "brewery_type": "micro",
    "street": "9824 Dino Dr Unit 150",
    "city": "Elk Grove",
    "state": "California",
    "postal_code": "95624-1277",
    "website_url": "http://www.watermanbrewing.com",
    "phone": "9167142337",
    "created_at": "2018-07-24 01:33:02.858817",
    "updated_at": "2018-08-11 21:36:28.124673",
    "country": "United States",
    "longitude": "",
    "latitude": "",
    "tags": []
  },
  {
    "id": "brewery-in-planning-elk-grove",
    "name": "Brewery In Planning - Elk Grove",
    "brewery_type": "planning",
    "street": "",
    "city": "Elk Grove",
    "state": "California",
    "postal_code": "95624-6066",
    "website_url": "",
    "phone": "",
    "created_at": "2018-07-24 01:32:53.104587",
    "updated_at": "2018-08-23 23:26:03.255579",
    "country": "United States",
    "longitude": "-121.3716178",
    "latitude": "38.4087993",
    "tags": []
  },
  {
    "id": "flatland-brewing-company",
    "name": "Flatland Brewing Company",
    "brewery_type": "micro",
    "street": "9183 Survey Rd Ste 104",
    "city": "Elk Grove",
    "state": "California",
    "postal_code": "95624-9712",
    "website_url": "http://www.flatlandbrewingco.com",
    "phone": "9167533116",
    "created_at": "2018-07-24 01:32:55.597809",
    "updated_at": "2018-08-23 23:28:34.168414",
    "country": "United States",
    "longitude": "-121.356768554505",
    "latitude": "38.376847113657",
    "tags": []
  }
]