[
  {
    "id": "devils-potion-brewing-company-llc",
    "name": "Devil's Potion Brewing Company LLC",
    "brewery_type": "planning",
    "street": "",
    "city": "Escondido",
    "state": "California",
    "postal_code": "92026-3187",
    "website_url": "http://www.devilspotion.com",
    "phone": "7605329091",
    "created_at": "2018-07-24 01:32:54.405977",
    "updated_at": "2018-08-23 23:27:21.742344",
    "country": "United States",
    "longitude": "-117.0814849",
    "latitude": "33.1216751",
    "tags": []
  },
  {
    "id": "escondido-brewing-company",
    "name": "Escondido Brewing Company",
    "brewery_type": "micro",
    "street": "649 Rock Springs Rd",
    "city": "Escondido",
    "state": "California",
    "postal_code": "92025-1622",
    "website_url": "http://www.escobrewco.com",
    "phone": "",
    "created_at": "2018-07-24 01:32:55.149242",
    "updated_at": "2018-08-23 23:28:05.70873",
    "country": "United States",
    "longitude": "-117.097042",
    "latitude": "33.124632",
    "tags": []
  },
  {
    "id": "jacked-up-brewery",
    "name": "Jacked Up Brewery",
    "brewery_type": "micro",
    "street": "800 W Grand Ave Ste B Ste 201",
    "city": "Escondido",
    "state": "California",
    "postal_code": "92025-2562",
    "website_url": "http://jackedupbrewery.com",
    "phone": "7603000633",
    "created_at": "2018-07-24 01:32:57.02762",
    "updated_at": "2018-08-11 21:36:08.787673",
    "country": "United States",
    "longitude": "",
    "latitude": "",
    "tags": []
  },
  {
    "id": "plan-9-alehouse",
    "name": "Plan 9 Alehouse",
    "brewery_type": "brewpub",
    "street": "155 E Grand Ave",
    "city": "Escondido",
    "state": "California",
    "postal_code": "92025-2701",
    "website_url": "http://www.plan9alehouse.com",
    "phone": "7604898817",
    "created_at": "2018-07-24 01:32:59.573804",
    "updated_at": "2018-08-24 00:01:01.873897",
    "country": "United States",
    "longitude": "-117.08217073041",
    "latitude": "33.1212147114584",
    "tags": []
  },
  {
    "id": "stone-brewing-co",
    "name": "Stone Brewing Co",
    "brewery_type": "regional",
    "street": "2120 Harmony Grove Rd",
    "city": "Escondido",
    "state": "California",
    "postal_code": "92029-2053",
    "website_url": "http://www.stonebrewing.com",
    "phone": "76029478991803",
    "created_at": "2018-07-24 01:33:01.445471",
    "updated_at": "2018-08-24 00:03:12.459681",
    "country": "United States",
    "longitude": "-117.11565",
    "latitude": "33.109969",
    "tags": []
  }
]