[
  {
    "id": "humboldt-springs-brewing-co",
    "name": "Humboldt Springs Brewing Co",
    "brewery_type": "planning",
    "street": "",
    "city": "Eureka",
    "state": "California",
    "postal_code": "95501",
    "website_url": "",
    "phone": "7074993050",
    "created_at": "2018-07-24 01:32:56.747228",
    "updated_at": "2018-08-23 23:29:42.232168",
    "country": "United States",
    "longitude": "-124.1636729",
    "latitude": "40.8020712",
    "tags": []
  },
  {
    "id": "lost-coast-brew-house",
    "name": "Lost Coast Brew House",
    "brewery_type": "brewpub",
    "street": "1600 Sunset Dr",
    "city": "Eureka",
    "state": "California",
    "postal_code": "95503-2401",
    "website_url": "http://www.lostcoast.com",
    "phone": "7074454484",
    "created_at": "2018-07-24 01:32:57.936092",
    "updated_at": "2018-08-11 21:36:12.261001",
    "country": "United States",
    "longitude": "",
    "latitude": "",
    "tags": []
  },
  {
    "id": "lost-coast-brewery-and-cafe-table-bluff-brewing-inc",
    "name": "Lost Coast Brewery and Cafe - Table Bluff Brewing, Inc.",
    "brewery_type": "regional",
    "street": "617 4th St",
    "city": "Eureka",
    "state": "California",
    "postal_code": "95501-1013",
    "website_url": "http://www.lostcoast.com",
    "phone": "7074454480",
    "created_at": "2018-07-24 01:32:57.949524",
    "updated_at": "2018-08-23 23:59:11.908917",
    "country": "United States",
    "longitude": "-124.164814102041",
    "latitude": "40.8030204693878",
    "tags": []
  },
  {
    "id": "the-booth-brewing-co",
    "name": "The Booth Brewing Co.",
    "brewery_type": "micro",
    "street": "123 W 3rd St",
    "city": "Eureka",
    "state": "California",
    "postal_code": "95501-0222",
    "website_url": "http://www.theboothbrewing.com",
    "phone": "7075725728",
    "created_at": "2018-07-24 01:33:01.983608",
    "updated_at": "2018-08-24 00:03:48.763836",
    "country": "United States",
    "longitude": "-124.174307223734",
    "latitude": "40.80226985",
    "tags": []
  }
]