[
  {
    "id": "anheuser-busch-inc-a-fairfield",
    "name": "Anheuser-Busch Inc â Fairfield",
    "brewery_type": "large",
    "street": "3101 Busch Dr",
    "city": "Fairfield",
    "state": "California",
    "postal_code": "94534-9726",
    "website_url": "",
    "phone": "7074292000",
    "created_at": "2018-07-24 01:32:51.760031",
    "updated_at": "2018-08-23 23:24:29.016918",
    "country": "United States",
    "longitude": "-122.090299182842",
    "latitude": "38.2365838",
    "tags": []
  },
  {
    "id": "blue-frog-brewing-company",
    "name": "Blue Frog Brewing Company",
    "brewery_type": "micro",
    "street": "1740 Travis Blvd",
    "city": "Fairfield",
    "state": "California",
    "postal_code": "94533-3431",
    "website_url": "http://www.bluefrogbrewingcompany.com",
    "phone": "7074292337",
    "created_at": "2018-07-24 01:32:52.716072",
    "updated_at": "2018-08-23 23:25:37.787686",
    "country": "United States",
    "longitude": "-122.0600589",
    "latitude": "38.2585569",
    "tags": []
  },
  {
    "id": "chau-tien-beer-company",
    "name": "Chau Tien Beer Company",
    "brewery_type": "contract",
    "street": "",
    "city": "Fairfield",
    "state": "California",
    "postal_code": "94533-0244",
    "website_url": "http://www.paleale.com",
    "phone": "7072808044",
    "created_at": "2018-07-24 01:32:53.749596",
    "updated_at": "2018-08-23 23:26:39.653863",
    "country": "United States",
    "longitude": "-122.0399663",
    "latitude": "38.2493581",
    "tags": []
  },
  {
    "id": "heretic-brewing-company",
    "name": "Heretic Brewing Company",
    "brewery_type": "micro",
    "street": "1052 Horizon Dr Ste B",
    "city": "Fairfield",
    "state": "California",
    "postal_code": "94533-1694",
    "website_url": "http://www.hereticbrewing.com",
    "phone": "7073894573",
    "created_at": "2018-07-24 01:32:56.401363",
    "updated_at": "2018-08-11 21:36:06.214918",
    "country": "United States",
    "longitude": "",
    "latitude": "",
    "tags": []
  },
  {
    "id": "old-country-brewing",
    "name": "Old Country Brewing",
    "brewery_type": "planning",
    "street": "",
    "city": "Fairfield",
    "state": "California",
    "postal_code": "94533-7790",
    "website_url": "",
    "phone": "",
    "created_at": "2018-07-24 01:32:59.056347",
    "updated_at": "2018-08-24 00:00:27.078558",
    "country": "United States",
    "longitude": "-122.0399663",
    "latitude": "38.2493581",
    "tags": []
  }
]