[
  {
    "id": "sequoia-brewing-co-tower-district",
    "name": "Sequoia Brewing Co - Tower District",
    "brewery_type": "brewpub",
    "street": "777 E Olive Ave",
    "city": "Fresno",
    "state": "California",
    "postal_code": "93728-3350",
    "website_url": "http://www.sequoiabrewing.com",
    "phone": "5592645521",
    "created_at": "2018-07-24 01:33:00.711372",
    "updated_at": "2018-08-24 00:02:21.148603",
    "country": "United States",
    "longitude": "-119.801962153846",
    "latitude": "36.7577440769231",
    "tags": []
  },
  {
    "id": "pine-and-palm-brewing",
    "name": "Pine and Palm Brewing",
    "brewery_type": "micro",
    "street": "352 W Bedford Ave Ste 102",
    "city": "Fresno",
    "state": "California",
    "postal_code": "93711-6079",
    "website_url": "http://www.pineandpalmbrewing.com",
    "phone": "",
    "created_at": "2018-07-24 01:32:59.441487",
    "updated_at": "2018-08-11 21:36:16.223796",
    "country": "United States",
    "longitude": "",
    "latitude": "",
    "tags": []
  },
  {
    "id": "411-broadway-ales",
    "name": "411 Broadway Ales",
    "brewery_type": "planning",
    "street": "",
    "city": "Fresno",
    "state": "California",
    "postal_code": "93721-2801",
    "website_url": "",
    "phone": "5412706076",
    "created_at": "2018-07-24 01:32:51.199293",
    "updated_at": "2018-08-23 23:23:50.466587",
    "country": "United States",
    "longitude": "-119.708861260756",
    "latitude": "36.7295295",
    "tags": []
  },
  {
    "id": "full-circle-brewing-co",
    "name": "Full Circle Brewing Co",
    "brewery_type": "micro",
    "street": "620 F St",
    "city": "Fresno",
    "state": "California",
    "postal_code": "93706-3413",
    "website_url": "http://www.fullcirclebrewing.com",
    "phone": "5592646323",
    "created_at": "2018-07-24 01:32:55.73165",
    "updated_at": "2018-08-23 23:28:42.222764",
    "country": "United States",
    "longitude": "-119.790779671265",
    "latitude": "36.7268371852137",
    "tags": []
  },
  {
    "id": "mad-duck-craft-brewing-company",
    "name": "Mad Duck Craft Brewing Company",
    "brewery_type": "brewpub",
    "street": "3085 E Campus Pointe Dr",
    "city": "Fresno",
    "state": "California",
    "postal_code": "93710-7526",
    "website_url": "http://www.madduckcraft.com",
    "phone": "5593253825",
    "created_at": "2018-07-24 01:32:58.054964",
    "updated_at": "2018-08-11 21:36:12.692445",
    "country": "United States",
    "longitude": "",
    "latitude": "",
    "tags": []
  },
  {
    "id": "sackbut-brewing-and-barrelwerks",
    "name": "Sackbut Brewing and Barrelwerks",
    "brewery_type": "micro",
    "street": "3153 E Huntington Blvd",
    "city": "Fresno",
    "state": "California",
    "postal_code": "93702-3215",
    "website_url": "http://www.sackbutbrewing.com",
    "phone": "",
    "created_at": "2018-07-24 01:33:00.344846",
    "updated_at": "2018-08-24 00:01:53.158044",
    "country": "United States",
    "longitude": "-119.771520598509",
    "latitude": "36.7394665849273",
    "tags": []
  },
  {
    "id": "tactical-ops-brewing-inc",
    "name": "Tactical OPS Brewing Inc.",
    "brewery_type": "proprietor",
    "street": "2985 N Burl 102",
    "city": "Fresno",
    "state": "California",
    "postal_code": "93727",
    "website_url": "http://www.tacticalopsbrewing.com",
    "phone": "5593138759",
    "created_at": "2018-07-24 01:33:01.698988",
    "updated_at": "2018-08-24 00:03:30.371038",
    "country": "United States",
    "longitude": "-119.6761563",
    "latitude": "36.7913344",
    "tags": []
  },
  {
    "id": "tioga-sequoia-brewing-co",
    "name": "Tioga-Sequoia Brewing Co",
    "brewery_type": "micro",
    "street": "746 Broadway St",
    "city": "Fresno",
    "state": "California",
    "postal_code": "93721-2808",
    "website_url": "http://www.tiogasequoia.com",
    "phone": "5592645521",
    "created_at": "2018-07-24 01:33:02.377606",
    "updated_at": "2018-08-24 00:04:15.079879",
    "country": "United States",
    "longitude": "-119.78830790357",
    "latitude": "36.7307167943916",
    "tags": []
  }
]