[
  {
    "id": "phantom-carriage-brewery",
    "name": "Phantom Carriage Brewery",
    "brewery_type": "brewpub",
    "street": "18525 S Main St",
    "city": "Gardena",
    "state": "California",
    "postal_code": "90248-4611",
    "website_url": "http://www.phantomcarriage.com",
    "phone": "3105385834",
    "created_at": "2018-07-24 01:32:59.42967",
    "updated_at": "2018-08-11 21:36:16.194841",
    "country": "United States",
    "longitude": "",
    "latitude": "",
    "tags": []
  },
  {
    "id": "state-brewing-co-llc",
    "name": "State Brewing Co LLC",
    "brewery_type": "micro",
    "street": "1237 W 134th St Ste 2",
    "city": "Gardena",
    "state": "California",
    "postal_code": "90247-1962",
    "website_url": "http://www.statebrewingco.com",
    "phone": "3108198179",
    "created_at": "2018-07-24 01:33:01.330377",
    "updated_at": "2018-08-11 21:36:22.557352",
    "country": "United States",
    "longitude": "",
    "latitude": "",
    "tags": []
  },
  {
    "id": "two-coast-brewing-co",
    "name": "Two Coast Brewing Co.",
    "brewery_type": "contract",
    "street": "1866 W 169th St Ste H",
    "city": "Gardena",
    "state": "California",
    "postal_code": "90247-5231",
    "website_url": "http://www.twocoastbrewing.com",
    "phone": "3107300055",
    "created_at": "2018-07-24 01:33:02.654028",
    "updated_at": "2018-08-11 21:36:26.855692",
    "country": "United States",
    "longitude": "",
    "latitude": "",
    "tags": []
  },
  {
    "id": "ximix-craft-exploration",
    "name": "Ximix Craft Exploration",
    "brewery_type": "micro",
    "street": "13723 1/2 Harvard Pl",
    "city": "Gardena",
    "state": "California",
    "postal_code": "90249-2527",
    "website_url": "http://www.ximixcraft.com",
    "phone": "7603332351",
    "created_at": "2018-07-24 01:33:03.101437",
    "updated_at": "2018-08-11 21:36:29.4161",
    "country": "United States",
    "longitude": "",
    "latitude": "",
    "tags": []
  }
]