[
  {
    "id": "captain-fattys",
    "name": "Captain Fatty's",
    "brewery_type": "micro",
    "street": "6483 Calle Real Ste D",
    "city": "Goleta",
    "state": "California",
    "postal_code": "93117-1541",
    "website_url": "http://www.captainfattys.com",
    "phone": "",
    "created_at": "2018-07-24 01:32:53.571234",
    "updated_at": "2018-08-11 21:35:58.949985",
    "country": "United States",
    "longitude": "",
    "latitude": "",
    "tags": []
  },
  {
    "id": "hollister-brewing-co",
    "name": "Hollister Brewing Co",
    "brewery_type": "brewpub",
    "street": "6980 Market Place Dr",
    "city": "Goleta",
    "state": "California",
    "postal_code": "93117-2997",
    "website_url": "http://www.holisterbrewco.com",
    "phone": "8059682810",
    "created_at": "2018-07-24 01:32:56.538331",
    "updated_at": "2018-08-23 23:29:28.521294",
    "country": "United States",
    "longitude": "-119.873842",
    "latitude": "34.428764",
    "tags": []
  },
  {
    "id": "mspecial-brewing-company",
    "name": "M.Special Brewing Company",
    "brewery_type": "micro",
    "street": "6860 Cortona Dr Ste C",
    "city": "Goleta",
    "state": "California",
    "postal_code": "93117-5507",
    "website_url": "http://www.mspecialbrewco.com",
    "phone": "",
    "created_at": "2018-07-24 01:32:58.017072",
    "updated_at": "2018-08-11 21:36:12.540315",
    "country": "United States",
    "longitude": "",
    "latitude": "",
    "tags": []
  },
  {
    "id": "draughtsmen-aleworks",
    "name": "Draughtsmen Aleworks",
    "brewery_type": "micro",
    "street": "53 Santa Felicia Dr",
    "city": "Goleta",
    "state": "California",
    "postal_code": "93117-2804",
    "website_url": "http://www.draughtsmenaleworks.com",
    "phone": "8053872577",
    "created_at": "2018-07-24 01:32:54.619478",
    "updated_at": "2018-08-23 23:27:36.213482",
    "country": "United States",
    "longitude": "-119.875990868687",
    "latitude": "34.4314617171717",
    "tags": []
  }
]