[
  {
    "id": "beachwood-brewing",
    "name": "Beachwood Brewing",
    "brewery_type": "micro",
    "street": "7631 Woodwind Dr Ste B",
    "city": "Huntington Beach",
    "state": "California",
    "postal_code": "92647-7117",
    "website_url": "http://www.beachwoodbbq.com",
    "phone": "5103269575",
    "created_at": "2018-07-24 01:32:52.310851",
    "updated_at": "2018-08-11 21:35:55.885593",
    "country": "United States",
    "longitude": "",
    "latitude": "",
    "tags": []
  },
  {
    "id": "four-sons-brewing",
    "name": "Four Sons Brewing",
    "brewery_type": "micro",
    "street": "18421 Gothard St Ste 100",
    "city": "Huntington Beach",
    "state": "California",
    "postal_code": "92648-1236",
    "website_url": "http://www.foursonsbrewing.com",
    "phone": "7145847501",
    "created_at": "2018-07-24 01:32:55.686147",
    "updated_at": "2018-08-11 21:36:04.424897",
    "country": "United States",
    "longitude": "",
    "latitude": "",
    "tags": []
  },
  {
    "id": "huntington-beach-beer-co",
    "name": "Huntington Beach Beer Co",
    "brewery_type": "brewpub",
    "street": "201 Main St Ste E",
    "city": "Huntington Beach",
    "state": "California",
    "postal_code": "92648-8110",
    "website_url": "http://www.hbbeerco.com",
    "phone": "7149605343",
    "created_at": "2018-07-24 01:32:56.759141",
    "updated_at": "2018-08-11 21:36:07.49432",
    "country": "United States",
    "longitude": "",
    "latitude": "",
    "tags": []
  },
  {
    "id": "riip-beer-company",
    "name": "Riip Beer Company",
    "brewery_type": "micro",
    "street": "17216 Pacific Coast Hwy",
    "city": "Huntington Beach",
    "state": "California",
    "postal_code": "92649-4116",
    "website_url": "http://www.riipbeer.com",
    "phone": "7142486710",
    "created_at": "2018-07-24 01:32:59.929547",
    "updated_at": "2018-08-24 00:01:28.558939",
    "country": "United States",
    "longitude": "-117.9872302",
    "latitude": "33.6480028",
    "tags": []
  },
  {
    "id": "dfamle-enterprises-lp-dba-four-sons-brewing",
    "name": "Dfamle Enterprises LP (DBA Four Sons Brewing)",
    "brewery_type": "micro",
    "street": "18421 Gothard St Ste 100",
    "city": "Huntington Beach",
    "state": "California",
    "postal_code": "92648-1235",
    "website_url": "",
    "phone": "",
    "created_at": "2018-07-24 01:32:54.419951",
    "updated_at": "2018-08-11 21:36:01.206347",
    "country": "United States",
    "longitude": "",
    "latitude": "",
    "tags": []
  }
]