[
  {
    "id": "absolution-by-the-sea",
    "name": "Absolution By the Sea",
    "brewery_type": "brewpub",
    "street": "7536 Fay Ave",
    "city": "La Jolla",
    "state": "California",
    "postal_code": "92037-4839",
    "website_url": "",
    "phone": "6192024152",
    "created_at": "2018-07-24 01:32:51.349499",
    "updated_at": "2018-08-23 23:24:02.154606",
    "country": "United States",
    "longitude": "-117.27401668866",
    "latitude": "32.8408338849995",
    "tags": []
  },
  {
    "id": "the-fat-cat-beer-co",
    "name": "The Fat Cat Beer Co",
    "brewery_type": "contract",
    "street": "7979 Ivanhoe Ave Ste 555",
    "city": "La Jolla",
    "state": "California",
    "postal_code": "92037-4570",
    "website_url": "http://www.fatcatbeers.com",
    "phone": "",
    "created_at": "2018-07-24 01:33:02.068589",
    "updated_at": "2018-08-24 00:03:52.417606",
    "country": "United States",
    "longitude": "-117.272442979592",
    "latitude": "32.8486900816327",
    "tags": []
  },
  {
    "id": "karl-strauss-brewing-co-la-jolla",
    "name": "Karl Strauss Brewing Co - La Jolla",
    "brewery_type": "brewpub",
    "street": "1044 Wall St",
    "city": "La Jolla",
    "state": "California",
    "postal_code": "92037-4437",
    "website_url": "http://www.karlstrauss.com",
    "phone": "8585512739",
    "created_at": "2018-07-24 01:32:57.279674",
    "updated_at": "2018-08-23 23:58:23.731012",
    "country": "United States",
    "longitude": "-117.27421410957",
    "latitude": "32.8467900923526",
    "tags": []
  },
  {
    "id": "rock-bottom-brewery-la-jolla",
    "name": "Rock Bottom Brewery - La Jolla",
    "brewery_type": "brewpub",
    "street": "8980 Villa La Jolla Dr",
    "city": "La Jolla",
    "state": "California",
    "postal_code": "92037-1701",
    "website_url": "http://www.rockbottom.com",
    "phone": "8584509277",
    "created_at": "2018-07-24 01:33:00.098228",
    "updated_at": "2018-08-24 00:01:36.780204",
    "country": "United States",
    "longitude": "-117.23519",
    "latitude": "32.870929",
    "tags": []
  }
]