[
  {
    "id": "altamont-beer-works",
    "name": "Altamont Beer Works",
    "brewery_type": "micro",
    "street": "2402 Research Dr",
    "city": "Livermore",
    "state": "California",
    "postal_code": "94550-3850",
    "website_url": "http://www.altamontbeerworks.com",
    "phone": "9254432337",
    "created_at": "2018-07-24 01:32:51.5686",
    "updated_at": "2018-08-23 23:24:16.81949",
    "country": "United States",
    "longitude": "-121.721097428074",
    "latitude": "37.6783911404914",
    "tags": []
  },
  {
    "id": "eight-bridges-brewing",
    "name": "Eight Bridges Brewing",
    "brewery_type": "micro",
    "street": "332 Earhart Way",
    "city": "Livermore",
    "state": "California",
    "postal_code": "94551-9309",
    "website_url": "http://www.eightbridgesbrewing.com",
    "phone": "9259619160",
    "created_at": "2018-07-24 01:32:54.897189",
    "updated_at": "2018-08-23 23:27:54.121482",
    "country": "United States",
    "longitude": "-121.814589292069",
    "latitude": "37.6989500360251",
    "tags": []
  },
  {
    "id": "pennyweight-craft-brewing",
    "name": "Pennyweight Craft Brewing",
    "brewery_type": "planning",
    "street": "",
    "city": "Livermore",
    "state": "California",
    "postal_code": "94550",
    "website_url": "http://www.pennyweightbrew.com",
    "phone": "5107541685",
    "created_at": "2018-07-24 01:32:59.374688",
    "updated_at": "2018-08-24 00:00:48.216022",
    "country": "United States",
    "longitude": "-121.7680531",
    "latitude": "37.6820583",
    "tags": []
  },
  {
    "id": "sauced-bbq-and-spirits",
    "name": "Sauced BBQ & Spirits",
    "brewery_type": "contract",
    "street": "2300 1st St Ste 120",
    "city": "Livermore",
    "state": "California",
    "postal_code": "94550-3141",
    "website_url": "http://www.saucedbbqandspirits.com",
    "phone": "9259611300",
    "created_at": "2018-07-24 01:33:00.585196",
    "updated_at": "2018-08-11 21:36:19.762635",
    "country": "United States",
    "longitude": "",
    "latitude": "",
    "tags": []
  },
  {
    "id": "shadow-puppet-brewing-company",
    "name": "Shadow Puppet Brewing Company",
    "brewery_type": "brewpub",
    "street": "4771 Arroyo Vis Ste B",
    "city": "Livermore",
    "state": "California",
    "postal_code": "94551-4847",
    "website_url": "http://www.shadowpuppetbrewing.com",
    "phone": "9254536498",
    "created_at": "2018-07-24 01:33:00.737743",
    "updated_at": "2018-08-11 21:36:20.615969",
    "country": "United States",
    "longitude": "",
    "latitude": "",
    "tags": []
  },
  {
    "id": "working-man-brewing-co",
    "name": "Working Man Brewing Co",
    "brewery_type": "micro",
    "street": "5542 Brisa St Ste F",
    "city": "Livermore",
    "state": "California",
    "postal_code": "94550-2524",
    "website_url": "http://www.workingmanbrewing.com",
    "phone": "9252699622",
    "created_at": "2018-07-24 01:33:03.085327",
    "updated_at": "2018-08-11 21:36:29.366455",
    "country": "United States",
    "longitude": "",
    "latitude": "",
    "tags": []
  },
  {
    "id": "gridlock-brewing-co",
    "name": "Gridlock Brewing Co",
    "brewery_type": "contract",
    "street": "2659 Pickfair Lane",
    "city": "Livermore",
    "state": "California",
    "postal_code": "94551",
    "website_url": "http://www.gridlockbrewing.com",
    "phone": "4088358794",
    "created_at": "2018-07-24 01:32:56.05783",
    "updated_at": "2018-08-23 23:29:01.773994",
    "country": "United States",
    "longitude": "-121.766979126043",
    "latitude": "37.6925177182377",
    "tags": []
  }
]