[
  {
    "id": "the-dancing-fox",
    "name": "The Dancing Fox",
    "brewery_type": "brewpub",
    "street": "203 S School St",
    "city": "Lodi",
    "state": "California",
    "postal_code": "95240-3511",
    "website_url": "http://www.dancingfoxwinery.com",
    "phone": "2093662634",
    "created_at": "2018-07-24 01:33:02.056556",
    "updated_at": "2018-08-24 00:03:51.456479",
    "country": "United States",
    "longitude": "-121.387849646574",
    "latitude": "38.097198",
    "tags": []
  },
  {
    "id": "five-window-beer-co",
    "name": "Five Window Beer Co",
    "brewery_type": "micro",
    "street": "9 W Locust St",
    "city": "Lodi",
    "state": "California",
    "postal_code": "95240-2137",
    "website_url": "http://www.fivewindow.com",
    "phone": "2097122336",
    "created_at": "2018-07-24 01:32:55.569939",
    "updated_at": "2018-08-23 23:28:32.31955",
    "country": "United States",
    "longitude": "-121.29526",
    "latitude": "38.136971",
    "tags": []
  },
  {
    "id": "idol-beer-works",
    "name": "Idol Beer Works",
    "brewery_type": "micro",
    "street": "100 S Sacramento St",
    "city": "Lodi",
    "state": "California",
    "postal_code": "95240-3526",
    "website_url": "http://www.idolbeerworks.com",
    "phone": "",
    "created_at": "2018-07-24 01:32:56.795152",
    "updated_at": "2018-08-23 23:29:45.438412",
    "country": "United States",
    "longitude": "-121.2722",
    "latitude": "38.1328",
    "tags": []
  },
  {
    "id": "lodi-beer-company",
    "name": "Lodi Beer Company",
    "brewery_type": "brewpub",
    "street": "105 S School St",
    "city": "Lodi",
    "state": "California",
    "postal_code": "95240-3509",
    "website_url": "http://www.lodibeercompany.com",
    "phone": "2093682964",
    "created_at": "2018-07-24 01:32:57.84241",
    "updated_at": "2018-08-23 23:59:04.869419",
    "country": "United States",
    "longitude": "-121.273867612245",
    "latitude": "38.1328233877551",
    "tags": []
  }
]