[
  {
    "id": "long-beach-beer-lab",
    "name": "Long Beach Beer Lab",
    "brewery_type": "micro",
    "street": "518 W Willow St",
    "city": "Long Beach",
    "state": "California",
    "postal_code": "90806-2831",
    "website_url": "http://www.lbbeer.com",
    "phone": "5623413659",
    "created_at": "2018-07-24 01:32:57.87874",
    "updated_at": "2018-08-23 23:59:07.444425",
    "country": "United States",
    "longitude": "-118.2156232",
    "latitude": "33.8044209",
    "tags": []
  },
  {
    "id": "rock-bottom-brewery-long-beach",
    "name": "Rock Bottom Brewery - Long Beach",
    "brewery_type": "brewpub",
    "street": "1 Pine Ave",
    "city": "Long Beach",
    "state": "California",
    "postal_code": "90802-4759",
    "website_url": "http://www.rockbottom.com",
    "phone": "5623082255",
    "created_at": "2018-07-24 01:33:00.115398",
    "updated_at": "2018-08-24 00:01:38.221983",
    "country": "United States",
    "longitude": "-118.192482",
    "latitude": "33.767797",
    "tags": []
  },
  {
    "id": "ambitious-ales",
    "name": "Ambitious Ales",
    "brewery_type": "planning",
    "street": "",
    "city": "Long Beach",
    "state": "California",
    "postal_code": "90807-2907",
    "website_url": "http://www.ambitiousales.com",
    "phone": "7142962550",
    "created_at": "2018-07-24 01:32:51.619865",
    "updated_at": "2018-08-23 23:24:20.011217",
    "country": "United States",
    "longitude": "-118.158049315311",
    "latitude": "33.78538945",
    "tags": []
  },
  {
    "id": "beachwood-bbq-and-brewing",
    "name": "Beachwood BBQ & Brewing",
    "brewery_type": "brewpub",
    "street": "210 E 3rd St Ste A",
    "city": "Long Beach",
    "state": "California",
    "postal_code": "90802-3197",
    "website_url": "http://www.beachwoodbbq.com",
    "phone": "5624364020",
    "created_at": "2018-07-24 01:32:52.28638",
    "updated_at": "2018-08-11 21:35:55.824463",
    "country": "United States",
    "longitude": "",
    "latitude": "",
    "tags": []
  },
  {
    "id": "ballast-point-brewing-company",
    "name": "Ballast Point Brewing Company",
    "brewery_type": "large",
    "street": "110 N Marina Dr",
    "city": "Long Beach",
    "state": "California",
    "postal_code": "90803-4601",
    "website_url": "http://www.ballastpoint.com",
    "phone": "8586952739",
    "created_at": "2018-07-24 01:32:52.05042",
    "updated_at": "2018-08-23 23:24:49.381738",
    "country": "United States",
    "longitude": "-118.114750993963",
    "latitude": "33.7464176",
    "tags": []
  },
  {
    "id": "beachwood-blendery",
    "name": "Beachwood Blendery",
    "brewery_type": "micro",
    "street": "247 Long Beach Blvd",
    "city": "Long Beach",
    "state": "California",
    "postal_code": "90802-3136",
    "website_url": "http://beachwoodbbq.com/blendery.html",
    "phone": "",
    "created_at": "2018-07-24 01:32:52.298877",
    "updated_at": "2018-08-23 23:25:07.316419",
    "country": "United States",
    "longitude": "-118.189471530612",
    "latitude": "33.7701509591837",
    "tags": []
  },
  {
    "id": "belmont-brewing-co",
    "name": "Belmont Brewing Co",
    "brewery_type": "brewpub",
    "street": "25 39th Pl",
    "city": "Long Beach",
    "state": "California",
    "postal_code": "90803-2806",
    "website_url": "http://www.belmontbrewing.com",
    "phone": "5624333891",
    "created_at": "2018-07-24 01:32:52.40815",
    "updated_at": "2018-08-23 23:25:15.788334",
    "country": "United States",
    "longitude": "-118.148045390244",
    "latitude": "33.759551",
    "tags": []
  },
  {
    "id": "dutchs-brewhouse",
    "name": "Dutch's BrewHouse",
    "brewery_type": "brewpub",
    "street": "4244 Atlantic Ave",
    "city": "Long Beach",
    "state": "California",
    "postal_code": "90807-2802",
    "website_url": "http://dutchsbrewhouse.com",
    "phone": "5623361326",
    "created_at": "2018-07-24 01:32:54.752705",
    "updated_at": "2018-08-23 23:27:45.359312",
    "country": "United States",
    "longitude": "-118.1859647",
    "latitude": "33.8781951",
    "tags": []
  },
  {
    "id": "liberation-brewing",
    "name": "Liberation Brewing",
    "brewery_type": "micro",
    "street": "3630 Atlantic Ave",
    "city": "Long Beach",
    "state": "California",
    "postal_code": "90807",
    "website_url": "http://www.liberationbrewing.com",
    "phone": "5623490133",
    "created_at": "2018-07-24 01:32:57.758056",
    "updated_at": "2018-08-23 23:58:58.821648",
    "country": "United States",
    "longitude": "-118.1859647",
    "latitude": "33.8781951",
    "tags": []
  },
  {
    "id": "steady-brewing",
    "name": "Steady Brewing",
    "brewery_type": "micro",
    "street": "2936 Clark Ave",
    "city": "Long Beach",
    "state": "California",
    "postal_code": "90815",
    "website_url": "http://Www.steadybrewing.com",
    "phone": "5623516793",
    "created_at": "2018-07-24 01:33:01.372044",
    "updated_at": "2018-08-24 00:03:08.01442",
    "country": "United States",
    "longitude": "-118.133923",
    "latitude": "33.825078",
    "tags": []
  }
]