[
  {
    "id": "brewery-in-planning-los-angeles",
    "name": "Brewery in Planning - Los Angeles",
    "brewery_type": "planning",
    "street": "",
    "city": "Los Angeles",
    "state": "California",
    "postal_code": "90049-1620",
    "website_url": "",
    "phone": "3107796045",
    "created_at": "2018-07-24 01:32:53.127497",
    "updated_at": "2018-08-23 23:26:04.273222",
    "country": "United States",
    "longitude": "-118.2427669",
    "latitude": "34.0536834",
    "tags": []
  },
  {
    "id": "dry-river-brewing",
    "name": "Dry River Brewing",
    "brewery_type": "micro",
    "street": "671 S Anderson St",
    "city": "Los Angeles",
    "state": "California",
    "postal_code": "90023-1110",
    "website_url": "http://www.dryriverbrewing.com",
    "phone": "2133755235",
    "created_at": "2018-07-24 01:32:54.647161",
    "updated_at": "2018-08-23 23:27:38.017663",
    "country": "United States",
    "longitude": "-118.223301521739",
    "latitude": "34.0363873913043",
    "tags": []
  },
  {
    "id": "iron-triangle-brewing-company",
    "name": "Iron Triangle Brewing Company",
    "brewery_type": "micro",
    "street": "1581 Industrial St",
    "city": "Los Angeles",
    "state": "California",
    "postal_code": "90021-1217",
    "website_url": "http://www.irontrianglebrewing.com",
    "phone": "3109905702",
    "created_at": "2018-07-24 01:32:56.981085",
    "updated_at": "2018-08-23 23:29:59.707758",
    "country": "United States",
    "longitude": "-118.237361765101",
    "latitude": "34.036121885906",
    "tags": []
  },
  {
    "id": "6th-and-la-brea",
    "name": "6th and La Brea",
    "brewery_type": "brewpub",
    "street": "600 South La Brea Ave",
    "city": "Los Angeles",
    "state": "California",
    "postal_code": "90036",
    "website_url": "http://www.6thlabrea.com",
    "phone": "",
    "created_at": "2018-07-24 01:32:51.252503",
    "updated_at": "2018-08-23 23:23:54.280239",
    "country": "United States",
    "longitude": "-118.3440213",
    "latitude": "34.0730485",
    "tags": []
  },
  {
    "id": "angel-city-brewery",
    "name": "Angel City Brewery",
    "brewery_type": "micro",
    "street": "216 S Alameda St",
    "city": "Los Angeles",
    "state": "California",
    "postal_code": "90012-4201",
    "website_url": "http://www.angelcitybrewery.com",
    "phone": "2136221261",
    "created_at": "2018-07-24 01:32:51.715622",
    "updated_at": "2018-08-23 23:24:27.055355",
    "country": "United States",
    "longitude": "-118.237715014204",
    "latitude": "34.04627065",
    "tags": []
  },
  {
    "id": "arts-district-brewing-company",
    "name": "Arts District Brewing Company",
    "brewery_type": "brewpub",
    "street": "828 Traction Ave",
    "city": "Los Angeles",
    "state": "California",
    "postal_code": "90013-1816",
    "website_url": "",
    "phone": "",
    "created_at": "2018-07-24 01:32:51.877003",
    "updated_at": "2018-08-23 23:24:39.782027",
    "country": "United States",
    "longitude": "-118.235702857143",
    "latitude": "34.0450544285714",
    "tags": []
  },
  {
    "id": "bonaventure-brewing-co",
    "name": "Bonaventure Brewing Co",
    "brewery_type": "brewpub",
    "street": "404 S Figueroa St Ste 418A",
    "city": "Los Angeles",
    "state": "California",
    "postal_code": "90071-1797",
    "website_url": "http://www.bonaventurebrewing.com",
    "phone": "2132360802",
    "created_at": "2018-07-24 01:32:52.786811",
    "updated_at": "2018-08-11 21:35:57.069315",
    "country": "United States",
    "longitude": "",
    "latitude": "",
    "tags": []
  },
  {
    "id": "boomtown-brewery",
    "name": "Boomtown Brewery",
    "brewery_type": "micro",
    "street": "700 Jackson St",
    "city": "Los Angeles",
    "state": "California",
    "postal_code": "90012-3443",
    "website_url": "http://www.boomtownbrew.com",
    "phone": "2136178497",
    "created_at": "2018-07-24 01:32:52.798593",
    "updated_at": "2018-08-23 23:25:44.186147",
    "country": "United States",
    "longitude": "-118.233179040171",
    "latitude": "34.0507711",
    "tags": []
  },
  {
    "id": "eagle-rock-brewery",
    "name": "Eagle Rock Brewery",
    "brewery_type": "micro",
    "street": "3056 Roswell St",
    "city": "Los Angeles",
    "state": "California",
    "postal_code": "90065-2214",
    "website_url": "http://www.eaglerockbrewery.com",
    "phone": "3232577866",
    "created_at": "2018-07-24 01:32:54.789984",
    "updated_at": "2018-08-23 23:27:47.923219",
    "country": "United States",
    "longitude": "-118.244037714286",
    "latitude": "34.1147314285714",
    "tags": []
  },
  {
    "id": "frogtown-brewery",
    "name": "Frogtown Brewery",
    "brewery_type": "micro",
    "street": "2931 Gilroy St",
    "city": "Los Angeles",
    "state": "California",
    "postal_code": "90039-2817",
    "website_url": "http://www.frogtownbrewery.com",
    "phone": "3234522739",
    "created_at": "2018-07-24 01:32:55.715723",
    "updated_at": "2018-08-23 23:28:41.31604",
    "country": "United States",
    "longitude": "-118.251520939394",
    "latitude": "34.1065655151515",
    "tags": []
  },
  {
    "id": "golden-road-brewing",
    "name": "Golden Road Brewing",
    "brewery_type": "large",
    "street": "5430 W San Fernando Rd",
    "city": "Los Angeles",
    "state": "California",
    "postal_code": "90039-1015",
    "website_url": "http://www.goldenroad.la",
    "phone": "2135426039",
    "created_at": "2018-07-24 01:32:55.861677",
    "updated_at": "2018-08-11 21:36:04.845957",
    "country": "United States",
    "longitude": "",
    "latitude": "",
    "tags": []
  },
  {
    "id": "indie-brewing-company",
    "name": "Indie Brewing Company",
    "brewery_type": "micro",
    "street": "2301 E 7th St Ste C100 Ste C100",
    "city": "Los Angeles",
    "state": "California",
    "postal_code": "90023-1036",
    "website_url": "http://indiebrewco.com",
    "phone": "3233544285",
    "created_at": "2018-07-24 01:32:56.882362",
    "updated_at": "2018-08-11 21:36:08.12296",
    "country": "United States",
    "longitude": "",
    "latitude": "",
    "tags": []
  },
  {
    "id": "highland-park-brewery",
    "name": "Highland Park Brewery",
    "brewery_type": "micro",
    "street": "5125 York Blvd",
    "city": "Los Angeles",
    "state": "California",
    "postal_code": "90042",
    "website_url": "http://www.hpb.la",
    "phone": "4255011255",
    "created_at": "2018-07-24 01:32:56.461282",
    "updated_at": "2018-08-23 23:29:23.552601",
    "country": "United States",
    "longitude": "-118.1807106",
    "latitude": "34.1141508",
    "tags": []
  },
  {
    "id": "highland-park-brewery",
    "name": "Highland Park Brewery",
    "brewery_type": "brewpub",
    "street": "1229 N Spring St",
    "city": "Los Angeles",
    "state": "California",
    "postal_code": "90012",
    "website_url": "",
    "phone": "3237396459",
    "created_at": "2018-07-24 01:32:56.474488",
    "updated_at": "2018-08-23 23:29:24.44388",
    "country": "United States",
    "longitude": "-118.233992219312",
    "latitude": "34.0659358248265",
    "tags": []
  },
  {
    "id": "karl-strauss-brewing-co-downtown-los-angeles",
    "name": "Karl Strauss Brewing Co - Downtown Los Angeles",
    "brewery_type": "brewpub",
    "street": "600 Wilshire Blvd Ste 100",
    "city": "Los Angeles",
    "state": "California",
    "postal_code": "90017-3212",
    "website_url": "",
    "phone": "2132282739",
    "created_at": "2018-07-24 01:32:57.267855",
    "updated_at": "2018-08-23 23:58:22.896561",
    "country": "United States",
    "longitude": "-118.256154",
    "latitude": "34.047978",
    "tags": []
  },
  {
    "id": "lawless-brewing",
    "name": "Lawless Brewing",
    "brewery_type": "planning",
    "street": "",
    "city": "Los Angeles",
    "state": "California",
    "postal_code": "90068-1436",
    "website_url": "http://www.lawlessbeer.com",
    "phone": "8184567345",
    "created_at": "2018-07-24 01:32:57.667869",
    "updated_at": "2018-08-23 23:58:52.293636",
    "country": "United States",
    "longitude": "-118.2427669",
    "latitude": "34.0536834",
    "tags": []
  },
  {
    "id": "mbf-brewing-co",
    "name": "MBF Brewing Co",
    "brewery_type": "contract",
    "street": "530 W 7th St Apt 401",
    "city": "Los Angeles",
    "state": "California",
    "postal_code": "90014-2507",
    "website_url": "http://www.MBFcompany.com",
    "phone": "8315217921",
    "created_at": "2018-07-24 01:32:58.219868",
    "updated_at": "2018-08-11 21:36:13.178385",
    "country": "United States",
    "longitude": "",
    "latitude": "",
    "tags": []
  },
  {
    "id": "mumford-brewing-company",
    "name": "Mumford Brewing Company",
    "brewery_type": "micro",
    "street": "416 Boyd St",
    "city": "Los Angeles",
    "state": "California",
    "postal_code": "90013-1631",
    "website_url": "http://www.mumfordbrewing.com",
    "phone": "6263759353",
    "created_at": "2018-07-24 01:32:58.582526",
    "updated_at": "2018-08-23 23:59:54.090721",
    "country": "United States",
    "longitude": "-118.242599756959",
    "latitude": "34.0464181026579",
    "tags": []
  },
  {
    "id": "ohana-brewing-co",
    "name": "Ohana Brewing Co",
    "brewery_type": "micro",
    "street": "1756 E 23rd St",
    "city": "Los Angeles",
    "state": "California",
    "postal_code": "90058-1012",
    "website_url": "http://www.ohanabrew.com",
    "phone": "6262822337",
    "created_at": "2018-07-24 01:32:58.999251",
    "updated_at": "2018-08-24 00:00:23.532585",
    "country": "United States",
    "longitude": "-118.241560857143",
    "latitude": "34.0157562857143",
    "tags": []
  },
  {
    "id": "reel-brew-co",
    "name": "Reel Brew Co.",
    "brewery_type": "contract",
    "street": "Â 7037 Laurel Canyon Boulevard",
    "city": "Los Angeles",
    "state": "California",
    "postal_code": "91605",
    "website_url": "",
    "phone": "",
    "created_at": "2018-07-24 01:32:59.843708",
    "updated_at": "2018-08-11 21:36:17.311173",
    "country": "United States",
    "longitude": "",
    "latitude": "",
    "tags": []
  },
  {
    "id": "solarc-brewing",
    "name": "Solarc Brewing",
    "brewery_type": "contract",
    "street": "134 S Avenue 57",
    "city": "Los Angeles",
    "state": "California",
    "postal_code": "90042-4702",
    "website_url": "http://www.solarcbrewing.com",
    "phone": "6319442990",
    "created_at": "2018-07-24 01:33:00.99756",
    "updated_at": "2018-08-11 21:36:21.377883",
    "country": "United States",
    "longitude": "",
    "latitude": "",
    "tags": []
  },
  {
    "id": "the-stalking-horse",
    "name": "The Stalking Horse",
    "brewery_type": "brewpub",
    "street": "10543 West Pico Blvd",
    "city": "Los Angeles",
    "state": "California",
    "postal_code": "90064",
    "website_url": "http://www.thestalkinghorsepub.com",
    "phone": "4248327511",
    "created_at": "2018-07-24 01:33:02.143742",
    "updated_at": "2018-08-24 00:03:57.58874",
    "country": "United States",
    "longitude": "-118.3273271",
    "latitude": "34.0478786",
    "tags": []
  },
  {
    "id": "wiretap-brewing-corporation",
    "name": "Wiretap Brewing Corporation",
    "brewery_type": "micro",
    "street": "341B South Avenue 17",
    "city": "Los Angeles",
    "state": "California",
    "postal_code": "90031",
    "website_url": "http://www.wiretapbrewing.com",
    "phone": "",
    "created_at": "2018-07-24 01:33:02.972618",
    "updated_at": "2018-08-24 00:04:57.286461",
    "country": "United States",
    "longitude": "-118.222037638743",
    "latitude": "34.0685234551287",
    "tags": []
  },
  {
    "id": "einstok-beer-company",
    "name": "Einstok Beer Company",
    "brewery_type": "contract",
    "street": "12910 Culver Blvd Ste D",
    "city": "Los Angeles",
    "state": "California",
    "postal_code": "90066-6788",
    "website_url": "http://einstokbeer.com",
    "phone": "4242181168",
    "created_at": "2018-07-24 01:32:54.910573",
    "updated_at": "2018-08-11 21:36:02.507197",
    "country": "United States",
    "longitude": "",
    "latitude": "",
    "tags": []
  }
]