[
  {
    "id": "gbc",
    "name": "GBC",
    "brewery_type": "micro",
    "street": "26015 Jefferson Ave Ste D",
    "city": "Murrieta",
    "state": "California",
    "postal_code": "92562-6985",
    "website_url": "",
    "phone": "",
    "created_at": "2018-07-24 01:32:55.771044",
    "updated_at": "2018-08-11 21:36:04.629815",
    "country": "United States",
    "longitude": "",
    "latitude": "",
    "tags": []
  },
  {
    "id": "electric-brewing-co",
    "name": "Electric Brewing Co",
    "brewery_type": "micro",
    "street": "41537 Cherry St",
    "city": "Murrieta",
    "state": "California",
    "postal_code": "92562-9193",
    "website_url": "http://www.electricbrewingcompany.com",
    "phone": "9516962266",
    "created_at": "2018-07-24 01:32:54.967629",
    "updated_at": "2018-08-23 23:27:58.448445",
    "country": "United States",
    "longitude": "-117.172438",
    "latitude": "33.5268827",
    "tags": []
  },
  {
    "id": "garage-brewing-company",
    "name": "Garage Brewing Company",
    "brewery_type": "micro",
    "street": "26015 Jefferson Ave. Ste D",
    "city": "Murrieta",
    "state": "California",
    "postal_code": "92562",
    "website_url": "http://www.garagebrewco.com",
    "phone": "9516001945",
    "created_at": "2018-07-24 01:32:55.758857",
    "updated_at": "2018-08-11 21:36:04.585581",
    "country": "United States",
    "longitude": "",
    "latitude": "",
    "tags": []
  },
  {
    "id": "inland-wharf-brewing-company",
    "name": "Inland Wharf Brewing Company",
    "brewery_type": "micro",
    "street": "26440 Jefferson Ave Ste A",
    "city": "Murrieta",
    "state": "California",
    "postal_code": "92562-6951",
    "website_url": "http://www.inlandwharfbrewing.com",
    "phone": "9516967999",
    "created_at": "2018-07-24 01:32:56.906565",
    "updated_at": "2018-08-11 21:36:08.232393",
    "country": "United States",
    "longitude": "",
    "latitude": "",
    "tags": []
  },
  {
    "id": "8-bit-brewing-company",
    "name": "8 Bit Brewing Company",
    "brewery_type": "brewpub",
    "street": "26755 Jefferson Ave Ste F",
    "city": "Murrieta",
    "state": "California",
    "postal_code": "92562-6941",
    "website_url": "http://www.8bitbrewerycompany.com",
    "phone": "9516772322",
    "created_at": "2018-07-24 01:32:51.276443",
    "updated_at": "2018-08-11 21:35:53.19534",
    "country": "United States",
    "longitude": "",
    "latitude": "",
    "tags": []
  }
]