[
  {
    "id": "downtown-joes-brewery-and-restaurant",
    "name": "Downtown Joes Brewery and Restaurant",
    "brewery_type": "brewpub",
    "street": "902 Main St",
    "city": "Napa",
    "state": "California",
    "postal_code": "94559-3045",
    "website_url": "http://www.downtownjoes.com",
    "phone": "7072582337",
    "created_at": "2018-07-24 01:32:54.541981",
    "updated_at": "2018-08-23 23:27:31.584494",
    "country": "United States",
    "longitude": "-122.284893629393",
    "latitude": "38.2986565341617",
    "tags": []
  },
  {
    "id": "hop-creek-pub",
    "name": "Hop Creek Pub",
    "brewery_type": "brewpub",
    "street": "3253 Browns Valley Rd",
    "city": "Napa",
    "state": "California",
    "postal_code": "94558-5424",
    "website_url": "http://www.hopcreekpub.com",
    "phone": "7072577708",
    "created_at": "2018-07-24 01:32:56.590089",
    "updated_at": "2018-08-23 23:29:31.245902",
    "country": "United States",
    "longitude": "-122.328868",
    "latitude": "38.3041333",
    "tags": []
  },
  {
    "id": "napa-palisades-beer-company",
    "name": "Napa Palisades Beer Company",
    "brewery_type": "proprietor",
    "street": "1000 Main St",
    "city": "Napa",
    "state": "California",
    "postal_code": "94559-2645",
    "website_url": "http://www.napapalisadesbeer.com",
    "phone": "7072961552",
    "created_at": "2018-07-24 01:32:58.595173",
    "updated_at": "2018-08-23 23:59:54.995237",
    "country": "United States",
    "longitude": "-122.285449",
    "latitude": "38.299359",
    "tags": []
  },
  {
    "id": "silos",
    "name": "Silo's",
    "brewery_type": "brewpub",
    "street": "530 Main St",
    "city": "Napa",
    "state": "California",
    "postal_code": "94559-3378",
    "website_url": "http://www.silosnapa.com",
    "phone": "7072515833",
    "created_at": "2018-07-24 01:33:00.82397",
    "updated_at": "2018-08-24 00:02:30.089511",
    "country": "United States",
    "longitude": "-122.2828832",
    "latitude": "38.29617",
    "tags": []
  },
  {
    "id": "stone-brewing-napa",
    "name": "Stone Brewing Napa",
    "brewery_type": "brewpub",
    "street": "920-930 Third Street",
    "city": "Napa",
    "state": "California",
    "postal_code": "94559",
    "website_url": "",
    "phone": "7602947899",
    "created_at": "2018-07-24 01:33:01.458151",
    "updated_at": "2018-08-11 21:36:22.92241",
    "country": "United States",
    "longitude": "",
    "latitude": "",
    "tags": []
  },
  {
    "id": "tannery-bend-beerworks",
    "name": "Tannery Bend Beerworks",
    "brewery_type": "brewpub",
    "street": "101 South Coombs Street Suite X",
    "city": "Napa",
    "state": "California",
    "postal_code": "94559",
    "website_url": "http://www.tannerybendbeerworks.com",
    "phone": "7076815774",
    "created_at": "2018-07-24 01:33:01.735768",
    "updated_at": "2018-08-11 21:36:23.754391",
    "country": "United States",
    "longitude": "",
    "latitude": "",
    "tags": []
  },
  {
    "id": "st-clair-brown-winery-and-brewery",
    "name": "St Clair Brown Winery & Brewery",
    "brewery_type": "micro",
    "street": "816 Vallejo St",
    "city": "Napa",
    "state": "California",
    "postal_code": "94559",
    "website_url": "http://www.stclairbrownwinery.com",
    "phone": "7072555591",
    "created_at": "2018-07-24 01:33:01.214351",
    "updated_at": "2018-08-24 00:02:57.781912",
    "country": "United States",
    "longitude": "-122.286082",
    "latitude": "38.304877",
    "tags": []
  },
  {
    "id": "tarla-mediterranean-bar-and-grill",
    "name": "Tarla Mediterranean Bar and Grill",
    "brewery_type": "brewpub",
    "street": "1480 1st St",
    "city": "Napa",
    "state": "California",
    "postal_code": "94559-2843",
    "website_url": "http://www.tarlagrill.com",
    "phone": "7072555599",
    "created_at": "2018-07-24 01:33:01.842238",
    "updated_at": "2018-08-24 00:03:39.900997",
    "country": "United States",
    "longitude": "-122.289764974638",
    "latitude": "38.2971973781702",
    "tags": []
  },
  {
    "id": "the-runway-by-patrick",
    "name": "The Runway By Patrick",
    "brewery_type": "brewpub",
    "street": "2044 Airport Rd",
    "city": "Napa",
    "state": "California",
    "postal_code": "94558-6208",
    "website_url": "http://www.therunwaybypatrick.com",
    "phone": "7072586115",
    "created_at": "2018-07-24 01:33:02.13193",
    "updated_at": "2018-08-24 00:03:56.464056",
    "country": "United States",
    "longitude": "-122.2730244",
    "latitude": "38.2171014",
    "tags": []
  },
  {
    "id": "trade-brewing",
    "name": "Trade Brewing",
    "brewery_type": "micro",
    "street": "731 1st St",
    "city": "Napa",
    "state": "California",
    "postal_code": "94559-2624",
    "website_url": "http://www.tradebrewing.com",
    "phone": "7074928223",
    "created_at": "2018-07-24 01:33:02.509588",
    "updated_at": "2018-08-24 00:04:23.786397",
    "country": "United States",
    "longitude": "-122.282183755102",
    "latitude": "38.3007339591837",
    "tags": []
  }
]