[
  {
    "id": "indian-valley-brewing",
    "name": "Indian Valley Brewing",
    "brewery_type": "micro",
    "street": "14 Commercial Blvd Ste 125",
    "city": "Novato",
    "state": "California",
    "postal_code": "94949-6110",
    "website_url": "http://www.indianvalleybrewing.com",
    "phone": "4153014983",
    "created_at": "2018-07-24 01:32:56.856496",
    "updated_at": "2018-08-23 23:29:50.056699",
    "country": "United States",
    "longitude": "-122.535014356985",
    "latitude": "38.0682836733387",
    "tags": []
  },
  {
    "id": "adobe-creek-brewing-company",
    "name": "Adobe Creek Brewing Company",
    "brewery_type": "micro",
    "street": "67 Galli Dr Ste E",
    "city": "Novato",
    "state": "California",
    "postal_code": "94949-5718",
    "website_url": "http://www.adobecreekbrewing.com",
    "phone": "4155064565",
    "created_at": "2018-07-24 01:32:51.373976",
    "updated_at": "2018-08-11 21:35:53.608108",
    "country": "United States",
    "longitude": "",
    "latitude": "",
    "tags": []
  },
  {
    "id": "moylans-brewery-and-restaurant",
    "name": "Moylan's Brewery & Restaurant",
    "brewery_type": "brewpub",
    "street": "15 Rowland Way",
    "city": "Novato",
    "state": "California",
    "postal_code": "94945-5001",
    "website_url": "http://www.moylans.com",
    "phone": "4158984677",
    "created_at": "2018-07-24 01:32:58.542798",
    "updated_at": "2018-08-23 23:59:51.139923",
    "country": "United States",
    "longitude": "-122.55705476448",
    "latitude": "38.0944860393125",
    "tags": []
  },
  {
    "id": "trail-dog-brewing-co",
    "name": "Trail Dog Brewing Co.",
    "brewery_type": "planning",
    "street": "",
    "city": "Novato",
    "state": "California",
    "postal_code": "94945-3318",
    "website_url": "http://traildogbrewing.com",
    "phone": "4157580411",
    "created_at": "2018-07-24 01:33:02.532868",
    "updated_at": "2018-08-24 00:04:25.156295",
    "country": "United States",
    "longitude": "-122.5681191",
    "latitude": "38.1061979",
    "tags": []
  }
]