[
  {
    "id": "woods-bar-and-brewery",
    "name": "Woods Bar & Brewery",
    "brewery_type": "brewpub",
    "street": "1701 Telegraph Ave",
    "city": "Oakland",
    "state": "California",
    "postal_code": "94612-2107",
    "website_url": "http://www.woodsbeer.com",
    "phone": "4155091695",
    "created_at": "2018-07-24 01:33:03.025775",
    "updated_at": "2018-08-24 00:05:00.969956",
    "country": "United States",
    "longitude": "-122.2704253",
    "latitude": "37.8069575",
    "tags": []
  },
  {
    "id": "ale-industries",
    "name": "Ale Industries",
    "brewery_type": "micro",
    "street": "3096 E 10th St",
    "city": "Oakland",
    "state": "California",
    "postal_code": "94601-2960",
    "website_url": "http://www.aleindustries.com",
    "phone": "9254705280",
    "created_at": "2018-07-24 01:32:51.439115",
    "updated_at": "2018-08-23 23:24:08.487272",
    "country": "United States",
    "longitude": "-122.2281897",
    "latitude": "37.7761111",
    "tags": []
  },
  {
    "id": "brewery-in-planning-oakland",
    "name": "Brewery in Planning - Oakland",
    "brewery_type": "planning",
    "street": "",
    "city": "Oakland",
    "state": "California",
    "postal_code": "94611-5570",
    "website_url": "",
    "phone": "",
    "created_at": "2018-07-24 01:32:53.162077",
    "updated_at": "2018-08-23 23:26:05.550898",
    "country": "United States",
    "longitude": "-122.2713563",
    "latitude": "37.8044557",
    "tags": []
  },
  {
    "id": "diving-dog-brewhouse",
    "name": "Diving Dog Brewhouse",
    "brewery_type": "micro",
    "street": "1802 Telegraph Ave",
    "city": "Oakland",
    "state": "California",
    "postal_code": "94612-2110",
    "website_url": "http://www.divingdogbrew.com",
    "phone": "5103061914",
    "created_at": "2018-07-24 01:32:54.478059",
    "updated_at": "2018-08-23 23:27:26.494226",
    "country": "United States",
    "longitude": "-122.2698881",
    "latitude": "37.807739",
    "tags": []
  },
  {
    "id": "federation-brewing",
    "name": "Federation Brewing",
    "brewery_type": "micro",
    "street": "420 3rd St Unit A",
    "city": "Oakland",
    "state": "California",
    "postal_code": "94607-3809",
    "website_url": "http://www.federationbrewing.com",
    "phone": "",
    "created_at": "2018-07-24 01:32:55.345854",
    "updated_at": "2018-08-11 21:36:03.446317",
    "country": "United States",
    "longitude": "",
    "latitude": "",
    "tags": []
  },
  {
    "id": "ghost-town-brewing",
    "name": "Ghost Town Brewing",
    "brewery_type": "micro",
    "street": "1960 Adeline St",
    "city": "Oakland",
    "state": "California",
    "postal_code": "94607-2300",
    "website_url": "http://www.ghosttownbrewing.com",
    "phone": "5109266728",
    "created_at": "2018-07-24 01:32:55.796122",
    "updated_at": "2018-08-23 23:28:46.141313",
    "country": "United States",
    "longitude": "-122.284439629224",
    "latitude": "37.8139174766419",
    "tags": []
  },
  {
    "id": "independent-brewing-co",
    "name": "Independent Brewing Co",
    "brewery_type": "micro",
    "street": "444 Harrison St",
    "city": "Oakland",
    "state": "California",
    "postal_code": "94607-4118",
    "website_url": "",
    "phone": "",
    "created_at": "2018-07-24 01:32:56.831728",
    "updated_at": "2018-08-23 23:29:48.103584",
    "country": "United States",
    "longitude": "-122.2711853",
    "latitude": "37.7964297",
    "tags": []
  },
  {
    "id": "old-kan-beer-and-co",
    "name": "Old Kan Beer & Co",
    "brewery_type": "brewpub",
    "street": "95 Linden St",
    "city": "Oakland",
    "state": "California",
    "postal_code": "94607-2510",
    "website_url": "http://www.old-kan.com",
    "phone": "5103383965",
    "created_at": "2018-07-24 01:32:59.091962",
    "updated_at": "2018-08-24 00:00:29.360044",
    "country": "United States",
    "longitude": "-122.2879928",
    "latitude": "37.7995945",
    "tags": []
  },
  {
    "id": "original-pattern-brewing-company",
    "name": "Original Pattern Brewing Company",
    "brewery_type": "micro",
    "street": "292 4th St",
    "city": "Oakland",
    "state": "California",
    "postal_code": "94607-4332",
    "website_url": "http://www.originalpatternbeer.com",
    "phone": "5108444833",
    "created_at": "2018-07-24 01:32:59.165301",
    "updated_at": "2018-08-24 00:00:34.14391",
    "country": "United States",
    "longitude": "-122.2718245",
    "latitude": "37.796075",
    "tags": []
  },
  {
    "id": "roses-taproom",
    "name": "Roses' Taproom",
    "brewery_type": "micro",
    "street": "4930 Telegraph Ave",
    "city": "Oakland",
    "state": "California",
    "postal_code": "94609-2012",
    "website_url": "http://www.rosestaproom.com",
    "phone": "5108583969",
    "created_at": "2018-07-24 01:33:00.198736",
    "updated_at": "2018-08-24 00:01:43.667962",
    "country": "United States",
    "longitude": "-122.2683709",
    "latitude": "37.8143551",
    "tags": []
  },
  {
    "id": "tack-brewing",
    "name": "Tack Brewing",
    "brewery_type": "planning",
    "street": "",
    "city": "Oakland",
    "state": "California",
    "postal_code": "94618-1534",
    "website_url": "http://www.tackbrewing.com",
    "phone": "8054044861",
    "created_at": "2018-07-24 01:33:01.686133",
    "updated_at": "2018-08-24 00:03:29.551858",
    "country": "United States",
    "longitude": "-122.2713563",
    "latitude": "37.8044557",
    "tags": []
  },
  {
    "id": "temescal-brewing",
    "name": "Temescal Brewing",
    "brewery_type": "micro",
    "street": "4115 Telegraph Ave",
    "city": "Oakland",
    "state": "California",
    "postal_code": "94609-2405",
    "website_url": "http://www.temescalbrewing.com",
    "phone": "5108995628",
    "created_at": "2018-07-24 01:33:01.891319",
    "updated_at": "2018-08-24 00:03:43.672332",
    "country": "United States",
    "longitude": "-122.2645038",
    "latitude": "37.8303644",
    "tags": []
  },
  {
    "id": "woods-beer-company",
    "name": "Woods Beer Company",
    "brewery_type": "brewpub",
    "street": "1701 Telegraph Ave",
    "city": "Oakland",
    "state": "California",
    "postal_code": "94612-2107",
    "website_url": "http://woodsbeer.com",
    "phone": "4158149212",
    "created_at": "2018-07-24 01:33:03.040378",
    "updated_at": "2018-08-24 00:05:01.87898",
    "country": "United States",
    "longitude": "-122.2704253",
    "latitude": "37.8069575",
    "tags": []
  },
  {
    "id": "dark-sea-cinema-and-brewery",
    "name": "Dark Sea Cinema And Brewery",
    "brewery_type": "planning",
    "street": "",
    "city": "Oakland",
    "state": "California",
    "postal_code": "94609-1804",
    "website_url": "http://microcinemabrewery.com",
    "phone": "",
    "created_at": "2018-07-24 01:32:54.270609",
    "updated_at": "2018-08-23 23:27:12.35876",
    "country": "United States",
    "longitude": "-122.2713563",
    "latitude": "37.8044557",
    "tags": []
  },
  {
    "id": "oakland-united-beerworks",
    "name": "Oakland United Beerworks",
    "brewery_type": "micro",
    "street": "3775 Alameda Ave Ste G",
    "city": "Oakland",
    "state": "California",
    "postal_code": "94601-3920",
    "website_url": "http://www.oaklandunitedbeerworks.com",
    "phone": "5102518898",
    "created_at": "2018-07-24 01:32:58.852425",
    "updated_at": "2018-08-11 21:36:14.741574",
    "country": "United States",
    "longitude": "",
    "latitude": "",
    "tags": []
  },
  {
    "id": "novel-brewing-company",
    "name": "Novel Brewing Company",
    "brewery_type": "micro",
    "street": "6510 San Pablo Ave",
    "city": "Oakland",
    "state": "California",
    "postal_code": "94608-1236",
    "website_url": "http://novelbrewing.com",
    "phone": "5109229974",
    "created_at": "2018-07-24 01:32:58.78933",
    "updated_at": "2018-08-24 00:00:09.832663",
    "country": "United States",
    "longitude": "-122.282003",
    "latitude": "37.837819",
    "tags": []
  }
]