[
  {
    "id": "oceanside-brewing-company",
    "name": "Oceanside Brewing Company",
    "brewery_type": "micro",
    "street": "312 Via Del Norte",
    "city": "Oceanside",
    "state": "California",
    "postal_code": "92058-1232",
    "website_url": "http://www.oceansidebrewingco.com",
    "phone": "7604537900",
    "created_at": "2018-07-24 01:32:58.895509",
    "updated_at": "2018-08-24 00:00:15.739922",
    "country": "United States",
    "longitude": "-117.352957287439",
    "latitude": "33.2136973549748",
    "tags": []
  },
  {
    "id": "bagby-beer-company",
    "name": "Bagby Beer Company",
    "brewery_type": "brewpub",
    "street": "601 S Coast Hwy",
    "city": "Oceanside",
    "state": "California",
    "postal_code": "92054-4120",
    "website_url": "http://www.bagbybeer.com",
    "phone": "7602709075",
    "created_at": "2018-07-24 01:32:51.989577",
    "updated_at": "2018-08-23 23:24:46.595106",
    "country": "United States",
    "longitude": "-117.373847",
    "latitude": "33.189591",
    "tags": []
  },
  {
    "id": "belching-beaver-brewery",
    "name": "Belching Beaver Brewery",
    "brewery_type": "regional",
    "street": "1334 Rocky Point Dr",
    "city": "Oceanside",
    "state": "California",
    "postal_code": "92056-5864",
    "website_url": "",
    "phone": "7607321415",
    "created_at": "2018-07-24 01:32:52.372874",
    "updated_at": "2018-08-23 23:25:13.242767",
    "country": "United States",
    "longitude": "-117.292416",
    "latitude": "33.2139275",
    "tags": []
  },
  {
    "id": "breakwater-brewing-co",
    "name": "Breakwater Brewing Co",
    "brewery_type": "brewpub",
    "street": "101 N Coast Hwy Ste C140",
    "city": "Oceanside",
    "state": "California",
    "postal_code": "92054-3015",
    "website_url": "http://www.breakwaterbrewing.com",
    "phone": "7604336064",
    "created_at": "2018-07-24 01:32:52.906334",
    "updated_at": "2018-08-11 21:35:57.32844",
    "country": "United States",
    "longitude": "",
    "latitude": "",
    "tags": []
  },
  {
    "id": "black-plague-brewing",
    "name": "Black Plague Brewing",
    "brewery_type": "micro",
    "street": "2550 Jason Ct",
    "city": "Oceanside",
    "state": "California",
    "postal_code": "92056-3592",
    "website_url": "http://www.blackplaguebrewing.com",
    "phone": "7602072949",
    "created_at": "2018-07-24 01:32:52.681962",
    "updated_at": "2018-08-23 23:25:35.246938",
    "country": "United States",
    "longitude": "-117.266825",
    "latitude": "33.215571",
    "tags": []
  },
  {
    "id": "horus-aged-ales",
    "name": "Horus Aged Ales",
    "brewery_type": "micro",
    "street": "4040 Calle Platino Ste 120",
    "city": "Oceanside",
    "state": "California",
    "postal_code": "92056-5859",
    "website_url": "http://www.horusbeer.com",
    "phone": "3103475685",
    "created_at": "2018-07-24 01:32:56.662779",
    "updated_at": "2018-08-11 21:36:07.15784",
    "country": "United States",
    "longitude": "",
    "latitude": "",
    "tags": []
  },
  {
    "id": "legacy-brewing-company",
    "name": "Legacy Brewing Company",
    "brewery_type": "micro",
    "street": "363 Airport Rd",
    "city": "Oceanside",
    "state": "California",
    "postal_code": "92058-1203",
    "website_url": "http://www.legacybrewingco.com",
    "phone": "7607053221",
    "created_at": "2018-07-24 01:32:57.720371",
    "updated_at": "2018-08-23 23:58:55.47564",
    "country": "United States",
    "longitude": "-117.350168656157",
    "latitude": "33.2154689215292",
    "tags": []
  },
  {
    "id": "mason-ale-works",
    "name": "Mason Ale Works",
    "brewery_type": "micro",
    "street": "2002 S Coast Hwy",
    "city": "Oceanside",
    "state": "California",
    "postal_code": "92054-6535",
    "website_url": "http://www.masonaleworks.com",
    "phone": "8583958809",
    "created_at": "2018-07-24 01:32:58.207925",
    "updated_at": "2018-08-23 23:59:27.543997",
    "country": "United States",
    "longitude": "-117.358767",
    "latitude": "33.171842",
    "tags": []
  },
  {
    "id": "oceanside-ale-works",
    "name": "Oceanside Ale Works",
    "brewery_type": "micro",
    "street": "1800 Ord Way",
    "city": "Oceanside",
    "state": "California",
    "postal_code": "92056-1502",
    "website_url": "http://www.oceansidealeworks.net",
    "phone": "7607214253",
    "created_at": "2018-07-24 01:32:58.883349",
    "updated_at": "2018-08-11 21:36:14.797867",
    "country": "United States",
    "longitude": "",
    "latitude": "",
    "tags": []
  },
  {
    "id": "northern-pine-brewing",
    "name": "Northern Pine Brewing",
    "brewery_type": "micro",
    "street": "326 N Horne St",
    "city": "Oceanside",
    "state": "California",
    "postal_code": "92054-2810",
    "website_url": "http://www.northernpinebrewing.com",
    "phone": "7607541434",
    "created_at": "2018-07-24 01:32:58.777792",
    "updated_at": "2018-08-24 00:00:08.711966",
    "country": "United States",
    "longitude": "-117.376798",
    "latitude": "33.199836",
    "tags": []
  },
  {
    "id": "midnight-jack-brewing-company",
    "name": "Midnight Jack Brewing Company",
    "brewery_type": "micro",
    "street": "3801 Oceanic Dr Ste 101",
    "city": "Oceanside",
    "state": "California",
    "postal_code": "92056-5850",
    "website_url": "http://www.midnightjackbrewing.com",
    "phone": "7606379679",
    "created_at": "2018-07-24 01:32:58.232995",
    "updated_at": "2018-08-23 23:59:29.458204",
    "country": "United States",
    "longitude": "-117.304737",
    "latitude": "33.204836",
    "tags": []
  }
]