[
  {
    "id": "barrelhouse-brewing",
    "name": "Barrelhouse Brewing",
    "brewery_type": "micro",
    "street": "3055 Limestone Way",
    "city": "Paso Robles",
    "state": "California",
    "postal_code": "93446-5988",
    "website_url": "http://www.barrelhousebrewing.com",
    "phone": "8052961128",
    "created_at": "2018-07-24 01:32:52.200771",
    "updated_at": "2018-08-11 21:35:55.620827",
    "country": "United States",
    "longitude": "",
    "latitude": "",
    "tags": []
  },
  {
    "id": "converge-brewing-company",
    "name": "Converge Brewing Company",
    "brewery_type": "planning",
    "street": "",
    "city": "Paso Robles",
    "state": "California",
    "postal_code": "93446-8360",
    "website_url": "",
    "phone": "3076908538",
    "created_at": "2018-07-24 01:32:54.019461",
    "updated_at": "2018-08-23 23:26:56.510083",
    "country": "United States",
    "longitude": "-120.6912456",
    "latitude": "35.6267654",
    "tags": []
  },
  {
    "id": "firestone-walker-brewing-co",
    "name": "Firestone Walker Brewing Co",
    "brewery_type": "regional",
    "street": "1400 Ramada Dr",
    "city": "Paso Robles",
    "state": "California",
    "postal_code": "93446-3993",
    "website_url": "http://www.firestonebeer.com",
    "phone": "8052255911",
    "created_at": "2018-07-24 01:32:55.504749",
    "updated_at": "2018-08-11 21:36:03.998866",
    "country": "United States",
    "longitude": "",
    "latitude": "",
    "tags": []
  },
  {
    "id": "silva-brewing",
    "name": "Silva Brewing",
    "brewery_type": "micro",
    "street": "525 Pine St Ste B",
    "city": "Paso Robles",
    "state": "California",
    "postal_code": "93446-3185",
    "website_url": "http://www.silvabrewing.com",
    "phone": "8053692337",
    "created_at": "2018-07-24 01:33:00.836072",
    "updated_at": "2018-08-11 21:36:20.908356",
    "country": "United States",
    "longitude": "",
    "latitude": "",
    "tags": []
  },
  {
    "id": "toro-creek-brewing-co",
    "name": "Toro Creek Brewing Co",
    "brewery_type": "micro",
    "street": "1111 Riverside Ave, Ste 103",
    "city": "Paso Robles",
    "state": "California",
    "postal_code": "93446",
    "website_url": "http://www.torocreekbrewingcompany.com",
    "phone": "8055507007",
    "created_at": "2018-07-24 01:33:02.426857",
    "updated_at": "2018-08-24 00:04:18.44273",
    "country": "United States",
    "longitude": "-120.6872603",
    "latitude": "35.6262455",
    "tags": []
  },
  {
    "id": "earth-and-fire-brewing-company",
    "name": "Earth And Fire Brewing Company",
    "brewery_type": "micro",
    "street": "825 Riverside Ave Ste 1",
    "city": "Paso Robles",
    "state": "California",
    "postal_code": "93446-2660",
    "website_url": "http://Www.earthandfirebrewing.com",
    "phone": "8052702959",
    "created_at": "2018-07-24 01:32:54.801755",
    "updated_at": "2018-08-11 21:36:02.240095",
    "country": "United States",
    "longitude": "",
    "latitude": "",
    "tags": []
  }
]