[
  {
    "id": "old-hangtown-beer-works",
    "name": "Old Hangtown Beer Works",
    "brewery_type": "micro",
    "street": "",
    "city": "Placerville",
    "state": "California",
    "postal_code": "95667",
    "website_url": "",
    "phone": "5309195166",
    "created_at": "2018-07-24 01:32:59.079718",
    "updated_at": "2018-08-24 00:00:28.46385",
    "country": "United States",
    "longitude": "-120.798546",
    "latitude": "38.7296252",
    "tags": []
  },
  {
    "id": "outbreak-brewing-co",
    "name": "Outbreak Brewing Co.",
    "brewery_type": "micro",
    "street": "640 Main St",
    "city": "Placerville",
    "state": "California",
    "postal_code": "95667-5704",
    "website_url": "http://www.outbreakbrewing.com",
    "phone": "5307483258",
    "created_at": "2018-07-24 01:32:59.190887",
    "updated_at": "2018-08-24 00:00:35.962242",
    "country": "United States",
    "longitude": "-120.794212003516",
    "latitude": "38.7293661000139",
    "tags": []
  },
  {
    "id": "gold-hill-brewery",
    "name": "Gold Hill Brewery",
    "brewery_type": "micro",
    "street": "5660 Vineyard Ln",
    "city": "Placerville",
    "state": "California",
    "postal_code": "95667-9330",
    "website_url": "http://www.goldhillvineyard.com",
    "phone": "5306266522",
    "created_at": "2018-07-24 01:32:55.849415",
    "updated_at": "2018-08-11 21:36:04.81563",
    "country": "United States",
    "longitude": "",
    "latitude": "",
    "tags": []
  },
  {
    "id": "placerville-brewing-co",
    "name": "Placerville Brewing Co",
    "brewery_type": "brewpub",
    "street": "155 Placerville Dr",
    "city": "Placerville",
    "state": "California",
    "postal_code": "95667-3909",
    "website_url": "http://www.placervillebrewing.com",
    "phone": "5302959166",
    "created_at": "2018-07-24 01:32:59.560864",
    "updated_at": "2018-08-24 00:01:00.82835",
    "country": "United States",
    "longitude": "-120.837068616966",
    "latitude": "38.7276787017952",
    "tags": []
  }
]