[
  {
    "id": "old-stump-brewery",
    "name": "Old Stump Brewery",
    "brewery_type": "micro",
    "street": "2896 Metropolitan Pl",
    "city": "Pomona",
    "state": "California",
    "postal_code": "91767-1854",
    "website_url": "http://www.oldstumpbrewery.com",
    "phone": "9098609052",
    "created_at": "2018-07-24 01:32:59.127848",
    "updated_at": "2018-08-24 00:00:31.940495",
    "country": "United States",
    "longitude": "-117.754146518132",
    "latitude": "34.0976380821684",
    "tags": []
  },
  {
    "id": "homage-brewing",
    "name": "Homage Brewing",
    "brewery_type": "micro",
    "street": "281 S Thomas St Ste 101",
    "city": "Pomona",
    "state": "California",
    "postal_code": "91766-1750",
    "website_url": "http://www.homagebrewing.com/",
    "phone": "6263770930",
    "created_at": "2018-07-24 01:32:56.563723",
    "updated_at": "2018-08-11 21:36:06.81067",
    "country": "United States",
    "longitude": "",
    "latitude": "",
    "tags": []
  },
  {
    "id": "innovation-brew-works",
    "name": "Innovation Brew Works",
    "brewery_type": "micro",
    "street": "3650 W Temple Ave Bldg 220A",
    "city": "Pomona",
    "state": "California",
    "postal_code": "91768-2582",
    "website_url": "http://www.ibrewworks.com/",
    "phone": "9098692788",
    "created_at": "2018-07-24 01:32:56.918553",
    "updated_at": "2018-08-11 21:36:08.270769",
    "country": "United States",
    "longitude": "",
    "latitude": "",
    "tags": []
  },
  {
    "id": "sanctum-brewing-co",
    "name": "Sanctum Brewing Co",
    "brewery_type": "micro",
    "street": "560 E Commercial St Ste 21",
    "city": "Pomona",
    "state": "California",
    "postal_code": "91767-5649",
    "website_url": "http://www.sanctumbrewing.com",
    "phone": "9093450253",
    "created_at": "2018-07-24 01:33:00.471184",
    "updated_at": "2018-08-11 21:36:19.381938",
    "country": "United States",
    "longitude": "",
    "latitude": "",
    "tags": []
  }
]