[
  {
    "id": "brewery-in-planning-rancho-cucamonga",
    "name": "Brewery in Planning - Rancho Cucamonga",
    "brewery_type": "planning",
    "street": "",
    "city": "Rancho Cucamonga",
    "state": "California",
    "postal_code": "91737-2461",
    "website_url": "",
    "phone": "9094766934",
    "created_at": "2018-07-24 01:32:53.174458",
    "updated_at": "2018-08-23 23:26:05.98669",
    "country": "United States",
    "longitude": "-117.5751735",
    "latitude": "34.1033192",
    "tags": []
  },
  {
    "id": "hamilton-family-brewery",
    "name": "Hamilton Family Brewery",
    "brewery_type": "micro",
    "street": "9757 7th St Ste 802",
    "city": "Rancho Cucamonga",
    "state": "California",
    "postal_code": "91730-5297",
    "website_url": "http://hamiltonfamilybrewery.com",
    "phone": "9099897050",
    "created_at": "2018-07-24 01:32:56.18864",
    "updated_at": "2018-08-11 21:36:05.609297",
    "country": "United States",
    "longitude": "",
    "latitude": "",
    "tags": []
  },
  {
    "id": "kings-brewing-company",
    "name": "Kings Brewing Company",
    "brewery_type": "micro",
    "street": "8560 Vineyard Ave Ste 301",
    "city": "Rancho Cucamonga",
    "state": "California",
    "postal_code": "91730-4395",
    "website_url": "http://www.kingsbrewingco.com",
    "phone": "9097273333",
    "created_at": "2018-07-24 01:32:57.413424",
    "updated_at": "2018-08-23 23:58:33.905434",
    "country": "United States",
    "longitude": "-117.6110744",
    "latitude": "34.1064155",
    "tags": []
  },
  {
    "id": "no-clue-craft-brewery",
    "name": "No Clue Craft Brewery",
    "brewery_type": "micro",
    "street": "9037 Arrow Rte Ste 170",
    "city": "Rancho Cucamonga",
    "state": "California",
    "postal_code": "91730-4433",
    "website_url": "http://www.nocluebrew.com",
    "phone": "9099892394",
    "created_at": "2018-07-24 01:32:58.730893",
    "updated_at": "2018-08-24 00:00:04.491343",
    "country": "United States",
    "longitude": "-117.5410707",
    "latitude": "34.0990988",
    "tags": []
  },
  {
    "id": "rowdys-brewing-company",
    "name": "Rowdy's Brewing Company",
    "brewery_type": "micro",
    "street": "10002 6th St Ste A",
    "city": "Rancho Cucamonga",
    "state": "California",
    "postal_code": "91730-5784",
    "website_url": "http://rowdysbrewco.com",
    "phone": "9099292722",
    "created_at": "2018-07-24 01:33:00.250445",
    "updated_at": "2018-08-11 21:36:18.503072",
    "country": "United States",
    "longitude": "",
    "latitude": "",
    "tags": []
  },
  {
    "id": "solorio-brewing-co",
    "name": "Solorio Brewing Co",
    "brewery_type": "micro",
    "street": "9395 Feron Blvd Ste K",
    "city": "Rancho Cucamonga",
    "state": "California",
    "postal_code": "91730-4565",
    "website_url": "http://www.soloriobrewing.com",
    "phone": "9097555400",
    "created_at": "2018-07-24 01:33:01.024649",
    "updated_at": "2018-08-11 21:36:21.465602",
    "country": "United States",
    "longitude": "",
    "latitude": "",
    "tags": []
  }
]