[
  {
    "id": "armistice-brewing-company",
    "name": "Armistice Brewing Company",
    "brewery_type": "micro",
    "street": "845 Marina Bay Pkwy Suite 1",
    "city": "Richmond",
    "state": "California",
    "postal_code": "94804-6420",
    "website_url": "http://www.armisticebrewing.com",
    "phone": "5102304966",
    "created_at": "2018-07-24 01:32:51.824942",
    "updated_at": "2018-08-11 21:35:54.808178",
    "country": "United States",
    "longitude": "",
    "latitude": "",
    "tags": []
  },
  {
    "id": "benoit-casper-brewing",
    "name": "Benoit-Casper Brewing",
    "brewery_type": "micro",
    "street": "1201 Pennsylvania Ave Ste E",
    "city": "Richmond",
    "state": "California",
    "postal_code": "94801-2300",
    "website_url": "http://www.bcbrewing.com",
    "phone": "4086953449",
    "created_at": "2018-07-24 01:32:52.431875",
    "updated_at": "2018-08-11 21:35:56.18844",
    "country": "United States",
    "longitude": "",
    "latitude": "",
    "tags": []
  },
  {
    "id": "east-brother-beer-company",
    "name": "East Brother Beer Company",
    "brewery_type": "micro",
    "street": "1001 Canal Blvd # C-2",
    "city": "Richmond",
    "state": "California",
    "postal_code": "94804-3533",
    "website_url": "http://www.eastbrotherbeer.com",
    "phone": "5102304081",
    "created_at": "2018-07-24 01:32:54.813449",
    "updated_at": "2018-08-11 21:36:02.270487",
    "country": "United States",
    "longitude": "",
    "latitude": "",
    "tags": []
  },
  {
    "id": "origin-brewer",
    "name": "Origin Brewer",
    "brewery_type": "micro",
    "street": "",
    "city": "Richmond",
    "state": "California",
    "postal_code": "94805-2121",
    "website_url": "",
    "phone": "",
    "created_at": "2018-07-24 01:32:59.150921",
    "updated_at": "2018-08-24 00:00:33.230514",
    "country": "United States",
    "longitude": "-122.3477486",
    "latitude": "37.9357576",
    "tags": []
  }
]