[
  {
    "id": "delicious-science-brewing",
    "name": "Delicious Science Brewing",
    "brewery_type": "micro",
    "street": "11626 Sterling Ave Ste G",
    "city": "Riverside",
    "state": "California",
    "postal_code": "92503-4991",
    "website_url": "http://www.delicioussciencebreing.com",
    "phone": "9513522739",
    "created_at": "2018-07-24 01:32:54.344397",
    "updated_at": "2018-08-11 21:36:01.017959",
    "country": "United States",
    "longitude": "",
    "latitude": "",
    "tags": []
  },
  {
    "id": "euryale-brewing-company",
    "name": "Euryale Brewing Company",
    "brewery_type": "micro",
    "street": "2060 Chicago Ave Ste A17",
    "city": "Riverside",
    "state": "California",
    "postal_code": "92507-2344",
    "website_url": "http://www.euryalebrewing.com",
    "phone": "9515308865",
    "created_at": "2018-07-24 01:32:55.172627",
    "updated_at": "2018-08-11 21:36:03.031935",
    "country": "United States",
    "longitude": "",
    "latitude": "",
    "tags": []
  },
  {
    "id": "greywolf-brewing",
    "name": "Greywolf Brewing",
    "brewery_type": "planning",
    "street": "",
    "city": "Riverside",
    "state": "California",
    "postal_code": "92508-9793",
    "website_url": "http://www.greywolfbrewing.com",
    "phone": "",
    "created_at": "2018-07-24 01:32:56.042874",
    "updated_at": "2018-08-23 23:29:00.962811",
    "country": "United States",
    "longitude": "-117.3961623",
    "latitude": "33.9533546",
    "tags": []
  },
  {
    "id": "heroes-restaurant-and-brewery",
    "name": "Heroes Restaurant and Brewery",
    "brewery_type": "brewpub",
    "street": "3397 Mission Inn Ave",
    "city": "Riverside",
    "state": "California",
    "postal_code": "92501-3302",
    "website_url": "http://www.heroesrestaurantandbrewery.com",
    "phone": "9512480722",
    "created_at": "2018-07-24 01:32:56.432008",
    "updated_at": "2018-08-23 23:29:22.644646",
    "country": "United States",
    "longitude": "-117.370114265666",
    "latitude": "33.9813595353206",
    "tags": []
  },
  {
    "id": "inland-empire-brewing-co",
    "name": "Inland Empire Brewing Co",
    "brewery_type": "proprietor",
    "street": "1710 Palmyrita Ave Ste 11",
    "city": "Riverside",
    "state": "California",
    "postal_code": "92507-1627",
    "website_url": "http://www.iebrew.com",
    "phone": "9516437687",
    "created_at": "2018-07-24 01:32:56.894757",
    "updated_at": "2018-08-11 21:36:08.179524",
    "country": "United States",
    "longitude": "",
    "latitude": "",
    "tags": []
  },
  {
    "id": "lot-713-craft-brewery",
    "name": "Lot 713 Craft Brewery",
    "brewery_type": "planning",
    "street": "",
    "city": "Riverside",
    "state": "California",
    "postal_code": "92506-3208",
    "website_url": "http://www.lot713.com",
    "phone": "",
    "created_at": "2018-07-24 01:32:57.97525",
    "updated_at": "2018-08-23 23:59:13.437642",
    "country": "United States",
    "longitude": "-117.3961623",
    "latitude": "33.9533546",
    "tags": []
  },
  {
    "id": "packinghouse-brewing-co-the",
    "name": "Packinghouse Brewing Co, The",
    "brewery_type": "micro",
    "street": "6421 Central Ave Ste 101",
    "city": "Riverside",
    "state": "California",
    "postal_code": "92504-1450",
    "website_url": "http://pbbeer.com",
    "phone": "9513339261",
    "created_at": "2018-07-24 01:32:59.268013",
    "updated_at": "2018-08-11 21:36:15.777186",
    "country": "United States",
    "longitude": "",
    "latitude": "",
    "tags": []
  },
  {
    "id": "route-30-brewing-company",
    "name": "Route 30 Brewing Company",
    "brewery_type": "micro",
    "street": "9860 Indiana Ave Ste 19",
    "city": "Riverside",
    "state": "California",
    "postal_code": "92503-5515",
    "website_url": "",
    "phone": "9517767083",
    "created_at": "2018-07-24 01:33:00.238309",
    "updated_at": "2018-08-11 21:36:18.474144",
    "country": "United States",
    "longitude": "",
    "latitude": "",
    "tags": []
  },
  {
    "id": "thompson-brewing-co",
    "name": "Thompson Brewing Co",
    "brewery_type": "brewpub",
    "street": "9900 Indiana Ave Ste 7",
    "city": "Riverside",
    "state": "California",
    "postal_code": "92503-5498",
    "website_url": "http://www.thompsonbrewing.com",
    "phone": "9519560480",
    "created_at": "2018-07-24 01:33:02.203234",
    "updated_at": "2018-08-11 21:36:24.888308",
    "country": "United States",
    "longitude": "",
    "latitude": "",
    "tags": []
  },
  {
    "id": "wicks-brewing-company-llc",
    "name": "Wicks Brewing Company LLC",
    "brewery_type": "brewpub",
    "street": "11620 Sterling Ave Ste C",
    "city": "Riverside",
    "state": "California",
    "postal_code": "92503-4904",
    "website_url": "http://wicksbrewing.com",
    "phone": "9516892739",
    "created_at": "2018-07-24 01:33:02.922362",
    "updated_at": "2018-08-11 21:36:28.538563",
    "country": "United States",
    "longitude": "",
    "latitude": "",
    "tags": []
  }
]