[
  {
    "id": "fountainhead-brewing-co",
    "name": "Fountainhead Brewing Co",
    "brewery_type": "micro",
    "street": "4621 24th St",
    "city": "Sacramento",
    "state": "California",
    "postal_code": "95822-1412",
    "website_url": "http://www.fountainheadbrewingco.com",
    "phone": "9162284610",
    "created_at": "2018-07-24 01:32:55.673817",
    "updated_at": "2018-08-23 23:28:38.770942",
    "country": "United States",
    "longitude": "-121.483117319123",
    "latitude": "38.5332279038371",
    "tags": []
  },
  {
    "id": "track-7-brewing-co-natomas",
    "name": "Track 7 Brewing Co - Natomas",
    "brewery_type": "micro",
    "street": "826 Professor Ln Ste 100",
    "city": "Sacramento",
    "state": "California",
    "postal_code": "95834-7743",
    "website_url": "",
    "phone": "9165204677",
    "created_at": "2018-07-24 01:33:02.497947",
    "updated_at": "2018-08-24 00:04:22.90771",
    "country": "United States",
    "longitude": "-121.4908802",
    "latitude": "38.6543681",
    "tags": []
  },
  {
    "id": "urban-roots-brewing",
    "name": "Urban Roots Brewing",
    "brewery_type": "brewpub",
    "street": "1322 V St",
    "city": "Sacramento",
    "state": "California",
    "postal_code": "95818-1418",
    "website_url": "http://www.urbanrootsbrewing.com",
    "phone": "9167063741",
    "created_at": "2018-07-24 01:33:02.752298",
    "updated_at": "2018-08-24 00:04:41.204605",
    "country": "United States",
    "longitude": "-121.49459077551",
    "latitude": "38.5657962653061",
    "tags": []
  },
  {
    "id": "alaro-craft-brewery",
    "name": "Alaro Craft Brewery",
    "brewery_type": "brewpub",
    "street": "2004 Capitol Ave",
    "city": "Sacramento",
    "state": "California",
    "postal_code": "95811",
    "website_url": "http://www.alarobrewing.com",
    "phone": "9164367711",
    "created_at": "2018-07-24 01:32:51.411408",
    "updated_at": "2018-08-23 23:24:06.777716",
    "country": "United States",
    "longitude": "-121.481183469388",
    "latitude": "38.5732396122449",
    "tags": []
  },
  {
    "id": "at-ease-brewing",
    "name": "At Ease Brewing",
    "brewery_type": "planning",
    "street": "",
    "city": "Sacramento",
    "state": "California",
    "postal_code": "95811-3003",
    "website_url": "http://www.ateasebrewing.com",
    "phone": "9167362267",
    "created_at": "2018-07-24 01:32:51.903666",
    "updated_at": "2018-08-23 23:24:41.091267",
    "country": "United States",
    "longitude": "-121.4943996",
    "latitude": "38.5815719",
    "tags": []
  },
  {
    "id": "big-sexy-brewing-company",
    "name": "Big Sexy Brewing Company",
    "brewery_type": "micro",
    "street": "5861 88th St Ste 800",
    "city": "Sacramento",
    "state": "California",
    "postal_code": "95828-1131",
    "website_url": "http://www.bigsexybrewing.com",
    "phone": "9163747332",
    "created_at": "2018-07-24 01:32:52.496692",
    "updated_at": "2018-08-23 23:25:21.996567",
    "country": "United States",
    "longitude": "-121.375723677852",
    "latitude": "38.5214986442953",
    "tags": []
  },
  {
    "id": "big-stump-brewing-company",
    "name": "Big Stump Brewing Company",
    "brewery_type": "micro",
    "street": "1716 L St",
    "city": "Sacramento",
    "state": "California",
    "postal_code": "95811-4024",
    "website_url": "http://www.bigstumpbrewco.com/",
    "phone": "9166687433",
    "created_at": "2018-07-24 01:32:52.508655",
    "updated_at": "2018-08-23 23:25:23.008424",
    "country": "United States",
    "longitude": "-121.426333372315",
    "latitude": "38.6888787523924",
    "tags": []
  },
  {
    "id": "device-brewing-company",
    "name": "Device Brewing Company",
    "brewery_type": "micro",
    "street": "8166 14th Ave",
    "city": "Sacramento",
    "state": "California",
    "postal_code": "95826-4722",
    "website_url": "http://www.devicebrewing.com",
    "phone": "9167372739",
    "created_at": "2018-07-24 01:32:54.380329",
    "updated_at": "2018-08-23 23:27:20.288902",
    "country": "United States",
    "longitude": "-121.40593711332",
    "latitude": "38.5394925212225",
    "tags": []
  },
  {
    "id": "golden-road-brewing-co",
    "name": "Golden Road Brewing Co",
    "brewery_type": "planning",
    "street": "",
    "city": "Sacramento",
    "state": "California",
    "postal_code": "95811",
    "website_url": "",
    "phone": "9163829445",
    "created_at": "2018-07-24 01:32:55.886124",
    "updated_at": "2018-08-23 23:28:51.325057",
    "country": "United States",
    "longitude": "-121.4943996",
    "latitude": "38.5815719",
    "tags": []
  },
  {
    "id": "hoppy-brewing-co",
    "name": "Hoppy Brewing Co",
    "brewery_type": "brewpub",
    "street": "2425 24th St",
    "city": "Sacramento",
    "state": "California",
    "postal_code": "95819-4619",
    "website_url": "http://www.hoppy.com",
    "phone": "9164514677",
    "created_at": "2018-07-24 01:32:56.638677",
    "updated_at": "2018-08-23 23:29:34.802492",
    "country": "United States",
    "longitude": "-121.481207836735",
    "latitude": "38.5596222857143",
    "tags": []
  },
  {
    "id": "king-cong-brewing-company",
    "name": "King Cong Brewing Company",
    "brewery_type": "micro",
    "street": "1709 del Paso Blvd",
    "city": "Sacramento",
    "state": "California",
    "postal_code": "95815-3016",
    "website_url": "",
    "phone": "9165148041",
    "created_at": "2018-07-24 01:32:57.389337",
    "updated_at": "2018-08-23 23:58:31.9555",
    "country": "United States",
    "longitude": "-121.456029",
    "latitude": "38.6077175714286",
    "tags": []
  },
  {
    "id": "new-glory-craft-brewery",
    "name": "New Glory Craft Brewery",
    "brewery_type": "micro",
    "street": "8251 Alpine Ave",
    "city": "Sacramento",
    "state": "California",
    "postal_code": "95826-4708",
    "website_url": "http://www.newglorybeer.com",
    "phone": "9164519355",
    "created_at": "2018-07-24 01:32:58.683176",
    "updated_at": "2018-08-24 00:00:00.955007",
    "country": "United States",
    "longitude": "-121.402102040816",
    "latitude": "38.5356293265306",
    "tags": []
  },
  {
    "id": "new-helvetia-brewing-company",
    "name": "New Helvetia Brewing Company",
    "brewery_type": "micro",
    "street": "1730 Broadway",
    "city": "Sacramento",
    "state": "California",
    "postal_code": "95818-2320",
    "website_url": "http://www.newhelvetiabrew.com",
    "phone": "9164699889",
    "created_at": "2018-07-24 01:32:58.695395",
    "updated_at": "2018-08-24 00:00:01.445616",
    "country": "United States",
    "longitude": "-121.4899398",
    "latitude": "38.5607772",
    "tags": []
  },
  {
    "id": "oak-park-brewing-co",
    "name": "Oak Park Brewing Co",
    "brewery_type": "brewpub",
    "street": "3514 Broadway",
    "city": "Sacramento",
    "state": "California",
    "postal_code": "95817-2825",
    "website_url": "http://www.opbrewco.com",
    "phone": "9166602723",
    "created_at": "2018-07-24 01:32:58.83702",
    "updated_at": "2018-08-24 00:00:12.678403",
    "country": "United States",
    "longitude": "-121.468104593922",
    "latitude": "38.55062715",
    "tags": []
  },
  {
    "id": "porchlight-brewing-company",
    "name": "Porchlight Brewing Company",
    "brewery_type": "micro",
    "street": "866 57th St",
    "city": "Sacramento",
    "state": "California",
    "postal_code": "95819-3327",
    "website_url": "http://www.porchlightbrewingcompany.com",
    "phone": "9164765384",
    "created_at": "2018-07-24 01:32:59.639146",
    "updated_at": "2018-08-24 00:01:06.466496",
    "country": "United States",
    "longitude": "-121.4334621",
    "latitude": "38.5659589",
    "tags": []
  },
  {
    "id": "river-city-brewing-co",
    "name": "River City Brewing Co",
    "brewery_type": "brewpub",
    "street": "545 Downtown Plz Ste 1115",
    "city": "Sacramento",
    "state": "California",
    "postal_code": "95814-3338",
    "website_url": "http://www.rivercitybrewing.net",
    "phone": "9165505093",
    "created_at": "2018-07-24 01:33:00.069112",
    "updated_at": "2018-08-11 21:36:17.910172",
    "country": "United States",
    "longitude": "",
    "latitude": "",
    "tags": []
  },
  {
    "id": "sactown-union-brewery",
    "name": "Sactown Union Brewery",
    "brewery_type": "micro",
    "street": "1210 66th St Unit B",
    "city": "Sacramento",
    "state": "California",
    "postal_code": "95819-4327",
    "website_url": "http://sactownunion.com",
    "phone": "9162724472",
    "created_at": "2018-07-24 01:33:00.382074",
    "updated_at": "2018-08-11 21:36:18.954589",
    "country": "United States",
    "longitude": "",
    "latitude": "",
    "tags": []
  },
  {
    "id": "ruhstaller-beer",
    "name": "Ruhstaller Beer",
    "brewery_type": "micro",
    "street": "726 K St",
    "city": "Sacramento",
    "state": "California",
    "postal_code": "95814-3403",
    "website_url": "http://www.ruhstallerbeer.com",
    "phone": "9169195691",
    "created_at": "2018-07-24 01:33:00.303881",
    "updated_at": "2018-08-24 00:01:49.989688",
    "country": "United States",
    "longitude": "-121.497428042553",
    "latitude": "38.5800452765957",
    "tags": []
  },
  {
    "id": "sacrament-brewing",
    "name": "Sacrament Brewing",
    "brewery_type": "micro",
    "street": "1616 J st.",
    "city": "Sacramento ",
    "state": "California",
    "postal_code": "95814",
    "website_url": "http://www.sacramentbrewing.com",
    "phone": "3102592158",
    "created_at": "2018-07-24 01:33:00.357901",
    "updated_at": "2018-08-24 00:01:54.031747",
    "country": "United States",
    "longitude": "-121.484927510204",
    "latitude": "38.5779492653061",
    "tags": []
  },
  {
    "id": "touchstone-brewing-company",
    "name": "Touchstone Brewing Company",
    "brewery_type": "planning",
    "street": "",
    "city": "Sacramento",
    "state": "California",
    "postal_code": "95811-0618",
    "website_url": "",
    "phone": "4155701391",
    "created_at": "2018-07-24 01:33:02.450294",
    "updated_at": "2018-08-24 00:04:19.379292",
    "country": "United States",
    "longitude": "-121.4943996",
    "latitude": "38.5815719",
    "tags": []
  },
  {
    "id": "track-7-brewing-co-curtis-park",
    "name": "Track 7 Brewing Co - Curtis Park",
    "brewery_type": "micro",
    "street": "3747 W Pacific Ave Ste F",
    "city": "Sacramento",
    "state": "California",
    "postal_code": "95820-1000",
    "website_url": "http://www.track7brewing.com",
    "phone": "9165204677",
    "created_at": "2018-07-24 01:33:02.486295",
    "updated_at": "2018-08-11 21:36:25.872825",
    "country": "United States",
    "longitude": "",
    "latitude": "",
    "tags": []
  }
]