[
  {
    "id": "port-brewing-co-/-the-lost-abbey",
    "name": "Port Brewing Co / The Lost Abbey",
    "brewery_type": "micro",
    "street": "155 Mata Way Ste 104",
    "city": "San Marcos",
    "state": "California",
    "postal_code": "92069-2983",
    "website_url": "http://www.portbrewing.com",
    "phone": "8009186816",
    "created_at": "2018-07-24 01:32:59.652729",
    "updated_at": "2018-08-24 00:01:07.397039",
    "country": "United States",
    "longitude": "-117.149141",
    "latitude": "33.141537",
    "tags": []
  },
  {
    "id": "dos-desperados-brewery",
    "name": "Dos Desperados Brewery",
    "brewery_type": "micro",
    "street": "1241 Linda Vista Dr",
    "city": "San Marcos",
    "state": "California",
    "postal_code": "92078-3809",
    "website_url": "http://www.dosdesperadosbrew.com",
    "phone": "7605666209",
    "created_at": "2018-07-24 01:32:54.51706",
    "updated_at": "2018-08-23 23:27:29.957788",
    "country": "United States",
    "longitude": "-117.192821629842",
    "latitude": "33.1374039147521",
    "tags": []
  },
  {
    "id": "rip-current-brewery",
    "name": "Rip Current Brewery",
    "brewery_type": "micro",
    "street": "1325 Grand Ave Ste 100",
    "city": "San Marcos",
    "state": "California",
    "postal_code": "92078-2451",
    "website_url": "http://www.ripcurrentbrewing.com",
    "phone": "7604813141",
    "created_at": "2018-07-24 01:32:59.982664",
    "updated_at": "2018-08-11 21:36:17.741015",
    "country": "United States",
    "longitude": "",
    "latitude": "",
    "tags": []
  },
  {
    "id": "san-marcos-brewery-and-grill",
    "name": "San Marcos Brewery and Grill",
    "brewery_type": "brewpub",
    "street": "1080 W San Marcos Blvd Ste 180",
    "city": "San Marcos",
    "state": "California",
    "postal_code": "92078-4099",
    "website_url": "",
    "phone": "7604710050",
    "created_at": "2018-07-24 01:33:00.446642",
    "updated_at": "2018-08-11 21:36:19.247519",
    "country": "United States",
    "longitude": "",
    "latitude": "",
    "tags": []
  },
  {
    "id": "stumblefoot-brewing",
    "name": "Stumblefoot Brewing",
    "brewery_type": "micro",
    "street": "1784 La Costa Meadows Dr Ste 103",
    "city": "San Marcos",
    "state": "California",
    "postal_code": "92078-5174",
    "website_url": "http://www.stumblefoot.com",
    "phone": "7605663668",
    "created_at": "2018-07-24 01:33:01.557555",
    "updated_at": "2018-08-24 00:03:20.577935",
    "country": "United States",
    "longitude": "-117.219483815862",
    "latitude": "33.1041969447363",
    "tags": []
  },
  {
    "id": "urge-gastropub-and-common-house/mason-ale-works",
    "name": "Urge Gastropub & Common House/Mason Ale Works",
    "brewery_type": "brewpub",
    "street": "255 Redel Rd",
    "city": "San Marcos",
    "state": "California",
    "postal_code": "92078-4347",
    "website_url": "",
    "phone": "",
    "created_at": "2018-07-24 01:33:02.763785",
    "updated_at": "2018-08-24 00:04:42.119267",
    "country": "United States",
    "longitude": "-117.158627",
    "latitude": "33.135679",
    "tags": []
  },
  {
    "id": "wild-barrel-brewing-company",
    "name": "Wild Barrel Brewing Company",
    "brewery_type": "micro",
    "street": "692 Rancheros Dr",
    "city": "San Marcos",
    "state": "California",
    "postal_code": "92069-3005",
    "website_url": "http://www.wildbarrelbrewing.com",
    "phone": "7605934785",
    "created_at": "2018-07-24 01:33:02.94758",
    "updated_at": "2018-08-24 00:04:55.890898",
    "country": "United States",
    "longitude": "-117.145752",
    "latitude": "33.140152",
    "tags": []
  }
]