[
  {
    "id": "abnormal-beer-company",
    "name": "Abnormal Beer Company",
    "brewery_type": "micro",
    "street": "16990 Via Tazon Ste 123",
    "city": "San Diego",
    "state": "California",
    "postal_code": "92127-1649",
    "website_url": "http://abnormalbeer.co",
    "phone": "8586182463",
    "created_at": "2018-07-24 01:32:51.325848",
    "updated_at": "2018-08-23 23:24:00.025287",
    "country": "United States",
    "longitude": "-117.08575",
    "latitude": "33.02391",
    "tags": []
  },
  {
    "id": "brewery-in-planning-san-diego",
    "name": "Brewery in Planning - San Diego",
    "brewery_type": "planning",
    "street": "",
    "city": "San Diego",
    "state": "California",
    "postal_code": "92121-4396",
    "website_url": "http://WWW.gravityheights.com",
    "phone": "8588882188",
    "created_at": "2018-07-24 01:32:53.189216",
    "updated_at": "2018-08-23 23:26:06.455378",
    "country": "United States",
    "longitude": "-117.1627714",
    "latitude": "32.7174209",
    "tags": []
  },
  {
    "id": "eppig-brewing",
    "name": "Eppig Brewing",
    "brewery_type": "micro",
    "street": "3052 El Cajon Blvd Ste 103",
    "city": "San Diego",
    "state": "California",
    "postal_code": "92104-1399",
    "website_url": "http://www.eppigbrewing.com",
    "phone": "6195011840",
    "created_at": "2018-07-24 01:32:55.121784",
    "updated_at": "2018-08-23 23:28:03.844667",
    "country": "United States",
    "longitude": "-117.128732",
    "latitude": "32.755723",
    "tags": []
  },
  {
    "id": "mike-hess-brewing-miramar",
    "name": "Mike Hess Brewing - Miramar",
    "brewery_type": "micro",
    "street": "7955 Silverton Ave Ste 1201",
    "city": "San Diego",
    "state": "California",
    "postal_code": "92126-6357",
    "website_url": "http://www.hessbrewing.com",
    "phone": "6198876453",
    "created_at": "2018-07-24 01:32:58.257222",
    "updated_at": "2018-08-23 23:59:31.275659",
    "country": "United States",
    "longitude": "-117.151828378447",
    "latitude": "32.8908008085346",
    "tags": []
  },
  {
    "id": "new-english-brewing-co-inc",
    "name": "New English Brewing Co Inc",
    "brewery_type": "micro",
    "street": "11545 Sorrento Valley Rd Ste 305",
    "city": "San Diego",
    "state": "California",
    "postal_code": "92121-1322",
    "website_url": "http://www.newenglishbrewing.com",
    "phone": "6198578023",
    "created_at": "2018-07-24 01:32:58.670764",
    "updated_at": "2018-08-24 00:00:00.07684",
    "country": "United States",
    "longitude": "-117.230519",
    "latitude": "32.912641",
    "tags": []
  },
  {
    "id": "stone-brewing-world-bistro-and-gardens-liberty-station",
    "name": "Stone Brewing World Bistro & Gardens- Liberty Station",
    "brewery_type": "brewpub",
    "street": "2816 Historic Decatur Rd Ste 116",
    "city": "San Diego",
    "state": "California",
    "postal_code": "92106-6164",
    "website_url": "http://www.stonelibertystation.com",
    "phone": "6192692200",
    "created_at": "2018-07-24 01:33:01.470965",
    "updated_at": "2018-08-24 00:03:14.354789",
    "country": "United States",
    "longitude": "-117.21157",
    "latitude": "32.7405237",
    "tags": []
  },
  {
    "id": "thunderhawk-alements",
    "name": "Thunderhawk Alements",
    "brewery_type": "micro",
    "street": "8675 Miralani Dr Ste 100",
    "city": "San Diego",
    "state": "California",
    "postal_code": "92126-4355",
    "website_url": "http://thunderhawkbeer.com",
    "phone": "6199524832",
    "created_at": "2018-07-24 01:33:02.328724",
    "updated_at": "2018-08-24 00:04:11.527969",
    "country": "United States",
    "longitude": "-117.137466970906",
    "latitude": "32.8957500613992",
    "tags": []
  },
  {
    "id": "alta-brewing-company",
    "name": "Alta Brewing Company",
    "brewery_type": "micro",
    "street": "1983 Julian Avenue",
    "city": "San Diego",
    "state": "California",
    "postal_code": "92113-1125",
    "website_url": "http://www.altabrewing.com",
    "phone": "6197957300",
    "created_at": "2018-07-24 01:32:51.554318",
    "updated_at": "2018-08-23 23:24:16.02398",
    "country": "United States",
    "longitude": "-117.141471216793",
    "latitude": "32.7018758",
    "tags": []
  },
  {
    "id": "32-north-brewing-co",
    "name": "32 North Brewing Co",
    "brewery_type": "micro",
    "street": "8655 Production Ave Ste A",
    "city": "San Diego",
    "state": "California",
    "postal_code": "92121-2258",
    "website_url": "",
    "phone": "",
    "created_at": "2018-07-24 01:32:51.185938",
    "updated_at": "2018-08-11 21:35:52.94604",
    "country": "United States",
    "longitude": "",
    "latitude": "",
    "tags": []
  },
  {
    "id": "10-barrel-brewing-co",
    "name": "10 Barrel Brewing Co",
    "brewery_type": "large",
    "street": "1501 E St",
    "city": "San Diego",
    "state": "California",
    "postal_code": "92101-6618",
    "website_url": "http://10barrel.com",
    "phone": "6195782311",
    "created_at": "2018-07-24 01:32:51.036955",
    "updated_at": "2018-08-23 23:23:41.575508",
    "country": "United States",
    "longitude": "-117.129593",
    "latitude": "32.714813",
    "tags": []
  },
  {
    "id": "2kids-brewing-company",
    "name": "2Kids Brewing Company",
    "brewery_type": "micro",
    "street": "8680 Miralani Dr Ste 123",
    "city": "San Diego",
    "state": "California",
    "postal_code": "92126-6391",
    "website_url": "http://www.2kidsBrewing.com",
    "phone": "8584805437",
    "created_at": "2018-07-24 01:32:51.124615",
    "updated_at": "2018-08-23 23:23:47.575364",
    "country": "United States",
    "longitude": "-117.137429",
    "latitude": "32.896584",
    "tags": []
  },
  {
    "id": "acoustic-ales-brewing-experiment",
    "name": "Acoustic Ales Brewing Experiment",
    "brewery_type": "micro",
    "street": "1795 Hancock St Ste P1",
    "city": "San Diego",
    "state": "California",
    "postal_code": "92110-2006",
    "website_url": "http://www.acousticales.com",
    "phone": "6192992537",
    "created_at": "2018-07-24 01:32:51.361949",
    "updated_at": "2018-08-11 21:35:53.430432",
    "country": "United States",
    "longitude": "",
    "latitude": "",
    "tags": []
  },
  {
    "id": "alesmith-brewing-co",
    "name": "AleSmith Brewing Co",
    "brewery_type": "regional",
    "street": "9990 Alesmith Ct",
    "city": "San Diego",
    "state": "California",
    "postal_code": "92126-4200",
    "website_url": "http://www.alesmith.com",
    "phone": "8585499888",
    "created_at": "2018-07-24 01:32:51.452282",
    "updated_at": "2018-08-11 21:35:53.891381",
    "country": "United States",
    "longitude": "",
    "latitude": "",
    "tags": []
  },
  {
    "id": "amplified-ale-works-miramar-studio",
    "name": "Amplified Ale Works Miramar Studio",
    "brewery_type": "brewpub",
    "street": "9030 Kenamar Dr Ste 309",
    "city": "San Diego",
    "state": "California",
    "postal_code": "92121-2432",
    "website_url": "",
    "phone": "6503804220",
    "created_at": "2018-07-24 01:32:51.645509",
    "updated_at": "2018-08-11 21:35:54.470092",
    "country": "United States",
    "longitude": "",
    "latitude": "",
    "tags": []
  },
  {
    "id": "align-brewing-co",
    "name": "Align Brewing Co",
    "brewery_type": "micro",
    "street": "8680 Miralani Dr",
    "city": "San Diego",
    "state": "California",
    "postal_code": "92126-6300",
    "website_url": "http://www.facebook.com/alignbrewing",
    "phone": "",
    "created_at": "2018-07-24 01:32:51.464293",
    "updated_at": "2018-08-23 23:24:10.056986",
    "country": "United States",
    "longitude": "-117.137429",
    "latitude": "32.896584",
    "tags": []
  },
  {
    "id": "amplified-ale-works",
    "name": "Amplified Ale Works",
    "brewery_type": "brewpub",
    "street": "4150 Mission Blvd Ste 208",
    "city": "San Diego",
    "state": "California",
    "postal_code": "92109-5054",
    "website_url": "http://www.amplifiedales.com",
    "phone": "6195871400",
    "created_at": "2018-07-24 01:32:51.632553",
    "updated_at": "2018-08-23 23:24:21.854394",
    "country": "United States",
    "longitude": "-117.2511178",
    "latitude": "32.7719729",
    "tags": []
  },
  {
    "id": "ballast-point-brewing-co-/-home-brew-mart",
    "name": "Ballast Point Brewing Co / Home Brew Mart",
    "brewery_type": "large",
    "street": "5401 Linda Vista Rd Ste 406",
    "city": "San Diego",
    "state": "California",
    "postal_code": "92110-2402",
    "website_url": "http://www.ballastpoint.com",
    "phone": "6198517681",
    "created_at": "2018-07-24 01:32:52.005262",
    "updated_at": "2018-08-11 21:35:55.200836",
    "country": "United States",
    "longitude": "",
    "latitude": "",
    "tags": []
  },
  {
    "id": "barn-brewery",
    "name": "Barn Brewery",
    "brewery_type": "micro",
    "street": "2850 El Cajon Blvd Ste 3",
    "city": "San Diego",
    "state": "California",
    "postal_code": "92104-1389",
    "website_url": "http://www.thebarnbrew.com",
    "phone": "6199558228",
    "created_at": "2018-07-24 01:32:52.135228",
    "updated_at": "2018-08-11 21:35:55.453482",
    "country": "United States",
    "longitude": "",
    "latitude": "",
    "tags": []
  },
  {
    "id": "ballast-point-brewing-company",
    "name": "Ballast Point Brewing Company",
    "brewery_type": "large",
    "street": "9045 Carroll Way",
    "city": "San Diego",
    "state": "California",
    "postal_code": "92121-2405",
    "website_url": "http://www.ballastpoint.com",
    "phone": "8586952739",
    "created_at": "2018-07-24 01:32:52.020343",
    "updated_at": "2018-08-23 23:24:48.016309",
    "country": "United States",
    "longitude": "-117.158725107822",
    "latitude": "32.887980832974",
    "tags": []
  },
  {
    "id": "ballast-point-brewing-company",
    "name": "Ballast Point Brewing Company",
    "brewery_type": "large",
    "street": "7606 Trade St",
    "city": "San Diego",
    "state": "California",
    "postal_code": "92121-2405",
    "website_url": "",
    "phone": "8586952739",
    "created_at": "2018-07-24 01:32:52.063117",
    "updated_at": "2018-08-23 23:24:50.216271",
    "country": "United States",
    "longitude": "-117.157081",
    "latitude": "32.889641",
    "tags": []
  },
  {
    "id": "ballast-point-brewing-company-little-italy",
    "name": "Ballast Point Brewing Company - Little Italy",
    "brewery_type": "large",
    "street": "2215 India St",
    "city": "San Diego",
    "state": "California",
    "postal_code": "92101-1725",
    "website_url": "http://www.ballastpoint.com",
    "phone": "6192557213",
    "created_at": "2018-07-24 01:32:52.086683",
    "updated_at": "2018-08-23 23:24:51.481917",
    "country": "United States",
    "longitude": "-117.169738",
    "latitude": "32.727777",
    "tags": []
  },
  {
    "id": "bitter-brothers-brewing-co",
    "name": "Bitter Brothers Brewing Co.",
    "brewery_type": "micro",
    "street": "4170 Morena Blvd Ste F",
    "city": "San Diego",
    "state": "California",
    "postal_code": "92117-5252",
    "website_url": "http://www.bitterbrothers.com",
    "phone": "6199616690",
    "created_at": "2018-07-24 01:32:52.560503",
    "updated_at": "2018-08-11 21:35:56.515857",
    "country": "United States",
    "longitude": "",
    "latitude": "",
    "tags": []
  },
  {
    "id": "border-x-logan",
    "name": "Border X Logan",
    "brewery_type": "brewpub",
    "street": "2181 Logan Ave",
    "city": "San Diego",
    "state": "California",
    "postal_code": "92113-2203",
    "website_url": "http://www.borderxbrewing.com",
    "phone": "8584050528",
    "created_at": "2018-07-24 01:32:52.870842",
    "updated_at": "2018-08-23 23:25:49.269304",
    "country": "United States",
    "longitude": "-117.139754116945",
    "latitude": "32.6982174013939",
    "tags": []
  },
  {
    "id": "california-wild-ales",
    "name": "California Wild Ales",
    "brewery_type": "contract",
    "street": "4204 Sorrento Valley Blvd",
    "city": "San Diego",
    "state": "California",
    "postal_code": "92121-1446",
    "website_url": "",
    "phone": "",
    "created_at": "2018-07-24 01:32:53.499794",
    "updated_at": "2018-08-23 23:26:24.262169",
    "country": "United States",
    "longitude": "-117.2146488",
    "latitude": "32.905002",
    "tags": []
  },
  {
    "id": "circle-9-brewing",
    "name": "Circle 9 Brewing",
    "brewery_type": "micro",
    "street": "7292 Opportunity Rd Ste C",
    "city": "San Diego",
    "state": "California",
    "postal_code": "92111-2223",
    "website_url": "http://www.circle9brewing.com",
    "phone": "8586342537",
    "created_at": "2018-07-24 01:32:53.808677",
    "updated_at": "2018-08-11 21:35:59.420982",
    "country": "United States",
    "longitude": "",
    "latitude": "",
    "tags": []
  },
  {
    "id": "citizen-brewers",
    "name": "Citizen Brewers",
    "brewery_type": "micro",
    "street": "5837 Mission Gorge Rd Ste A",
    "city": "San Diego",
    "state": "California",
    "postal_code": "92120-4060",
    "website_url": "http://www.citizenbrewers.com",
    "phone": "7605877989",
    "created_at": "2018-07-24 01:32:53.832847",
    "updated_at": "2018-08-11 21:35:59.478683",
    "country": "United States",
    "longitude": "",
    "latitude": "",
    "tags": []
  },
  {
    "id": "constellation-brands",
    "name": "Constellation Brands",
    "brewery_type": "large",
    "street": "9045 Caroll Way",
    "city": "San Diego",
    "state": "California",
    "postal_code": "92121",
    "website_url": "",
    "phone": "",
    "created_at": "2018-07-24 01:32:54.007318",
    "updated_at": "2018-08-11 21:35:59.87495",
    "country": "United States",
    "longitude": "",
    "latitude": "",
    "tags": []
  },
  {
    "id": "coronado-brewing-co-production-facility",
    "name": "Coronado Brewing Co - Production Facility",
    "brewery_type": "regional",
    "street": "170 Orange Ave",
    "city": "San Diego",
    "state": "California",
    "postal_code": "92118-1409",
    "website_url": "",
    "phone": "6192752215",
    "created_at": "2018-07-24 01:32:54.069905",
    "updated_at": "2018-08-23 23:27:00.269065",
    "country": "United States",
    "longitude": "-117.094383",
    "latitude": "32.753124",
    "tags": []
  },
  {
    "id": "council-brewing-magic-factory",
    "name": "Council Brewing - Magic Factory",
    "brewery_type": "micro",
    "street": "7705 Convoy Ct",
    "city": "San Diego",
    "state": "California",
    "postal_code": "92111-1113",
    "website_url": "",
    "phone": "8582560038",
    "created_at": "2018-07-24 01:32:54.127878",
    "updated_at": "2018-08-23 23:27:03.039551",
    "country": "United States",
    "longitude": "-117.154409240036",
    "latitude": "32.8346629601785",
    "tags": []
  },
  {
    "id": "council-brewing-company",
    "name": "Council Brewing Company",
    "brewery_type": "micro",
    "street": "7705 Convoy Ct",
    "city": "San Diego",
    "state": "California",
    "postal_code": "92111-1105",
    "website_url": "http://www.councilbrew.com",
    "phone": "8582560038",
    "created_at": "2018-07-24 01:32:54.155827",
    "updated_at": "2018-08-23 23:27:04.782439",
    "country": "United States",
    "longitude": "-117.154409240036",
    "latitude": "32.8346629601785",
    "tags": []
  },
  {
    "id": "deft-brewing",
    "name": "Deft Brewing",
    "brewery_type": "micro",
    "street": "5328 Banks St",
    "city": "San Diego",
    "state": "California",
    "postal_code": "92110-4008",
    "website_url": "http://www.deftbrewing.com",
    "phone": "8589995728",
    "created_at": "2018-07-24 01:32:54.320532",
    "updated_at": "2018-08-23 23:27:15.752163",
    "country": "United States",
    "longitude": "-117.199343259846",
    "latitude": "32.7643543248057",
    "tags": []
  },
  {
    "id": "division-23-brewing",
    "name": "Division 23 Brewing",
    "brewery_type": "micro",
    "street": "7408 Trade St",
    "city": "San Diego",
    "state": "California",
    "postal_code": "92121-3415",
    "website_url": "http://www.division23brewing.com",
    "phone": "8587521924",
    "created_at": "2018-07-24 01:32:54.491579",
    "updated_at": "2018-08-23 23:27:27.662481",
    "country": "United States",
    "longitude": "-117.162908",
    "latitude": "32.890353",
    "tags": []
  },
  {
    "id": "duck-foot-brewing-co",
    "name": "Duck Foot Brewing Co.",
    "brewery_type": "micro",
    "street": "8920 Kenamar Dr Ste 210",
    "city": "San Diego",
    "state": "California",
    "postal_code": "92121-2454",
    "website_url": "http://www.duckfootbeer.com",
    "phone": "8584337916",
    "created_at": "2018-07-24 01:32:54.659292",
    "updated_at": "2018-08-23 23:27:38.958211",
    "country": "United States",
    "longitude": "-117.156218065696",
    "latitude": "32.8847483530585",
    "tags": []
  },
  {
    "id": "fall-brewing-company",
    "name": "Fall Brewing Company",
    "brewery_type": "micro",
    "street": "4542 30th St",
    "city": "San Diego",
    "state": "California",
    "postal_code": "92116-4247",
    "website_url": "http://www.fallbrewing.com",
    "phone": "6195010903",
    "created_at": "2018-07-24 01:32:55.218948",
    "updated_at": "2018-08-23 23:28:11.00531",
    "country": "United States",
    "longitude": "-117.13028019183",
    "latitude": "32.7599751418351",
    "tags": []
  },
  {
    "id": "g8-development-inc",
    "name": "G8 Development, Inc.",
    "brewery_type": "planning",
    "street": "",
    "city": "San Diego",
    "state": "California",
    "postal_code": "92109-2802",
    "website_url": "",
    "phone": "6198233402",
    "created_at": "2018-07-24 01:32:55.746165",
    "updated_at": "2018-08-23 23:28:42.644983",
    "country": "United States",
    "longitude": "-117.1627714",
    "latitude": "32.7174209",
    "tags": []
  },
  {
    "id": "helms-brewing-company-llc",
    "name": "Helm's Brewing Company, LLC",
    "brewery_type": "micro",
    "street": "5640 Kearny Mesa Rd Ste C",
    "city": "San Diego",
    "state": "California",
    "postal_code": "92111-1312",
    "website_url": "http://www.helmsbrewingco.com",
    "phone": "2092024308",
    "created_at": "2018-07-24 01:32:56.346246",
    "updated_at": "2018-08-11 21:36:05.923322",
    "country": "United States",
    "longitude": "",
    "latitude": "",
    "tags": []
  },
  {
    "id": "globier",
    "name": "Globier",
    "brewery_type": "planning",
    "street": "",
    "city": "San Diego",
    "state": "California",
    "postal_code": "92117-1604",
    "website_url": "http://www.drinkglobier.com",
    "phone": "7757623818",
    "created_at": "2018-07-24 01:32:55.822382",
    "updated_at": "2018-08-23 23:28:47.366444",
    "country": "United States",
    "longitude": "-117.1627714",
    "latitude": "32.7174209",
    "tags": []
  },
  {
    "id": "gordon-biersch-brewery-restaurant-san-diego",
    "name": "Gordon Biersch Brewery Restaurant - San Diego",
    "brewery_type": "brewpub",
    "street": "5010 Mission Center Rd",
    "city": "San Diego",
    "state": "California",
    "postal_code": "92108-3211",
    "website_url": "http://www.craftworksrestaurants.com",
    "phone": "6196881120",
    "created_at": "2018-07-24 01:32:55.934181",
    "updated_at": "2018-08-23 23:28:55.199062",
    "country": "United States",
    "longitude": "-117.1539235",
    "latitude": "32.7740128",
    "tags": []
  },
  {
    "id": "green-flash-brewing-co",
    "name": "Green Flash Brewing Co",
    "brewery_type": "regional",
    "street": "6550 Mira Mesa Blvd",
    "city": "San Diego",
    "state": "California",
    "postal_code": "92121-4100",
    "website_url": "http://www.greenflashbrew.com",
    "phone": "8586220085",
    "created_at": "2018-07-24 01:32:56.02714",
    "updated_at": "2018-08-23 23:29:00.296744",
    "country": "United States",
    "longitude": "-117.113975",
    "latitude": "32.9167796",
    "tags": []
  },
  {
    "id": "half-door-brewing-company",
    "name": "Half Door Brewing Company",
    "brewery_type": "brewpub",
    "street": "903 Island Ave",
    "city": "San Diego",
    "state": "California",
    "postal_code": "92101-7227",
    "website_url": "http://www.halfdoorbrewing.com",
    "phone": "",
    "created_at": "2018-07-24 01:32:56.16008",
    "updated_at": "2018-08-23 23:29:07.036337",
    "country": "United States",
    "longitude": "-117.156268",
    "latitude": "32.710248",
    "tags": []
  },
  {
    "id": "hillcrest-brewing-company",
    "name": "Hillcrest Brewing Company",
    "brewery_type": "brewpub",
    "street": "1458 University Ave",
    "city": "San Diego",
    "state": "California",
    "postal_code": "92103-3405",
    "website_url": "http://www.hillcrestbrewingcompany.com",
    "phone": "6192694323",
    "created_at": "2018-07-24 01:32:56.499293",
    "updated_at": "2018-08-23 23:29:26.416242",
    "country": "United States",
    "longitude": "-117.1260866",
    "latitude": "32.7484921",
    "tags": []
  },
  {
    "id": "hodads-brewing-company",
    "name": "Hodad's Brewing Company",
    "brewery_type": "planning",
    "street": "",
    "city": "San Diego",
    "state": "California",
    "postal_code": "92123",
    "website_url": "",
    "phone": "8582782770",
    "created_at": "2018-07-24 01:32:56.512285",
    "updated_at": "2018-08-23 23:29:26.845782",
    "country": "United States",
    "longitude": "-117.1627714",
    "latitude": "32.7174209",
    "tags": []
  },
  {
    "id": "home-brewing-co",
    "name": "Home Brewing Co.",
    "brewery_type": "micro",
    "street": "2911 El Cajon Blvd # 2",
    "city": "San Diego",
    "state": "California",
    "postal_code": "92104-1204",
    "website_url": "http://www.thehomebrewerssd.com",
    "phone": "6194506165",
    "created_at": "2018-07-24 01:32:56.578241",
    "updated_at": "2018-08-23 23:29:30.366886",
    "country": "United States",
    "longitude": "-117.131109",
    "latitude": "32.755029",
    "tags": []
  },
  {
    "id": "intergalactic-brewing-co",
    "name": "Intergalactic Brewing Co",
    "brewery_type": "micro",
    "street": "9715 Carroll Centre Rd #107",
    "city": "San Diego",
    "state": "California",
    "postal_code": "92126-6507",
    "website_url": "http://www.intergalacticbrew.com",
    "phone": "8587500601",
    "created_at": "2018-07-24 01:32:56.944984",
    "updated_at": "2018-08-23 23:29:57.099017",
    "country": "United States",
    "longitude": "-117.12234929993",
    "latitude": "32.898732788017",
    "tags": []
  },
  {
    "id": "karl-strauss-brewing-co",
    "name": "Karl Strauss Brewing Co",
    "brewery_type": "regional",
    "street": "5985 Santa Fe St",
    "city": "San Diego",
    "state": "California",
    "postal_code": "92109-1623",
    "website_url": "http://www.karlstrauss.com",
    "phone": "8582732739",
    "created_at": "2018-07-24 01:32:57.184616",
    "updated_at": "2018-08-23 23:58:16.752084",
    "country": "United States",
    "longitude": "-117.231429",
    "latitude": "32.832579",
    "tags": []
  },
  {
    "id": "karl-strauss-brewing-co-sorrento-mesa",
    "name": "Karl Strauss Brewing Co - Sorrento Mesa",
    "brewery_type": "brewpub",
    "street": "9675 Scranton Rd",
    "city": "San Diego",
    "state": "California",
    "postal_code": "92121-1761",
    "website_url": "http://www.karlstrauss.com",
    "phone": "8585872739",
    "created_at": "2018-07-24 01:32:57.197316",
    "updated_at": "2018-08-23 23:58:17.609012",
    "country": "United States",
    "longitude": "-117.202706585848",
    "latitude": "32.8963456602055",
    "tags": []
  },
  {
    "id": "karl-strauss-brewing-co-4s-ranch",
    "name": "Karl Strauss Brewing Co - 4S Ranch",
    "brewery_type": "brewpub",
    "street": "10448 Reserve Dr",
    "city": "San Diego",
    "state": "California",
    "postal_code": "92127-3510",
    "website_url": "http://www.karlstrauss.com",
    "phone": "8582732739",
    "created_at": "2018-07-24 01:32:57.209487",
    "updated_at": "2018-08-23 23:58:18.440459",
    "country": "United States",
    "longitude": "-117.113249",
    "latitude": "33.021301",
    "tags": []
  },
  {
    "id": "karl-strauss-brewing-co-downtown",
    "name": "Karl Strauss Brewing Co - Downtown",
    "brewery_type": "brewpub",
    "street": "1157 Columbia St",
    "city": "San Diego",
    "state": "California",
    "postal_code": "92101-3511",
    "website_url": "http://www.karlstrauss.com",
    "phone": "6192342739",
    "created_at": "2018-07-24 01:32:57.256027",
    "updated_at": "2018-08-23 23:58:21.725052",
    "country": "United States",
    "longitude": "-117.167283778348",
    "latitude": "32.7173008602367",
    "tags": []
  },
  {
    "id": "kilowatt-brewing",
    "name": "Kilowatt Brewing",
    "brewery_type": "micro",
    "street": "7576 Clairemont Mesa Blvd",
    "city": "San Diego",
    "state": "California",
    "postal_code": "92111-1504",
    "website_url": "http://www.kilowatt.beer",
    "phone": "8587153998",
    "created_at": "2018-07-24 01:32:57.365062",
    "updated_at": "2018-08-23 23:58:30.160937",
    "country": "United States",
    "longitude": "-117.208801",
    "latitude": "32.8276353",
    "tags": []
  },
  {
    "id": "knotty-brewing-co",
    "name": "Knotty Brewing Co.",
    "brewery_type": "micro",
    "street": "842 Market St",
    "city": "San Diego",
    "state": "California",
    "postal_code": "92101-6425",
    "website_url": "http://www.knottybrewing.com",
    "phone": "6192694337",
    "created_at": "2018-07-24 01:32:57.450488",
    "updated_at": "2018-08-23 23:58:36.310883",
    "country": "United States",
    "longitude": "-117.127434",
    "latitude": "32.711658",
    "tags": []
  },
  {
    "id": "latchkey-brewing-company",
    "name": "Latchkey Brewing Company",
    "brewery_type": "micro",
    "street": "1795 Hancock St Mission Brewery Plaza",
    "city": "San Diego",
    "state": "California",
    "postal_code": "92110-2006",
    "website_url": "http://www.latchkeybrew.com",
    "phone": "9165551212",
    "created_at": "2018-07-24 01:32:57.629711",
    "updated_at": "2018-08-11 21:36:11.444551",
    "country": "United States",
    "longitude": "",
    "latitude": "",
    "tags": []
  },
  {
    "id": "longship-brewery",
    "name": "Longship Brewery",
    "brewery_type": "micro",
    "street": "10320 Camino Santa Fe Ste C",
    "city": "San Diego",
    "state": "California",
    "postal_code": "92121-3103",
    "website_url": "http://www.LongshipBrewery.com",
    "phone": "8582467875",
    "created_at": "2018-07-24 01:32:57.890805",
    "updated_at": "2018-08-11 21:36:12.148773",
    "country": "United States",
    "longitude": "",
    "latitude": "",
    "tags": []
  },
  {
    "id": "little-miss-brewing",
    "name": "Little Miss Brewing",
    "brewery_type": "micro",
    "street": "7949 Stromesa Ct Ste Y",
    "city": "San Diego",
    "state": "California",
    "postal_code": "92126-6338",
    "website_url": "http://www.littlemissbrewing.com",
    "phone": "6198802752",
    "created_at": "2018-07-24 01:32:57.807003",
    "updated_at": "2018-08-23 23:59:02.159936",
    "country": "United States",
    "longitude": "-117.148488",
    "latitude": "32.89183",
    "tags": []
  },
  {
    "id": "mike-hess-brewing",
    "name": "Mike Hess Brewing",
    "brewery_type": "micro",
    "street": "3812 Grim Ave",
    "city": "San Diego",
    "state": "California",
    "postal_code": "92104-3602",
    "website_url": "",
    "phone": "6192557136",
    "created_at": "2018-07-24 01:32:58.245097",
    "updated_at": "2018-08-23 23:59:30.336381",
    "country": "United States",
    "longitude": "-117.12854",
    "latitude": "32.747711",
    "tags": []
  },
  {
    "id": "mikkeller-brewing-san-diego",
    "name": "Mikkeller Brewing San Diego",
    "brewery_type": "micro",
    "street": "9366 Cabot Dr",
    "city": "San Diego",
    "state": "California",
    "postal_code": "92126-4311",
    "website_url": "",
    "phone": "",
    "created_at": "2018-07-24 01:32:58.269723",
    "updated_at": "2018-08-23 23:59:32.169877",
    "country": "United States",
    "longitude": "-117.144170957093",
    "latitude": "32.8914630654776",
    "tags": []
  },
  {
    "id": "mission-brewery",
    "name": "Mission Brewery",
    "brewery_type": "micro",
    "street": "1441 L St",
    "city": "San Diego",
    "state": "California",
    "postal_code": "92101-8967",
    "website_url": "http://www.missionbrewery.com",
    "phone": "6195440555",
    "created_at": "2018-07-24 01:32:58.320083",
    "updated_at": "2018-08-23 23:59:35.852024",
    "country": "United States",
    "longitude": "-117.0682152",
    "latitude": "32.6220746",
    "tags": []
  },
  {
    "id": "modern-times-the-dankness-dojo",
    "name": "Modern Times - The Dankness Dojo",
    "brewery_type": "brewpub",
    "street": "3725 Greenwood St",
    "city": "San Diego",
    "state": "California",
    "postal_code": "92110-4441",
    "website_url": "",
    "phone": "6195469694",
    "created_at": "2018-07-24 01:32:58.33323",
    "updated_at": "2018-08-23 23:59:36.68083",
    "country": "United States",
    "longitude": "-117.206153",
    "latitude": "32.754233",
    "tags": []
  },
  {
    "id": "modern-times-barrel-house",
    "name": "Modern Times Barrel House",
    "brewery_type": "micro",
    "street": "3486 Kurtz St # 102",
    "city": "San Diego",
    "state": "California",
    "postal_code": "92110-4429",
    "website_url": "",
    "phone": "",
    "created_at": "2018-07-24 01:32:58.345572",
    "updated_at": "2018-08-23 23:59:37.612252",
    "country": "United States",
    "longitude": "-117.208724993243",
    "latitude": "32.7553932482817",
    "tags": []
  },
  {
    "id": "modern-times-beer",
    "name": "Modern Times Beer",
    "brewery_type": "regional",
    "street": "3725 Greenwood St",
    "city": "San Diego",
    "state": "California",
    "postal_code": "92110-4441",
    "website_url": "http://www.moderntimesbeer.com",
    "phone": "6195469694",
    "created_at": "2018-07-24 01:32:58.357705",
    "updated_at": "2018-08-23 23:59:38.517908",
    "country": "United States",
    "longitude": "-117.206153",
    "latitude": "32.754233",
    "tags": []
  },
  {
    "id": "monkey-paw-brewing",
    "name": "Monkey Paw Brewing",
    "brewery_type": "micro",
    "street": "807 16th St",
    "city": "San Diego",
    "state": "California",
    "postal_code": "92101-6610",
    "website_url": "http://www.monkeypawbrewing.com",
    "phone": "6198672226",
    "created_at": "2018-07-24 01:32:58.401303",
    "updated_at": "2018-08-23 23:59:41.068795",
    "country": "United States",
    "longitude": "-117.149375",
    "latitude": "32.7138444137475",
    "tags": []
  },
  {
    "id": "oggis-pizza-and-brewing-co-mission-valley",
    "name": "Oggis Pizza & Brewing Co - Mission Valley",
    "brewery_type": "brewpub",
    "street": "2245 Fenton Pkwy Ste 108 Fenton Marketplace",
    "city": "San Diego",
    "state": "California",
    "postal_code": "92108-4737",
    "website_url": "http://www.oggis.com",
    "phone": "6196401072",
    "created_at": "2018-07-24 01:32:58.960822",
    "updated_at": "2018-08-11 21:36:14.954084",
    "country": "United States",
    "longitude": "",
    "latitude": "",
    "tags": []
  },
  {
    "id": "north-park-beer-co",
    "name": "North Park Beer Co.",
    "brewery_type": "micro",
    "street": "3038 University Ave",
    "city": "San Diego",
    "state": "California",
    "postal_code": "92104-3002",
    "website_url": "http://www.northparkbeerco.com",
    "phone": "6192552946",
    "created_at": "2018-07-24 01:32:58.766022",
    "updated_at": "2018-08-24 00:00:07.830095",
    "country": "United States",
    "longitude": "-117.129137",
    "latitude": "32.748724",
    "tags": []
  },
  {
    "id": "ocean-beach-brewery",
    "name": "Ocean Beach Brewery",
    "brewery_type": "brewpub",
    "street": "5041 Newport Ave",
    "city": "San Diego",
    "state": "California",
    "postal_code": "92107-3009",
    "website_url": "",
    "phone": "6199558053",
    "created_at": "2018-07-24 01:32:58.866955",
    "updated_at": "2018-08-24 00:00:14.413179",
    "country": "United States",
    "longitude": "-117.252024",
    "latitude": "32.747109",
    "tags": []
  },
  {
    "id": "oggis-pizza-and-brewing-co-carmel-mountain-ranch",
    "name": "Oggis Pizza & Brewing Co - Carmel Mountain Ranch",
    "brewery_type": "brewpub",
    "street": "10155 Rancho Carmel Dr",
    "city": "San Diego",
    "state": "California",
    "postal_code": "92128-3609",
    "website_url": "http://www.oggis.com",
    "phone": "8585927883",
    "created_at": "2018-07-24 01:32:58.948012",
    "updated_at": "2018-08-24 00:00:19.462481",
    "country": "United States",
    "longitude": "-117.089795",
    "latitude": "32.965495",
    "tags": []
  },
  {
    "id": "pacific-beach-ale-house",
    "name": "Pacific Beach Ale House",
    "brewery_type": "brewpub",
    "street": "721 Grand Ave",
    "city": "San Diego",
    "state": "California",
    "postal_code": "92109-3905",
    "website_url": "http://www.pbalehouse.com",
    "phone": "8585812337",
    "created_at": "2018-07-24 01:32:59.2161",
    "updated_at": "2018-08-24 00:00:37.852055",
    "country": "United States",
    "longitude": "-117.255265",
    "latitude": "32.794255",
    "tags": []
  },
  {
    "id": "pariah-brewing-company",
    "name": "Pariah Brewing Company",
    "brewery_type": "micro",
    "street": "3052 El Cajon Blvd Ste B",
    "city": "San Diego",
    "state": "California",
    "postal_code": "92104-1618",
    "website_url": "http://www.pariahbrewingco.com",
    "phone": "6196420545",
    "created_at": "2018-07-24 01:32:59.339597",
    "updated_at": "2018-08-11 21:36:15.971171",
    "country": "United States",
    "longitude": "",
    "latitude": "",
    "tags": []
  },
  {
    "id": "poor-house-brewing",
    "name": "Poor House Brewing",
    "brewery_type": "micro",
    "street": "4494 30th St",
    "city": "San Diego",
    "state": "California",
    "postal_code": "92116-4287",
    "website_url": "http://www.poorhousebrew.com",
    "phone": "8587699070",
    "created_at": "2018-07-24 01:32:59.625374",
    "updated_at": "2018-08-24 00:01:05.583999",
    "country": "United States",
    "longitude": "-117.130404",
    "latitude": "32.758977",
    "tags": []
  },
  {
    "id": "protector-brewery",
    "name": "Protector Brewery",
    "brewery_type": "micro",
    "street": "8680 Miralani Dr Ste 128",
    "city": "San Diego",
    "state": "California",
    "postal_code": "92126-6392",
    "website_url": "http://www.protectorbrewery.com",
    "phone": "8587579160",
    "created_at": "2018-07-24 01:32:59.728629",
    "updated_at": "2018-08-24 00:01:13.03186",
    "country": "United States",
    "longitude": "-117.137429",
    "latitude": "32.896584",
    "tags": []
  },
  {
    "id": "pure-project",
    "name": "Pure Project",
    "brewery_type": "micro",
    "street": "9030 Kenamar Dr Ste 308",
    "city": "San Diego",
    "state": "California",
    "postal_code": "92121-2432",
    "website_url": "http://www.purebrewing.org",
    "phone": "8582526143",
    "created_at": "2018-07-24 01:32:59.754317",
    "updated_at": "2018-08-24 00:01:14.951382",
    "country": "United States",
    "longitude": "-117.155535128534",
    "latitude": "32.8883015070801",
    "tags": []
  },
  {
    "id": "quantum-brewing-co",
    "name": "Quantum Brewing Co",
    "brewery_type": "micro",
    "street": "5375 Kearny Villa Rd Ste 116",
    "city": "San Diego",
    "state": "California",
    "postal_code": "92123-1422",
    "website_url": "http://www.quantumbrewingsd.com",
    "phone": "8582546481",
    "created_at": "2018-07-24 01:32:59.766785",
    "updated_at": "2018-08-24 00:01:16.088292",
    "country": "United States",
    "longitude": "-117.1170304",
    "latitude": "32.8901624",
    "tags": []
  },
  {
    "id": "resident-brewing",
    "name": "Resident Brewing",
    "brewery_type": "micro",
    "street": "411 C St",
    "city": "San Diego",
    "state": "California",
    "postal_code": "92101-5105",
    "website_url": "http://www.residentbrewing.com",
    "phone": "6197176622",
    "created_at": "2018-07-24 01:32:59.893146",
    "updated_at": "2018-08-24 00:01:25.652449",
    "country": "United States",
    "longitude": "-117.160878508811",
    "latitude": "32.7166799540699",
    "tags": []
  },
  {
    "id": "rough-draft-brewing",
    "name": "Rough Draft Brewing",
    "brewery_type": "micro",
    "street": "8830 Rehco Rd Ste D",
    "city": "San Diego",
    "state": "California",
    "postal_code": "92121-3263",
    "website_url": "http://www.roughdraftbrew.com",
    "phone": "8584537238",
    "created_at": "2018-07-24 01:33:00.210727",
    "updated_at": "2018-08-11 21:36:18.363744",
    "country": "United States",
    "longitude": "",
    "latitude": "",
    "tags": []
  },
  {
    "id": "san-diego-brewing-co",
    "name": "San Diego Brewing Co",
    "brewery_type": "brewpub",
    "street": "10450 Friars Rd Ste L",
    "city": "San Diego",
    "state": "California",
    "postal_code": "92120-2311",
    "website_url": "http://www.sandiegobrewing.com",
    "phone": "6192842739",
    "created_at": "2018-07-24 01:33:00.407748",
    "updated_at": "2018-08-11 21:36:19.069693",
    "country": "United States",
    "longitude": "",
    "latitude": "",
    "tags": []
  },
  {
    "id": "rip-current-brewing-north-park",
    "name": "Rip Current Brewing North Park",
    "brewery_type": "brewpub",
    "street": "4101 30th St",
    "city": "San Diego",
    "state": "California",
    "postal_code": "92104-1905",
    "website_url": "http://www.ripcurrentbrewing.com",
    "phone": "7604813141",
    "created_at": "2018-07-24 01:32:59.994378",
    "updated_at": "2018-08-24 00:01:33.173191",
    "country": "United States",
    "longitude": "-117.129808",
    "latitude": "32.752388",
    "tags": []
  },
  {
    "id": "second-chance-beer-company",
    "name": "Second Chance Beer Company",
    "brewery_type": "micro",
    "street": "15378 Ave of Science Ste 222",
    "city": "San Diego",
    "state": "California",
    "postal_code": "92128-3451",
    "website_url": "http://www.secondchancebeer.com",
    "phone": "8587056250",
    "created_at": "2018-07-24 01:33:00.658456",
    "updated_at": "2018-08-24 00:02:17.737317",
    "country": "United States",
    "longitude": "-117.082033",
    "latitude": "32.994888",
    "tags": []
  },
  {
    "id": "societe-brewing-company",
    "name": "Societe Brewing Company",
    "brewery_type": "micro",
    "street": "Societe Brewing Company 8262 Clairemont Mesa Blvd",
    "city": "San Diego",
    "state": "California",
    "postal_code": "92111-1702",
    "website_url": "",
    "phone": "7138161157",
    "created_at": "2018-07-24 01:33:00.984948",
    "updated_at": "2018-08-24 00:02:41.275864",
    "country": "United States",
    "longitude": "-117.1463568",
    "latitude": "32.8338146",
    "tags": []
  },
  {
    "id": "south-park-brewing",
    "name": "South Park Brewing",
    "brewery_type": "brewpub",
    "street": "1517 30th St",
    "city": "San Diego",
    "state": "California",
    "postal_code": "92102-1503",
    "website_url": "http://www.southparkbrewing.com",
    "phone": "6196109038",
    "created_at": "2018-07-24 01:33:01.150696",
    "updated_at": "2018-08-24 00:02:53.297503",
    "country": "United States",
    "longitude": "-117.130074",
    "latitude": "32.7470971",
    "tags": []
  },
  {
    "id": "stover-brewing",
    "name": "Stover Brewing",
    "brewery_type": "planning",
    "street": "",
    "city": "San Diego",
    "state": "California",
    "postal_code": "92124-1426",
    "website_url": "http://www.stoverbrewing.com",
    "phone": "6193634677",
    "created_at": "2018-07-24 01:33:01.509115",
    "updated_at": "2018-08-24 00:03:16.229976",
    "country": "United States",
    "longitude": "-117.1627714",
    "latitude": "32.7174209",
    "tags": []
  },
  {
    "id": "tenacious-brewing-company",
    "name": "Tenacious Brewing Company",
    "brewery_type": "planning",
    "street": "",
    "city": "San Diego",
    "state": "California",
    "postal_code": "92101",
    "website_url": "",
    "phone": "",
    "created_at": "2018-07-24 01:33:01.927501",
    "updated_at": "2018-08-24 00:03:45.154918",
    "country": "United States",
    "longitude": "-117.1627714",
    "latitude": "32.7174209",
    "tags": []
  },
  {
    "id": "the-bell-marker",
    "name": "The Bell Marker",
    "brewery_type": "brewpub",
    "street": "602 Broadway Ste 101",
    "city": "San Diego",
    "state": "California",
    "postal_code": "92101-5449",
    "website_url": "http://www.thebellmarker.com",
    "phone": "",
    "created_at": "2018-07-24 01:33:01.957263",
    "updated_at": "2018-08-24 00:03:47.376633",
    "country": "United States",
    "longitude": "-117.0763473",
    "latitude": "32.597261",
    "tags": []
  },
  {
    "id": "thorn-brewing-co",
    "name": "Thorn Brewing Co",
    "brewery_type": "micro",
    "street": "1745 National Ave.",
    "city": "San Diego",
    "state": "California",
    "postal_code": "92113-1010",
    "website_url": "",
    "phone": "",
    "created_at": "2018-07-24 01:33:02.214651",
    "updated_at": "2018-08-24 00:04:02.712767",
    "country": "United States",
    "longitude": "-117.147735",
    "latitude": "32.702171",
    "tags": []
  },
  {
    "id": "thorn-street-brewery",
    "name": "Thorn Street Brewery",
    "brewery_type": "micro",
    "street": "3174 Thorn St",
    "city": "San Diego",
    "state": "California",
    "postal_code": "92104-4636",
    "website_url": "http://www.thornstreetbrew.com",
    "phone": "6195012739",
    "created_at": "2018-07-24 01:33:02.22693",
    "updated_at": "2018-08-24 00:04:03.940007",
    "country": "United States",
    "longitude": "-117.125379",
    "latitude": "32.739337",
    "tags": []
  },
  {
    "id": "white-labs-tasting-room",
    "name": "White Labs Tasting Room",
    "brewery_type": "micro",
    "street": "9495 Candida St",
    "city": "San Diego",
    "state": "California",
    "postal_code": "92126-4541",
    "website_url": "http://www.whitelabs.com",
    "phone": "8586933441",
    "created_at": "2018-07-24 01:33:02.89803",
    "updated_at": "2018-08-24 00:04:52.15231",
    "country": "United States",
    "longitude": "-117.121435",
    "latitude": "32.895843",
    "tags": []
  },
  {
    "id": "benchmark-brewing-co",
    "name": "Benchmark Brewing Co",
    "brewery_type": "micro",
    "street": "6190 Fairmount Ave Ste G",
    "city": "San Diego",
    "state": "California",
    "postal_code": "92120-3428",
    "website_url": "http://www.benchmarkbrewing.com",
    "phone": "6197952911",
    "created_at": "2018-07-24 01:32:52.420279",
    "updated_at": "2018-08-11 21:35:56.157801",
    "country": "United States",
    "longitude": "",
    "latitude": "",
    "tags": []
  },
  {
    "id": "alpine-beer-company",
    "name": "Alpine Beer Company",
    "brewery_type": "brewpub",
    "street": "6550 Mira Mesa Blvd",
    "city": "San Diego",
    "state": "California",
    "postal_code": "92121-4100",
    "website_url": "http://www.alpinebrewing.com",
    "phone": "6194452337",
    "created_at": "2018-07-24 01:32:51.541324",
    "updated_at": "2018-08-23 23:24:15.13568",
    "country": "United States",
    "longitude": "-117.113975",
    "latitude": "32.9167796",
    "tags": []
  },
  {
    "id": "automatic-brewing-co-/-blind-lady-alehouse",
    "name": "Automatic Brewing Co. / Blind Lady Alehouse",
    "brewery_type": "brewpub",
    "street": "3416 Adams Ave",
    "city": "San Diego",
    "state": "California",
    "postal_code": "92116-2428",
    "website_url": "http://www.blindlady.blogspot.com",
    "phone": "6192007522",
    "created_at": "2018-07-24 01:32:51.931399",
    "updated_at": "2018-08-23 23:24:42.847925",
    "country": "United States",
    "longitude": "-117.120151",
    "latitude": "32.763588",
    "tags": []
  },
  {
    "id": "bay-city-brewing-co",
    "name": "Bay City Brewing Co.",
    "brewery_type": "micro",
    "street": "3760 Hancock St",
    "city": "San Diego",
    "state": "California",
    "postal_code": "92110",
    "website_url": "http://www.baycitybrewingco.com",
    "phone": "6197274926",
    "created_at": "2018-07-24 01:32:52.250753",
    "updated_at": "2018-08-23 23:25:03.199959",
    "country": "United States",
    "longitude": "-117.211783346257",
    "latitude": "32.7580759",
    "tags": []
  },
  {
    "id": "border-x-brewing",
    "name": "Border X Brewing",
    "brewery_type": "micro",
    "street": "2181 Logan Ave",
    "city": "San Diego",
    "state": "California",
    "postal_code": "92113-2203",
    "website_url": "http://www.borderxbrewing.com",
    "phone": "6195010503",
    "created_at": "2018-07-24 01:32:52.859043",
    "updated_at": "2018-08-23 23:25:48.401669",
    "country": "United States",
    "longitude": "-117.139754116945",
    "latitude": "32.6982174013939",
    "tags": []
  },
  {
    "id": "savagewood-brewing-company",
    "name": "Savagewood Brewing Company",
    "brewery_type": "micro",
    "street": "9879 Hibert St Ste F",
    "city": "San Diego",
    "state": "California",
    "postal_code": "92131-1058",
    "website_url": "http://www.savagewoodbrewing.com",
    "phone": "8585770350",
    "created_at": "2018-07-24 01:33:00.598235",
    "updated_at": "2018-08-11 21:36:19.822618",
    "country": "United States",
    "longitude": "",
    "latitude": "",
    "tags": []
  },
  {
    "id": "pizza-port-ocean-beach",
    "name": "Pizza Port Ocean Beach",
    "brewery_type": "brewpub",
    "street": "1956 Bacon St",
    "city": "San Diego",
    "state": "California",
    "postal_code": "92107-2844",
    "website_url": "http://www.pizzaport.com",
    "phone": "6192244700",
    "created_at": "2018-07-24 01:32:59.522539",
    "updated_at": "2018-08-24 00:00:57.526964",
    "country": "United States",
    "longitude": "-117.250359241478",
    "latitude": "32.74799385",
    "tags": []
  },
  {
    "id": "saint-archer-brewing-company",
    "name": "Saint Archer Brewing Company",
    "brewery_type": "large",
    "street": "9550 Distribution Ave",
    "city": "San Diego",
    "state": "California",
    "postal_code": "92121-2306",
    "website_url": "http://www.saintarcherbrewery.com",
    "phone": "8582252337",
    "created_at": "2018-07-24 01:33:00.394523",
    "updated_at": "2018-08-24 00:01:56.664416",
    "country": "United States",
    "longitude": "-117.163745",
    "latitude": "32.880445",
    "tags": []
  }
]