[
  {
    "id": "artifex-brewing-company",
    "name": "Artifex Brewing Company",
    "brewery_type": "micro",
    "street": "919 Calle Amanecer Ste A",
    "city": "San Clemente",
    "state": "California",
    "postal_code": "92673-6298",
    "website_url": "http://www.artifexbrewing.com",
    "phone": "9494297805",
    "created_at": "2018-07-24 01:32:51.86317",
    "updated_at": "2018-08-11 21:35:54.89943",
    "country": "United States",
    "longitude": "",
    "latitude": "",
    "tags": []
  },
  {
    "id": "lost-winds-brewing-company",
    "name": "Lost Winds Brewing Company",
    "brewery_type": "micro",
    "street": "924 Calle Negocio Ste C",
    "city": "San Clemente",
    "state": "California",
    "postal_code": "92673-6208",
    "website_url": "http://www.lostwindsbrewing.com",
    "phone": "9492444288",
    "created_at": "2018-07-24 01:32:57.962304",
    "updated_at": "2018-08-11 21:36:12.335524",
    "country": "United States",
    "longitude": "",
    "latitude": "",
    "tags": []
  },
  {
    "id": "left-coast-brewing-co",
    "name": "Left Coast Brewing Co.",
    "brewery_type": "micro",
    "street": "1245 Puerta del Sol",
    "city": "San Clemente",
    "state": "California",
    "postal_code": "92673-6310",
    "website_url": "http://www.leftcoastbrewing.com",
    "phone": "9493619972",
    "created_at": "2018-07-24 01:32:57.69448",
    "updated_at": "2018-08-23 23:58:53.679931",
    "country": "United States",
    "longitude": "-117.5922336",
    "latitude": "33.4587307",
    "tags": []
  },
  {
    "id": "pizza-port-san-clemente",
    "name": "Pizza Port San Clemente",
    "brewery_type": "brewpub",
    "street": "301 N El Camino Real",
    "city": "San Clemente",
    "state": "California",
    "postal_code": "92672-4716",
    "website_url": "http://www.pizzaport.com",
    "phone": "9499400005",
    "created_at": "2018-07-24 01:32:59.535426",
    "updated_at": "2018-08-24 00:00:58.800793",
    "country": "United States",
    "longitude": "-117.613484038369",
    "latitude": "33.4288345",
    "tags": []
  }
]