[
  {
    "id": "7-sisters-brewing-co",
    "name": "7 Sisters Brewing Co",
    "brewery_type": "brewpub",
    "street": "181 Tank Farm Rd Ste 110",
    "city": "San Luis Obispo",
    "state": "California",
    "postal_code": "93401-7082",
    "website_url": "http://www.7sistersbrewing.com",
    "phone": "8058687133",
    "created_at": "2018-07-24 01:32:51.264451",
    "updated_at": "2018-08-23 23:23:55.334253",
    "country": "United States",
    "longitude": "-120.670637530612",
    "latitude": "35.2467277959184",
    "tags": []
  },
  {
    "id": "libertine-brewing-company",
    "name": "Libertine Brewing Company",
    "brewery_type": "brewpub",
    "street": "1234 Broad St",
    "city": "San Luis Obispo",
    "state": "California",
    "postal_code": "93401-3908",
    "website_url": "http://www.libertinebrewing.com",
    "phone": "8057720700",
    "created_at": "2018-07-24 01:32:57.770313",
    "updated_at": "2018-08-23 23:58:59.770466",
    "country": "United States",
    "longitude": "-120.6631926",
    "latitude": "35.2777052",
    "tags": []
  },
  {
    "id": "underground-brewing-co",
    "name": "Underground Brewing Co.",
    "brewery_type": "brewpub",
    "street": "3940 Broad St # 7415",
    "city": "San Luis Obispo",
    "state": "California",
    "postal_code": "93401-7017",
    "website_url": "",
    "phone": "",
    "created_at": "2018-07-24 01:33:02.70384",
    "updated_at": "2018-08-24 00:04:37.2764",
    "country": "United States",
    "longitude": "-120.6420324",
    "latitude": "35.2493387",
    "tags": []
  },
  {
    "id": "bang-the-drum-brewery",
    "name": "Bang the Drum Brewery",
    "brewery_type": "micro",
    "street": "950 Orcutt Rd",
    "city": "San Luis Obispo",
    "state": "California",
    "postal_code": "93401-6740",
    "website_url": "http://www.bangthedrumbrewery.com",
    "phone": "8587762973",
    "created_at": "2018-07-24 01:32:52.098547",
    "updated_at": "2018-08-23 23:24:52.341652",
    "country": "United States",
    "longitude": "-120.645233810861",
    "latitude": "35.2615498",
    "tags": []
  },
  {
    "id": "central-coast-brewing-co-monterey-st",
    "name": "Central Coast Brewing Co - Monterey St.",
    "brewery_type": "micro",
    "street": "1422 Monterey St Ste B100",
    "city": "San Luis Obispo",
    "state": "California",
    "postal_code": "93401-2900",
    "website_url": "http://www.centralcoastbrewing.com",
    "phone": "8057832739",
    "created_at": "2018-07-24 01:32:53.701966",
    "updated_at": "2018-08-11 21:35:59.188514",
    "country": "United States",
    "longitude": "",
    "latitude": "",
    "tags": []
  },
  {
    "id": "central-coast-brewing-co-higuera-st",
    "name": "Central Coast Brewing Co - Higuera St.",
    "brewery_type": "brewpub",
    "street": "6 Higuera St.",
    "city": "San Luis Obispo",
    "state": "California",
    "postal_code": "93401",
    "website_url": "",
    "phone": "8057832739",
    "created_at": "2018-07-24 01:32:53.6901",
    "updated_at": "2018-08-23 23:26:35.71484",
    "country": "United States",
    "longitude": "-120.67099075",
    "latitude": "35.2651725",
    "tags": []
  },
  {
    "id": "slo-brewing-co-the-rock",
    "name": "SLO Brewing Co - The Rock",
    "brewery_type": "brewpub",
    "street": "855 Aerovista Pl",
    "city": "San Luis Obispo",
    "state": "California",
    "postal_code": "93401-8056",
    "website_url": "",
    "phone": "8057062915",
    "created_at": "2018-07-24 01:33:00.896722",
    "updated_at": "2018-08-11 21:36:21.082953",
    "country": "United States",
    "longitude": "",
    "latitude": "",
    "tags": []
  },
  {
    "id": "slo-brewing-co",
    "name": "SLO Brewing Co",
    "brewery_type": "micro",
    "street": "736 Higuera St",
    "city": "San Luis Obispo",
    "state": "California",
    "postal_code": "93401-3513",
    "website_url": "http://www.slobrew.com",
    "phone": "8054595604",
    "created_at": "2018-07-24 01:33:00.884946",
    "updated_at": "2018-08-24 00:02:34.371405",
    "country": "United States",
    "longitude": "-120.6640407",
    "latitude": "35.2793012",
    "tags": []
  },
  {
    "id": "tap-it-brewing-co",
    "name": "Tap It Brewing Co",
    "brewery_type": "micro",
    "street": "675 Clarion Ct Ste 1",
    "city": "San Luis Obispo",
    "state": "California",
    "postal_code": "93401-8178",
    "website_url": "http://www.tapitbrewing.com",
    "phone": "8055457702",
    "created_at": "2018-07-24 01:33:01.763535",
    "updated_at": "2018-08-11 21:36:23.824142",
    "country": "United States",
    "longitude": "",
    "latitude": "",
    "tags": []
  },
  {
    "id": "there-does-not-exist",
    "name": "There Does Not Exist",
    "brewery_type": "planning",
    "street": "",
    "city": "San Luis Obispo",
    "state": "California",
    "postal_code": "93401",
    "website_url": "http://www.theredoesnotexist.com",
    "phone": "",
    "created_at": "2018-07-24 01:33:02.155737",
    "updated_at": "2018-08-24 00:03:58.056161",
    "country": "United States",
    "longitude": "-120.6596156",
    "latitude": "35.2827525",
    "tags": []
  }
]