[
  {
    "id": "camino-brewing-co-llc",
    "name": "Camino Brewing Co LLC",
    "brewery_type": "micro",
    "street": "718 S 1st St",
    "city": "San Jose",
    "state": "California",
    "postal_code": "95113",
    "website_url": "http://www.caminobrewing.com",
    "phone": "",
    "created_at": "2018-07-24 01:32:53.511264",
    "updated_at": "2018-08-23 23:26:25.248578",
    "country": "United States",
    "longitude": "-121.882347823612",
    "latitude": "37.3253017839889",
    "tags": []
  },
  {
    "id": "geartooth-alewerks",
    "name": "Geartooth AleWerks",
    "brewery_type": "micro",
    "street": "1635 S 7th St",
    "city": "San Jose",
    "state": "California",
    "postal_code": "95112-5932",
    "website_url": "http://www.geartoothalewerks.com",
    "phone": "4084832679",
    "created_at": "2018-07-24 01:32:55.783502",
    "updated_at": "2018-08-23 23:28:45.233884",
    "country": "United States",
    "longitude": "-121.866477333785",
    "latitude": "37.315251291037",
    "tags": []
  },
  {
    "id": "hermitage-brewing-company",
    "name": "Hermitage Brewing Company",
    "brewery_type": "regional",
    "street": "1627 S 7th St",
    "city": "San Jose",
    "state": "California",
    "postal_code": "95112-5932",
    "website_url": "http://www.hermitagebrewing.com",
    "phone": "4082910966",
    "created_at": "2018-07-24 01:32:56.418501",
    "updated_at": "2018-08-23 23:29:21.773265",
    "country": "United States",
    "longitude": "-121.866525688348",
    "latitude": "37.3153140881948",
    "tags": []
  },
  {
    "id": "ale-house-brewing-co",
    "name": "Ale House Brewing Co",
    "brewery_type": "micro",
    "street": "",
    "city": "San Jose",
    "state": "California",
    "postal_code": "95118-1605",
    "website_url": "",
    "phone": "4083907574",
    "created_at": "2018-07-24 01:32:51.425108",
    "updated_at": "2018-08-23 23:24:07.379317",
    "country": "United States",
    "longitude": "-121.8905833",
    "latitude": "37.3361905",
    "tags": []
  },
  {
    "id": "bison-brewing-co",
    "name": "Bison Brewing Co",
    "brewery_type": "contract",
    "street": "1627 S 7th St",
    "city": "San Jose",
    "state": "California",
    "postal_code": "95112-5932",
    "website_url": "http://bisonbrew.com",
    "phone": "5108125996",
    "created_at": "2018-07-24 01:32:52.547679",
    "updated_at": "2018-08-23 23:25:25.802017",
    "country": "United States",
    "longitude": "-121.866525688348",
    "latitude": "37.3153140881948",
    "tags": []
  },
  {
    "id": "brewtality",
    "name": "Brewtality",
    "brewery_type": "contract",
    "street": "930 McLaughlin Ave",
    "city": "San Jose",
    "state": "California",
    "postal_code": "95122-2611",
    "website_url": "http://www.brewtality.com",
    "phone": "3104023349",
    "created_at": "2018-07-24 01:32:53.320235",
    "updated_at": "2018-08-23 23:26:12.593019",
    "country": "United States",
    "longitude": "-121.8541694",
    "latitude": "37.3331712",
    "tags": []
  },
  {
    "id": "clandestine-brewing",
    "name": "Clandestine Brewing",
    "brewery_type": "micro",
    "street": "980 S 1st Ste B",
    "city": "San Jose",
    "state": "California",
    "postal_code": "95110-3127",
    "website_url": "http://www.clandestinebrewing.com",
    "phone": "",
    "created_at": "2018-07-24 01:32:53.859247",
    "updated_at": "2018-08-11 21:35:59.529449",
    "country": "United States",
    "longitude": "",
    "latitude": "",
    "tags": []
  },
  {
    "id": "gordon-biersch-brewing-co",
    "name": "Gordon Biersch Brewing Co",
    "brewery_type": "regional",
    "street": "357 E Taylor St",
    "city": "San Jose",
    "state": "California",
    "postal_code": "95112-3105",
    "website_url": "http://www.gordonbiersch.com",
    "phone": "4082781008",
    "created_at": "2018-07-24 01:32:55.946161",
    "updated_at": "2018-08-23 23:28:56.213037",
    "country": "United States",
    "longitude": "-121.8841169",
    "latitude": "37.3567304",
    "tags": []
  },
  {
    "id": "hapas-brewing-company",
    "name": "Hapa's Brewing Company",
    "brewery_type": "micro",
    "street": "460 Lincoln Ave # 90",
    "city": "San Jose",
    "state": "California",
    "postal_code": "95126-3702",
    "website_url": "http://hapasbrewing.com/",
    "phone": "4089823299",
    "created_at": "2018-07-24 01:32:56.240111",
    "updated_at": "2018-08-23 23:29:11.473965",
    "country": "United States",
    "longitude": "-121.888991",
    "latitude": "37.2917841",
    "tags": []
  },
  {
    "id": "moksha-beer",
    "name": "Moksha Beer",
    "brewery_type": "contract",
    "street": "",
    "city": "San Jose",
    "state": "California",
    "postal_code": "95154-0279",
    "website_url": "http://www.mokshabeer.com",
    "phone": "4157295796",
    "created_at": "2018-07-24 01:32:58.38987",
    "updated_at": "2018-08-23 23:59:40.005353",
    "country": "United States",
    "longitude": "-121.8905833",
    "latitude": "37.3361905",
    "tags": []
  },
  {
    "id": "santa-clara-valley-brewing",
    "name": "Santa Clara Valley Brewing",
    "brewery_type": "micro",
    "street": "101 E Alma Ave",
    "city": "San Jose",
    "state": "California",
    "postal_code": "95112-5944",
    "website_url": "http://www.scvbrewing.com",
    "phone": "4082885181",
    "created_at": "2018-07-24 01:33:00.508184",
    "updated_at": "2018-08-24 00:02:06.427227",
    "country": "United States",
    "longitude": "-121.873871843909",
    "latitude": "37.3163530780456",
    "tags": []
  },
  {
    "id": "south-bay-brewco",
    "name": "South Bay Brewco",
    "brewery_type": "contract",
    "street": "930 McLaughlin Ave",
    "city": "San Jose",
    "state": "California",
    "postal_code": "95122-2611",
    "website_url": "",
    "phone": "4082193696",
    "created_at": "2018-07-24 01:33:01.109429",
    "updated_at": "2018-08-24 00:02:50.318164",
    "country": "United States",
    "longitude": "-121.8541694",
    "latitude": "37.3331712",
    "tags": []
  },
  {
    "id": "strike-brewing-co",
    "name": "Strike Brewing Co",
    "brewery_type": "micro",
    "street": "2099 S 10th St Unit 30",
    "city": "San Jose",
    "state": "California",
    "postal_code": "95112-4116",
    "website_url": "http://www.strikebrewingco.com",
    "phone": "6507146983",
    "created_at": "2018-07-24 01:33:01.533537",
    "updated_at": "2018-08-11 21:36:23.237783",
    "country": "United States",
    "longitude": "",
    "latitude": "",
    "tags": []
  },
  {
    "id": "uproar-brewing",
    "name": "Uproar Brewing",
    "brewery_type": "brewpub",
    "street": "439 S 1st St",
    "city": "San Jose",
    "state": "California",
    "postal_code": "95113-2816",
    "website_url": "http://www.uproarbrewing.com",
    "phone": "4086732266",
    "created_at": "2018-07-24 01:33:02.740702",
    "updated_at": "2018-08-24 00:04:40.236412",
    "country": "United States",
    "longitude": "-121.885637335649",
    "latitude": "37.329391892769",
    "tags": []
  },
  {
    "id": "whole-foods-market-brewing-company-floodcraft-brewing",
    "name": "Whole Foods Market Brewing Company- Floodcraft Brewing",
    "brewery_type": "brewpub",
    "street": "777 The Alameda",
    "city": "San Jose",
    "state": "California",
    "postal_code": "95126-3155",
    "website_url": "http://floodcraftbrewing.com/",
    "phone": "4082071126",
    "created_at": "2018-07-24 01:33:02.909887",
    "updated_at": "2018-08-24 00:04:53.123711",
    "country": "United States",
    "longitude": "-121.9087451",
    "latitude": "37.3315931",
    "tags": []
  }
]