[
  {
    "id": "black-hammer-brewing",
    "name": "Black Hammer Brewing",
    "brewery_type": "micro",
    "street": "544 Bryant St",
    "city": "San Francisco",
    "state": "California",
    "postal_code": "94107-1217",
    "website_url": "http://www.blackhammerbrewing.com",
    "phone": "4155002273",
    "created_at": "2018-07-24 01:32:52.642539",
    "updated_at": "2018-08-23 23:25:33.033828",
    "country": "United States",
    "longitude": "-122.3969947",
    "latitude": "37.780655",
    "tags": []
  },
  {
    "id": "fort-point-beer-company",
    "name": "Fort Point Beer Company",
    "brewery_type": "regional",
    "street": "644 Mason St",
    "city": "San Francisco",
    "state": "California",
    "postal_code": "94129-1600",
    "website_url": "http://www.fortpointbeer.com",
    "phone": "4159064021",
    "created_at": "2018-07-24 01:32:55.631368",
    "updated_at": "2018-08-23 23:28:36.026161",
    "country": "United States",
    "longitude": "-122.410227755102",
    "latitude": "37.789461244898",
    "tags": []
  },
  {
    "id": "magnolia-dogpatch",
    "name": "Magnolia Dogpatch",
    "brewery_type": "micro",
    "street": "2505 3rd St",
    "city": "San Francisco",
    "state": "California",
    "postal_code": "94107-3112",
    "website_url": "http://www.magnoliasmokestack.com",
    "phone": "4158647468",
    "created_at": "2018-07-24 01:32:58.117357",
    "updated_at": "2018-08-23 23:59:22.42657",
    "country": "United States",
    "longitude": "-122.3880818",
    "latitude": "37.7577437",
    "tags": []
  },
  {
    "id": "sufferfest-beer-company",
    "name": "Sufferfest Beer Company",
    "brewery_type": "proprietor",
    "street": "1770 UNION STREET",
    "city": "San Francisco",
    "state": "California",
    "postal_code": "94123-3404",
    "website_url": "http://www.sufferfestbeer.com",
    "phone": "4152386431",
    "created_at": "2018-07-24 01:33:01.593765",
    "updated_at": "2018-08-24 00:03:23.447609",
    "country": "United States",
    "longitude": "-122.428394714286",
    "latitude": "37.7980748571429",
    "tags": []
  },
  {
    "id": "woods-cervecera­a",
    "name": "Woods CervecerÃ­a",
    "brewery_type": "brewpub",
    "street": "3801 18th St",
    "city": "San Francisco",
    "state": "California",
    "postal_code": "94114-2615",
    "website_url": "http://www.cerveceriasf.com",
    "phone": "4152739295",
    "created_at": "2018-07-24 01:33:03.054882",
    "updated_at": "2018-08-24 00:05:03.005068",
    "country": "United States",
    "longitude": "-122.4285438",
    "latitude": "37.761163",
    "tags": []
  },
  {
    "id": "beach-chalet-brewing-co",
    "name": "Beach Chalet Brewing Co",
    "brewery_type": "brewpub",
    "street": "1000 Great Hwy",
    "city": "San Francisco",
    "state": "California",
    "postal_code": "94121-3268",
    "website_url": "http://www.beachchalet.com",
    "phone": "4153868439",
    "created_at": "2018-07-24 01:32:52.263172",
    "updated_at": "2018-08-23 23:25:04.285888",
    "country": "United States",
    "longitude": "-122.502981",
    "latitude": "37.7252994",
    "tags": []
  },
  {
    "id": "21st-amendment-brewery-cafe",
    "name": "21st Amendment Brewery Cafe",
    "brewery_type": "brewpub",
    "street": "563 2nd St",
    "city": "San Francisco",
    "state": "California",
    "postal_code": "94107-1411",
    "website_url": "http://www.21st-amendment.com",
    "phone": "4153690900",
    "created_at": "2018-07-24 01:32:51.11186",
    "updated_at": "2018-08-23 23:23:46.486268",
    "country": "United States",
    "longitude": "-122.3925769",
    "latitude": "37.782448",
    "tags": []
  },
  {
    "id": "anchor-brewing-co",
    "name": "Anchor Brewing Co",
    "brewery_type": "large",
    "street": "1705 Mariposa St",
    "city": "San Francisco",
    "state": "California",
    "postal_code": "94107-2334",
    "website_url": "http://www.anchorbrewing.com",
    "phone": "4158638350",
    "created_at": "2018-07-24 01:32:51.690011",
    "updated_at": "2018-08-23 23:24:25.576056",
    "country": "United States",
    "longitude": "-122.4011065",
    "latitude": "37.7630772",
    "tags": []
  },
  {
    "id": "barebottle-brewing-company",
    "name": "Barebottle Brewing Company",
    "brewery_type": "micro",
    "street": "1525 Cortland Ave",
    "city": "San Francisco",
    "state": "California",
    "postal_code": "94110-5714",
    "website_url": "http://www.barebottlebeer.com",
    "phone": "4159268617",
    "created_at": "2018-07-24 01:32:52.110159",
    "updated_at": "2018-08-23 23:24:53.170498",
    "country": "United States",
    "longitude": "-122.40904048683",
    "latitude": "37.74000915",
    "tags": []
  },
  {
    "id": "barrel-head-brewhouse",
    "name": "Barrel Head Brewhouse",
    "brewery_type": "brewpub",
    "street": "1785 Fulton St",
    "city": "San Francisco",
    "state": "California",
    "postal_code": "94117-1202",
    "website_url": "http://www.barrelheadsf.com",
    "phone": "4154166989",
    "created_at": "2018-07-24 01:32:52.187713",
    "updated_at": "2018-08-23 23:24:58.559975",
    "country": "United States",
    "longitude": "-122.446103285714",
    "latitude": "37.7757651428571",
    "tags": []
  },
  {
    "id": "bartlett-hall",
    "name": "Bartlett Hall",
    "brewery_type": "brewpub",
    "street": "242 Ofarrell St",
    "city": "San Francisco",
    "state": "California",
    "postal_code": "94102-2119",
    "website_url": "http://www.bartletthall.com",
    "phone": "4154334332",
    "created_at": "2018-07-24 01:32:52.21298",
    "updated_at": "2018-08-23 23:25:00.369477",
    "country": "United States",
    "longitude": "-122.40872925",
    "latitude": "37.786406375",
    "tags": []
  },
  {
    "id": "black-sands-brewery",
    "name": "Black Sands Brewery",
    "brewery_type": "micro",
    "street": "701 Haight St",
    "city": "San Francisco",
    "state": "California",
    "postal_code": "94117-3316",
    "website_url": "",
    "phone": "4155345194",
    "created_at": "2018-07-24 01:32:52.693078",
    "updated_at": "2018-08-23 23:25:36.178419",
    "country": "United States",
    "longitude": "-122.433863",
    "latitude": "37.7715719",
    "tags": []
  },
  {
    "id": "brewery-in-planning-calistoga",
    "name": "Brewery in Planning - Calistoga",
    "brewery_type": "planning",
    "street": "",
    "city": "San Francisco",
    "state": "California",
    "postal_code": "94117-1576",
    "website_url": "",
    "phone": "",
    "created_at": "2018-07-24 01:32:53.033968",
    "updated_at": "2018-08-23 23:26:00.691832",
    "country": "United States",
    "longitude": "-122.4192363",
    "latitude": "37.7792808",
    "tags": []
  },
  {
    "id": "cellarmaker-brewing-company",
    "name": "Cellarmaker Brewing Company",
    "brewery_type": "micro",
    "street": "1150 Howard St",
    "city": "San Francisco",
    "state": "California",
    "postal_code": "94103-3914",
    "website_url": "http://www.cellarmakerbrewing.com",
    "phone": "4158633940",
    "created_at": "2018-07-24 01:32:53.677732",
    "updated_at": "2018-08-23 23:26:34.82229",
    "country": "United States",
    "longitude": "-122.4106996",
    "latitude": "37.7771589",
    "tags": []
  },
  {
    "id": "fermentdrinkrepeat",
    "name": "Ferment.Drink.Repeat",
    "brewery_type": "micro",
    "street": "2636 San Bruno Ave",
    "city": "San Francisco",
    "state": "California",
    "postal_code": "94134-1507",
    "website_url": "",
    "phone": "",
    "created_at": "2018-07-24 01:32:55.358167",
    "updated_at": "2018-08-23 23:28:18.211067",
    "country": "United States",
    "longitude": "-122.403999122449",
    "latitude": "37.7283367755102",
    "tags": []
  },
  {
    "id": "hardwood-bar-and-smokery",
    "name": "Hardwood Bar and Smokery",
    "brewery_type": "brewpub",
    "street": "680 8th St Ste 170",
    "city": "San Francisco",
    "state": "California",
    "postal_code": "94103",
    "website_url": "http://www.hardwoodsf.com",
    "phone": "4157962437",
    "created_at": "2018-07-24 01:32:56.254201",
    "updated_at": "2018-08-11 21:36:05.741182",
    "country": "United States",
    "longitude": "",
    "latitude": "",
    "tags": []
  },
  {
    "id": "harmonic-brewing",
    "name": "Harmonic Brewing",
    "brewery_type": "micro",
    "street": "1050 26th St",
    "city": "San Francisco",
    "state": "California",
    "postal_code": "94107-3513",
    "website_url": "http://www.harmonicbrewing.com",
    "phone": "4158726817",
    "created_at": "2018-07-24 01:32:56.283809",
    "updated_at": "2018-08-23 23:29:14.130351",
    "country": "United States",
    "longitude": "-122.390096163265",
    "latitude": "37.7514996122449",
    "tags": []
  },
  {
    "id": "k-oz-restaurant-brewery",
    "name": "K-Oz Restaurant Brewery",
    "brewery_type": "brewpub",
    "street": "121 7th St",
    "city": "San Francisco",
    "state": "California",
    "postal_code": "94103-2835",
    "website_url": "http://www.kandoz.com",
    "phone": "4158729431",
    "created_at": "2018-07-24 01:32:57.463119",
    "updated_at": "2018-08-23 23:58:37.20088",
    "country": "United States",
    "longitude": "-122.409904",
    "latitude": "37.7786408",
    "tags": []
  },
  {
    "id": "laughing-monk-brewing",
    "name": "Laughing Monk Brewing",
    "brewery_type": "micro",
    "street": "1439 Egbert Ave Unit A",
    "city": "San Francisco",
    "state": "California",
    "postal_code": "94124-3221",
    "website_url": "http://www.laughingmonkbrewing.com",
    "phone": "4158905970",
    "created_at": "2018-07-24 01:32:57.654483",
    "updated_at": "2018-08-11 21:36:11.499297",
    "country": "United States",
    "longitude": "",
    "latitude": "",
    "tags": []
  },
  {
    "id": "local-brewing-co",
    "name": "Local Brewing Co",
    "brewery_type": "micro",
    "street": "69 Bluxome St",
    "city": "San Francisco",
    "state": "California",
    "postal_code": "94107-1605",
    "website_url": "http://www.localbrewingco.com",
    "phone": "",
    "created_at": "2018-07-24 01:32:57.818643",
    "updated_at": "2018-08-23 23:59:03.024556",
    "country": "United States",
    "longitude": "-122.3973825",
    "latitude": "37.776173",
    "tags": []
  },
  {
    "id": "magnolia-brewing-company",
    "name": "Magnolia Brewing Company",
    "brewery_type": "brewpub",
    "street": "1398 Haight St",
    "city": "San Francisco",
    "state": "California",
    "postal_code": "94117-2909",
    "website_url": "",
    "phone": "",
    "created_at": "2018-07-24 01:32:58.104139",
    "updated_at": "2018-08-23 23:59:21.423153",
    "country": "United States",
    "longitude": "-122.4452044",
    "latitude": "37.7703537",
    "tags": []
  },
  {
    "id": "motobrewer",
    "name": "Motobrewer",
    "brewery_type": "planning",
    "street": "",
    "city": "San Francisco",
    "state": "California",
    "postal_code": "94112-1330",
    "website_url": "http://www.motobrewer.com",
    "phone": "",
    "created_at": "2018-07-24 01:32:58.506319",
    "updated_at": "2018-08-23 23:59:48.94248",
    "country": "United States",
    "longitude": "-122.4192363",
    "latitude": "37.7792808",
    "tags": []
  },
  {
    "id": "oda-restaurant",
    "name": "Oda Restaurant",
    "brewery_type": "brewpub",
    "street": "1500 Owens St",
    "city": "San Francisco",
    "state": "California",
    "postal_code": "94158-2334",
    "website_url": "http://www.barodasf.com",
    "phone": "4155589450",
    "created_at": "2018-07-24 01:32:58.907224",
    "updated_at": "2018-08-24 00:00:16.620729",
    "country": "United States",
    "longitude": "-122.3954096",
    "latitude": "37.7687392",
    "tags": []
  },
  {
    "id": "old-bus-tavern",
    "name": "Old Bus Tavern",
    "brewery_type": "brewpub",
    "street": "3193 Mission St",
    "city": "San Francisco",
    "state": "California",
    "postal_code": "94110-4515",
    "website_url": "http://www.oldbustavern.com",
    "phone": "4158431938",
    "created_at": "2018-07-24 01:32:59.044727",
    "updated_at": "2018-08-24 00:00:26.590555",
    "country": "United States",
    "longitude": "-122.419510285653",
    "latitude": "37.745701",
    "tags": []
  },
  {
    "id": "palmia",
    "name": "Palmia",
    "brewery_type": "proprietor",
    "street": "3749 Divisadero St",
    "city": "San Francisco",
    "state": "California",
    "postal_code": "94123-1010",
    "website_url": "http://www.palmiabeer.com",
    "phone": "4153853100",
    "created_at": "2018-07-24 01:32:59.280244",
    "updated_at": "2018-08-24 00:00:42.421928",
    "country": "United States",
    "longitude": "-122.4438993",
    "latitude": "37.804342",
    "tags": []
  },
  {
    "id": "pine-street-brewery",
    "name": "Pine Street Brewery",
    "brewery_type": "micro",
    "street": "",
    "city": "San Francisco",
    "state": "California",
    "postal_code": "94109-4929",
    "website_url": "http://www.pinestreetbrewery.com",
    "phone": "4157444062",
    "created_at": "2018-07-24 01:32:59.453668",
    "updated_at": "2018-08-24 00:00:53.850367",
    "country": "United States",
    "longitude": "-122.4192363",
    "latitude": "37.7792808",
    "tags": []
  },
  {
    "id": "san-francisco-brewing-co",
    "name": "San Francisco Brewing Co",
    "brewery_type": "proprietor",
    "street": "900 N Point St West Plaza",
    "city": "San Francisco",
    "state": "California",
    "postal_code": "94109",
    "website_url": "http://www.sfbrewingco.com",
    "phone": "4154842337",
    "created_at": "2018-07-24 01:33:00.433622",
    "updated_at": "2018-08-11 21:36:19.185152",
    "country": "United States",
    "longitude": "",
    "latitude": "",
    "tags": []
  },
  {
    "id": "seven-stills",
    "name": "Seven Stills",
    "brewery_type": "micro",
    "street": "1439 Egbert Ave Unit C",
    "city": "San Francisco",
    "state": "California",
    "postal_code": "94124-3221",
    "website_url": "http://www.sevenstillsofsf.com",
    "phone": "4159140936",
    "created_at": "2018-07-24 01:33:00.723731",
    "updated_at": "2018-08-11 21:36:20.5777",
    "country": "United States",
    "longitude": "",
    "latitude": "",
    "tags": []
  },
  {
    "id": "social-kitchen-and-brewery",
    "name": "Social Kitchen & Brewery",
    "brewery_type": "brewpub",
    "street": "1326 9th Ave",
    "city": "San Francisco",
    "state": "California",
    "postal_code": "94122-2309",
    "website_url": "http://www.socialkitchenandbrewery.com",
    "phone": "4156810330",
    "created_at": "2018-07-24 01:33:00.972944",
    "updated_at": "2018-08-24 00:02:40.313347",
    "country": "United States",
    "longitude": "-122.466066221684",
    "latitude": "37.7635041",
    "tags": []
  },
  {
    "id": "southern-pacific-brewing",
    "name": "Southern Pacific Brewing",
    "brewery_type": "brewpub",
    "street": "620 Treat Ave",
    "city": "San Francisco",
    "state": "California",
    "postal_code": "94110-2016",
    "website_url": "http://www.southernpacificbrewing.com",
    "phone": "4153410152",
    "created_at": "2018-07-24 01:33:01.163724",
    "updated_at": "2018-08-24 00:02:54.123287",
    "country": "United States",
    "longitude": "-122.4139896",
    "latitude": "37.7601311",
    "tags": []
  },
  {
    "id": "southpaw-bbq-and-southern-cooking",
    "name": "Southpaw BBQ & Southern Cooking",
    "brewery_type": "brewpub",
    "street": "2170 Mission St",
    "city": "San Francisco",
    "state": "California",
    "postal_code": "94110-1247",
    "website_url": "http://www.southpawbbqsf.com",
    "phone": "4159349300",
    "created_at": "2018-07-24 01:33:01.176539",
    "updated_at": "2018-08-24 00:02:55.128554",
    "country": "United States",
    "longitude": "-122.4195306",
    "latitude": "37.7634391",
    "tags": []
  },
  {
    "id": "speakeasy-ales-and-lagers",
    "name": "Speakeasy Ales and Lagers",
    "brewery_type": "micro",
    "street": "1195 Evans Ave",
    "city": "San Francisco",
    "state": "California",
    "postal_code": "94124-1704",
    "website_url": "http://www.goodbeer.com",
    "phone": "4156423371",
    "created_at": "2018-07-24 01:33:01.188631",
    "updated_at": "2018-08-24 00:02:55.971732",
    "country": "United States",
    "longitude": "-122.380855673469",
    "latitude": "37.7385453061224",
    "tags": []
  },
  {
    "id": "standard-deviant-brewing",
    "name": "Standard Deviant Brewing",
    "brewery_type": "micro",
    "street": "280 14th St",
    "city": "San Francisco",
    "state": "California",
    "postal_code": "94103-2420",
    "website_url": "http://www.standarddeviantbrewing.com",
    "phone": "4155902550",
    "created_at": "2018-07-24 01:33:01.293375",
    "updated_at": "2018-08-24 00:03:02.434858",
    "country": "United States",
    "longitude": "-122.419598352941",
    "latitude": "37.7683792941177",
    "tags": []
  },
  {
    "id": "sunset-reservoir-brewing-company",
    "name": "Sunset Reservoir Brewing Company",
    "brewery_type": "brewpub",
    "street": "1735 Noriega St",
    "city": "San Francisco",
    "state": "California",
    "postal_code": "94122-4307",
    "website_url": "http://www.sunsetbeersf.com",
    "phone": "4155718452",
    "created_at": "2018-07-24 01:33:01.623144",
    "updated_at": "2018-08-24 00:03:25.238701",
    "country": "United States",
    "longitude": "-122.4823594",
    "latitude": "37.7538314",
    "tags": []
  },
  {
    "id": "thirstybear-organic-brewery",
    "name": "ThirstyBear Organic Brewery",
    "brewery_type": "brewpub",
    "street": "661 Howard St",
    "city": "San Francisco",
    "state": "California",
    "postal_code": "94105-3915",
    "website_url": "http://www.thirstybear.com",
    "phone": "4159740905",
    "created_at": "2018-07-24 01:33:02.191695",
    "updated_at": "2018-08-24 00:04:00.892356",
    "country": "United States",
    "longitude": "-122.399512",
    "latitude": "37.785543",
    "tags": []
  },
  {
    "id": "topsys",
    "name": "Topsy's",
    "brewery_type": "brewpub",
    "street": "260 Kearny St",
    "city": "San Francisco",
    "state": "California",
    "postal_code": "94108-4538",
    "website_url": "http://www.topsyssf.com",
    "phone": "4157570290",
    "created_at": "2018-07-24 01:33:02.41394",
    "updated_at": "2018-08-24 00:04:17.524994",
    "country": "United States",
    "longitude": "-122.403877942857",
    "latitude": "37.7905261428571",
    "tags": []
  },
  {
    "id": "toy-soldier",
    "name": "Toy Soldier",
    "brewery_type": "brewpub",
    "street": "52 Belden Pl",
    "city": "San Francisco",
    "state": "California",
    "postal_code": "94104",
    "website_url": "http://www.toysoldiersf.com",
    "phone": "4159069048",
    "created_at": "2018-07-24 01:33:02.474421",
    "updated_at": "2018-08-24 00:04:21.044072",
    "country": "United States",
    "longitude": "-122.403671041667",
    "latitude": "37.7912978125",
    "tags": []
  },
  {
    "id": "triple-voodoo-brewing-co",
    "name": "Triple Voodoo Brewing Co",
    "brewery_type": "micro",
    "street": "2245 3rd St",
    "city": "San Francisco",
    "state": "California",
    "postal_code": "94107-3125",
    "website_url": "http://www.triplevoodoo.com",
    "phone": "4155988811",
    "created_at": "2018-07-24 01:33:02.580064",
    "updated_at": "2018-08-24 00:04:28.703956",
    "country": "United States",
    "longitude": "-122.3884378",
    "latitude": "37.7611618",
    "tags": []
  },
  {
    "id": "tw-pitchers-brewing-co",
    "name": "TW Pitchers Brewing Co",
    "brewery_type": "contract",
    "street": "1329 17th Ave",
    "city": "San Francisco",
    "state": "California",
    "postal_code": "94122-1912",
    "website_url": "http://www.twpitchers.com",
    "phone": "4159992009",
    "created_at": "2018-07-24 01:33:02.640558",
    "updated_at": "2018-08-24 00:04:32.968939",
    "country": "United States",
    "longitude": "-122.475048571429",
    "latitude": "37.7630777142857",
    "tags": []
  }
]