[
  {
    "id": "cismontane-brewing-co",
    "name": "Cismontane Brewing Co",
    "brewery_type": "micro",
    "street": "1409 E Warner Ave Ste C",
    "city": "Santa Ana",
    "state": "California",
    "postal_code": "92705-5432",
    "website_url": "http://www.cismontanebrewing.com",
    "phone": "9498882739",
    "created_at": "2018-07-24 01:32:53.821075",
    "updated_at": "2018-08-11 21:35:59.451651",
    "country": "United States",
    "longitude": "",
    "latitude": "",
    "tags": []
  },
  {
    "id": "deans-brothers-brewing-co",
    "name": "Deans Brothers Brewing Co.",
    "brewery_type": "micro",
    "street": "1006 S Hathaway St",
    "city": "Santa Ana",
    "state": "California",
    "postal_code": "92705-4129",
    "website_url": "http://www.deansbros.com",
    "phone": "7145422001",
    "created_at": "2018-07-24 01:32:54.295837",
    "updated_at": "2018-08-23 23:27:14.058481",
    "country": "United States",
    "longitude": "-117.853182042562",
    "latitude": "33.7353304960034",
    "tags": []
  },
  {
    "id": "network-brewery",
    "name": "Network Brewery",
    "brewery_type": "micro",
    "street": "1824 Carnegie Ave",
    "city": "Santa Ana",
    "state": "California",
    "postal_code": "92705-5503",
    "website_url": "http://www.networkbrewery.com",
    "phone": "6578598004",
    "created_at": "2018-07-24 01:32:58.646418",
    "updated_at": "2018-08-23 23:59:58.135558",
    "country": "United States",
    "longitude": "-117.845559033414",
    "latitude": "33.7119032978487",
    "tags": []
  },
  {
    "id": "old-290-brewery",
    "name": "Old 290 Brewery",
    "brewery_type": "planning",
    "street": "",
    "city": "Santa Ana",
    "state": "California",
    "postal_code": "92704-7463",
    "website_url": "",
    "phone": "7145464255",
    "created_at": "2018-07-24 01:32:59.033427",
    "updated_at": "2018-08-24 00:00:25.677201",
    "country": "United States",
    "longitude": "-117.8732213",
    "latitude": "33.7494951",
    "tags": []
  },
  {
    "id": "the-good-beer-company-inc",
    "name": "The Good Beer Company, Inc.",
    "brewery_type": "micro",
    "street": "309 W 4th St",
    "city": "Santa Ana",
    "state": "California",
    "postal_code": "92701-4502",
    "website_url": "http://www.thegoodbeerco.com",
    "phone": "7147142988",
    "created_at": "2018-07-24 01:33:02.095278",
    "updated_at": "2018-08-24 00:03:53.815784",
    "country": "United States",
    "longitude": "-117.869958071529",
    "latitude": "33.7480782319083",
    "tags": []
  }
]