[
  {
    "id": "figueroa-mountain-brewing-santa-barbara",
    "name": "Figueroa Mountain Brewing - Santa Barbara",
    "brewery_type": "micro",
    "street": "137 Anacapa St Ste F",
    "city": "Santa Barbara",
    "state": "California",
    "postal_code": "93101-1848",
    "website_url": "http://www.figmtnbrew.com",
    "phone": "8058869275",
    "created_at": "2018-07-24 01:32:55.431242",
    "updated_at": "2018-08-11 21:36:03.793254",
    "country": "United States",
    "longitude": "",
    "latitude": "",
    "tags": []
  },
  {
    "id": "pure-order-brewing-co",
    "name": "Pure Order Brewing Co",
    "brewery_type": "micro",
    "street": "410 N Quarantina St",
    "city": "Santa Barbara",
    "state": "California",
    "postal_code": "93103-3119",
    "website_url": "http://www.pureorderbrewing.com",
    "phone": "8059662881",
    "created_at": "2018-07-24 01:32:59.741814",
    "updated_at": "2018-08-24 00:01:13.96739",
    "country": "United States",
    "longitude": "-119.686497857143",
    "latitude": "34.4235120714286",
    "tags": []
  },
  {
    "id": "santa-barbara-brewing-co",
    "name": "Santa Barbara Brewing Co",
    "brewery_type": "brewpub",
    "street": "501 State St",
    "city": "Santa Barbara",
    "state": "California",
    "postal_code": "93101-1601",
    "website_url": "http://www.sbbrewco.com",
    "phone": "8057301040",
    "created_at": "2018-07-24 01:33:00.495836",
    "updated_at": "2018-08-24 00:02:05.500368",
    "country": "United States",
    "longitude": "-119.7526684",
    "latitude": "34.4404959",
    "tags": []
  },
  {
    "id": "third-window-brewing",
    "name": "Third Window Brewing",
    "brewery_type": "brewpub",
    "street": "406 E Haley St Ste 3",
    "city": "Santa Barbara",
    "state": "California",
    "postal_code": "93101-1740",
    "website_url": "http://www.thirdwindowbrewing.com",
    "phone": "8059795090",
    "created_at": "2018-07-24 01:33:02.179953",
    "updated_at": "2018-08-11 21:36:24.797433",
    "country": "United States",
    "longitude": "",
    "latitude": "",
    "tags": []
  },
  {
    "id": "telegraph-brewing-co",
    "name": "Telegraph Brewing Co",
    "brewery_type": "micro",
    "street": "418 N Salsipuedes St",
    "city": "Santa Barbara",
    "state": "California",
    "postal_code": "93103-3127",
    "website_url": "http://www.telegraphbrewing.com",
    "phone": "8059635018",
    "created_at": "2018-07-24 01:33:01.866481",
    "updated_at": "2018-08-24 00:03:41.770697",
    "country": "United States",
    "longitude": "-119.688165095238",
    "latitude": "34.4228600952381",
    "tags": []
  },
  {
    "id": "the-brewhouse",
    "name": "The Brewhouse",
    "brewery_type": "brewpub",
    "street": "229 W Montecito St",
    "city": "Santa Barbara",
    "state": "California",
    "postal_code": "93101-3824",
    "website_url": "http://www.brewhousesb.com",
    "phone": "8059632739",
    "created_at": "2018-07-24 01:33:01.996239",
    "updated_at": "2018-08-24 00:03:49.624325",
    "country": "United States",
    "longitude": "-119.69542473913",
    "latitude": "34.4124557391304",
    "tags": []
  }
]