[
  {
    "id": "steele-and-hops-public-house",
    "name": "Steele and Hops Public House",
    "brewery_type": "brewpub",
    "street": "1901 Mendocino Ave",
    "city": "Santa Rosa",
    "state": "California",
    "postal_code": "95401",
    "website_url": "http://www.steeleandhops.com",
    "phone": "7075232201",
    "created_at": "2018-07-24 01:33:01.406062",
    "updated_at": "2018-08-24 00:03:09.801943",
    "country": "United States",
    "longitude": "-122.717258",
    "latitude": "38.459216",
    "tags": []
  },
  {
    "id": "2-tread-brewing-co",
    "name": "2 Tread Brewing Co",
    "brewery_type": "brewpub",
    "street": "1018 Santa Rosa Plz",
    "city": "Santa Rosa",
    "state": "California",
    "postal_code": "95401-6399",
    "website_url": "http://www.2treadbrewing.com",
    "phone": "4152330857",
    "created_at": "2018-07-24 01:32:51.087109",
    "updated_at": "2018-08-23 23:23:44.684824",
    "country": "United States",
    "longitude": "-122.716772864805",
    "latitude": "38.4387767",
    "tags": []
  },
  {
    "id": "cooperage-brewing-co",
    "name": "Cooperage Brewing Co.",
    "brewery_type": "micro",
    "street": "981 Airway Ct Ste G",
    "city": "Santa Rosa",
    "state": "California",
    "postal_code": "95403-2049",
    "website_url": "http://www.cooperagebrewing.com",
    "phone": "7072939787",
    "created_at": "2018-07-24 01:32:54.043907",
    "updated_at": "2018-08-11 21:35:59.969026",
    "country": "United States",
    "longitude": "",
    "latitude": "",
    "tags": []
  },
  {
    "id": "fogbelt-brewing-co",
    "name": "Fogbelt Brewing Co",
    "brewery_type": "brewpub",
    "street": "1305 Cleveland Ave",
    "city": "Santa Rosa",
    "state": "California",
    "postal_code": "95401-4211",
    "website_url": "http://www.fogbeltbrewing.com",
    "phone": "7079783400",
    "created_at": "2018-07-24 01:32:55.615099",
    "updated_at": "2018-08-23 23:28:35.062891",
    "country": "United States",
    "longitude": "-122.726607894552",
    "latitude": "38.4490003952644",
    "tags": []
  },
  {
    "id": "henhouse-brewing",
    "name": "HenHouse Brewing",
    "brewery_type": "micro",
    "street": "322 Bellevue Ave # 2",
    "city": "Santa Rosa",
    "state": "California",
    "postal_code": "95407-7711",
    "website_url": "http://www.henhousebrewing.com",
    "phone": "",
    "created_at": "2018-07-24 01:32:56.3608",
    "updated_at": "2018-08-23 23:29:17.579503",
    "country": "United States",
    "longitude": "-122.724130155207",
    "latitude": "38.4017722037199",
    "tags": []
  },
  {
    "id": "moonlight-brewing-co",
    "name": "Moonlight Brewing Co",
    "brewery_type": "large",
    "street": "3350 Coffey Ln Ste A",
    "city": "Santa Rosa",
    "state": "California",
    "postal_code": "95403-7412",
    "website_url": "http://www.moonlightbrewing.com",
    "phone": "7075282537",
    "created_at": "2018-07-24 01:32:58.44807",
    "updated_at": "2018-08-11 21:36:13.751329",
    "country": "United States",
    "longitude": "",
    "latitude": "",
    "tags": []
  },
  {
    "id": "old-possum-brewing-company",
    "name": "Old Possum Brewing Company",
    "brewery_type": "brewpub",
    "street": "357 Sutton Pl",
    "city": "Santa Rosa",
    "state": "California",
    "postal_code": "95407",
    "website_url": "http://www.oldpossumbrewing.com",
    "phone": "7073037177",
    "created_at": "2018-07-24 01:32:59.104025",
    "updated_at": "2018-08-24 00:00:30.207527",
    "country": "United States",
    "longitude": "-122.72520784451",
    "latitude": "38.3909741926312",
    "tags": []
  },
  {
    "id": "plow-brewing-company",
    "name": "Plow Brewing Company",
    "brewery_type": "micro",
    "street": "3334 Industrial Dr",
    "city": "Santa Rosa",
    "state": "California",
    "postal_code": "95403-2011",
    "website_url": "http://www.sonomacounty.com/brewery/plow-brewing-company",
    "phone": "7078434583",
    "created_at": "2018-07-24 01:32:59.599242",
    "updated_at": "2018-08-24 00:01:03.685437",
    "country": "United States",
    "longitude": "-122.740072013595",
    "latitude": "38.4745522221729",
    "tags": []
  },
  {
    "id": "rugged-coast-brewing",
    "name": "Rugged Coast Brewing",
    "brewery_type": "micro",
    "street": "817 Piner Ave",
    "city": "Santa Rosa",
    "state": "California",
    "postal_code": "95403",
    "website_url": "http://www.ruggedcoastbrewing.com",
    "phone": "4156027272",
    "created_at": "2018-07-24 01:33:00.262181",
    "updated_at": "2018-08-11 21:36:18.546707",
    "country": "United States",
    "longitude": "",
    "latitude": "",
    "tags": []
  },
  {
    "id": "russian-river-brewing-co",
    "name": "Russian River Brewing Co",
    "brewery_type": "regional",
    "street": "725 4th St",
    "city": "Santa Rosa",
    "state": "California",
    "postal_code": "95404-4407",
    "website_url": "http://www.russianriverbrewing.com",
    "phone": "7075452337",
    "created_at": "2018-07-24 01:33:00.317481",
    "updated_at": "2018-08-24 00:01:51.277206",
    "country": "United States",
    "longitude": "-122.7116607",
    "latitude": "38.4418139",
    "tags": []
  },
  {
    "id": "russian-river-brewing-co-production",
    "name": "Russian River Brewing Co - Production",
    "brewery_type": "micro",
    "street": "1812 Ferdinand Ct",
    "city": "Santa Rosa",
    "state": "California",
    "postal_code": "95404-5968",
    "website_url": "http://www.russianriverbrewing.com",
    "phone": "",
    "created_at": "2018-07-24 01:33:00.331585",
    "updated_at": "2018-08-24 00:01:52.300028",
    "country": "United States",
    "longitude": "-122.7094385",
    "latitude": "38.4216577",
    "tags": []
  },
  {
    "id": "seismic-brewing-co",
    "name": "Seismic Brewing Co",
    "brewery_type": "micro",
    "street": "2932 Dutton Ave",
    "city": "Santa Rosa",
    "state": "California",
    "postal_code": "95407-5711",
    "website_url": "http://www.seismicbrewingco.com/",
    "phone": "7075445996",
    "created_at": "2018-07-24 01:33:00.695375",
    "updated_at": "2018-08-24 00:02:20.041345",
    "country": "United States",
    "longitude": "-122.723620271205",
    "latitude": "38.4042274995945",
    "tags": []
  },
  {
    "id": "third-street-aleworks",
    "name": "Third Street Aleworks",
    "brewery_type": "brewpub",
    "street": "610 3rd St",
    "city": "Santa Rosa",
    "state": "California",
    "postal_code": "95404-4418",
    "website_url": "http://www.thirdstreetaleworks.com",
    "phone": "7075233060",
    "created_at": "2018-07-24 01:33:02.167709",
    "updated_at": "2018-08-24 00:03:58.965081",
    "country": "United States",
    "longitude": "-122.713217499838",
    "latitude": "38.43982595007",
    "tags": []
  },
  {
    "id": "yeti-restaurant",
    "name": "Yeti Restaurant",
    "brewery_type": "brewpub",
    "street": "190 Farmers Ln",
    "city": "Santa Rosa",
    "state": "California",
    "postal_code": "95405-4703",
    "website_url": "http://www.yetirestaurant.com",
    "phone": "7075219608",
    "created_at": "2018-07-24 01:33:03.115158",
    "updated_at": "2018-08-24 00:05:06.390279",
    "country": "United States",
    "longitude": "-122.688361",
    "latitude": "38.4497163635054",
    "tags": []
  },
  {
    "id": "shady-oak-barrel-house",
    "name": "Shady Oak Barrel House",
    "brewery_type": "micro",
    "street": "420 1st St",
    "city": "Santa Rosa",
    "state": "California",
    "postal_code": "95401-6339",
    "website_url": "http://shadyoakbarrelhouse.com",
    "phone": "7075958958",
    "created_at": "2018-07-24 01:33:00.749974",
    "updated_at": "2018-08-24 00:02:23.983933",
    "country": "United States",
    "longitude": "-122.715472553127",
    "latitude": "38.4370939574769",
    "tags": []
  }
]