[
  {
    "id": "shanty-shack-brewing",
    "name": "Shanty Shack Brewing",
    "brewery_type": "brewpub",
    "street": "138 Fern St",
    "city": "Santa Cruz",
    "state": "California",
    "postal_code": "95060-2118",
    "website_url": "http://shantyshackbrewing.com",
    "phone": "8313160800",
    "created_at": "2018-07-24 01:33:00.77683",
    "updated_at": "2018-08-24 00:02:26.436262",
    "country": "United States",
    "longitude": "-122.030853013199",
    "latitude": "36.9859968034963",
    "tags": []
  },
  {
    "id": "east-cliff-brewing-company",
    "name": "East Cliff Brewing Company",
    "brewery_type": "micro",
    "street": "21517 E Cliff Dr",
    "city": "Santa Cruz",
    "state": "California",
    "postal_code": "95062-4844",
    "website_url": "http://www.eastcliffbrewing.com/",
    "phone": "8317135540",
    "created_at": "2018-07-24 01:32:54.827125",
    "updated_at": "2018-08-23 23:27:50.248464",
    "country": "United States",
    "longitude": "-122.0136488",
    "latitude": "36.9684053",
    "tags": []
  },
  {
    "id": "humble-sea-brewing-co",
    "name": "Humble Sea Brewing Co",
    "brewery_type": "brewpub",
    "street": "820 Swift St",
    "city": "Santa Cruz",
    "state": "California",
    "postal_code": "95060-5866",
    "website_url": "http://www.humblesea.com",
    "phone": "8314316189",
    "created_at": "2018-07-24 01:32:56.723207",
    "updated_at": "2018-08-23 23:29:40.975421",
    "country": "United States",
    "longitude": "-122.0490197",
    "latitude": "36.9595996",
    "tags": []
  },
  {
    "id": "new-bohemia-brewing-co",
    "name": "New Bohemia Brewing Co",
    "brewery_type": "brewpub",
    "street": "1030 41st Ave",
    "city": "Santa Cruz",
    "state": "California",
    "postal_code": "95062-4447",
    "website_url": "http://www.nubobrew.com",
    "phone": "8313500253",
    "created_at": "2018-07-24 01:32:58.658686",
    "updated_at": "2018-08-23 23:59:59.064519",
    "country": "United States",
    "longitude": "-121.964793547168",
    "latitude": "36.9666152449717",
    "tags": []
  },
  {
    "id": "santa-cruz-aleworks",
    "name": "Santa Cruz Aleworks",
    "brewery_type": "brewpub",
    "street": "150 Dubois St Ste E",
    "city": "Santa Cruz",
    "state": "California",
    "postal_code": "95060-2114",
    "website_url": "http://www.santacruzaleworks.com",
    "phone": "8314251182",
    "created_at": "2018-07-24 01:33:00.520917",
    "updated_at": "2018-08-11 21:36:19.541618",
    "country": "United States",
    "longitude": "",
    "latitude": "",
    "tags": []
  },
  {
    "id": "santa-cruz-mountain-brewing",
    "name": "Santa Cruz Mountain Brewing",
    "brewery_type": "brewpub",
    "street": "402 Ingalls St Ste 27",
    "city": "Santa Cruz",
    "state": "California",
    "postal_code": "95060-5869",
    "website_url": "",
    "phone": "",
    "created_at": "2018-07-24 01:33:00.534672",
    "updated_at": "2018-08-11 21:36:19.578348",
    "country": "United States",
    "longitude": "",
    "latitude": "",
    "tags": []
  },
  {
    "id": "seabright-brewery",
    "name": "Seabright Brewery",
    "brewery_type": "brewpub",
    "street": "519 Seabright Ave Ste 107",
    "city": "Santa Cruz",
    "state": "California",
    "postal_code": "95062-3482",
    "website_url": "http://www.seabrightbrewery.com",
    "phone": "8314262739",
    "created_at": "2018-07-24 01:33:00.634856",
    "updated_at": "2018-08-11 21:36:20.239303",
    "country": "United States",
    "longitude": "",
    "latitude": "",
    "tags": []
  },
  {
    "id": "tuya-superbrewing-co",
    "name": "TUYA SuperBrewing Co.",
    "brewery_type": "planning",
    "street": "",
    "city": "Santa Cruz",
    "state": "California",
    "postal_code": "95062-1411",
    "website_url": "http://www.tuyasuperbrew.com",
    "phone": "8444878892",
    "created_at": "2018-07-24 01:33:02.627841",
    "updated_at": "2018-08-24 00:04:32.057274",
    "country": "United States",
    "longitude": "-122.0297182",
    "latitude": "36.974201",
    "tags": []
  },
  {
    "id": "woodhouse-blending-and-brewing",
    "name": "Woodhouse Blending & Brewing",
    "brewery_type": "planning",
    "street": "",
    "city": "Santa Cruz",
    "state": "California",
    "postal_code": "95060-",
    "website_url": "",
    "phone": "6198889489",
    "created_at": "2018-07-24 01:33:03.012469",
    "updated_at": "2018-08-24 00:04:59.932409",
    "country": "United States",
    "longitude": "-122.0297182",
    "latitude": "36.974201",
    "tags": []
  },
  {
    "id": "uncommon-brewers",
    "name": "Uncommon Brewers",
    "brewery_type": "micro",
    "street": "303 Potrero St Ste 40H",
    "city": "Santa Cruz",
    "state": "California",
    "postal_code": "95060-2778",
    "website_url": "http://www.uncommonbrewers.com",
    "phone": "8316216270",
    "created_at": "2018-07-24 01:33:02.692039",
    "updated_at": "2018-08-11 21:36:27.014149",
    "country": "United States",
    "longitude": "",
    "latitude": "",
    "tags": []
  }
]