[
  {
    "id": "south-lake-brewing-company",
    "name": "South Lake Brewing Company",
    "brewery_type": "micro",
    "street": "1920 Lake Tahoe Blvd",
    "city": "South Lake Tahoe",
    "state": "California",
    "postal_code": "96150-6307",
    "website_url": "http://www.southlakebeer.com",
    "phone": "5305780087",
    "created_at": "2018-07-24 01:33:01.137771",
    "updated_at": "2018-08-24 00:02:52.173495",
    "country": "United States",
    "longitude": "-120.0074997",
    "latitude": "38.9118004",
    "tags": []
  },
  {
    "id": "brewery-at-lake-tahoe",
    "name": "Brewery At Lake Tahoe",
    "brewery_type": "brewpub",
    "street": "3542 Lake Tahoe Blvd",
    "city": "South Lake Tahoe",
    "state": "California",
    "postal_code": "96150-8900",
    "website_url": "http://www.brewerylaketahoe.com",
    "phone": "5305444369",
    "created_at": "2018-07-24 01:32:52.979454",
    "updated_at": "2018-08-23 23:25:57.730421",
    "country": "United States",
    "longitude": "-119.961915731826",
    "latitude": "38.9467943321399",
    "tags": []
  },
  {
    "id": "outpost-brewing-co",
    "name": "Outpost Brewing Co",
    "brewery_type": "micro",
    "street": "932 Stateline Ave",
    "city": "South Lake Tahoe",
    "state": "California",
    "postal_code": "96150-6913",
    "website_url": "",
    "phone": "5304949805",
    "created_at": "2018-07-24 01:32:59.202506",
    "updated_at": "2018-08-24 00:00:36.868523",
    "country": "United States",
    "longitude": "-119.945000117647",
    "latitude": "38.9609739411765",
    "tags": []
  },
  {
    "id": "sidellis-lake-tahoe",
    "name": "Sidellis Lake Tahoe",
    "brewery_type": "brewpub",
    "street": "3350 Sandy Way",
    "city": "South Lake Tahoe",
    "state": "California",
    "postal_code": "96150",
    "website_url": "",
    "phone": "5306003999",
    "created_at": "2018-07-24 01:33:00.80039",
    "updated_at": "2018-08-24 00:02:28.172069",
    "country": "United States",
    "longitude": "-119.969867893245",
    "latitude": "38.9447279499115",
    "tags": []
  },
  {
    "id": "stateline-brewery",
    "name": "Stateline Brewery",
    "brewery_type": "brewpub",
    "street": "4118 Lake Tahoe Blvd Ste 1",
    "city": "South Lake Tahoe",
    "state": "California",
    "postal_code": "96150-6990",
    "website_url": "http://www.statelinebrewery.com",
    "phone": "5305429000",
    "created_at": "2018-07-24 01:33:01.353966",
    "updated_at": "2018-08-11 21:36:22.638038",
    "country": "United States",
    "longitude": "",
    "latitude": "",
    "tags": []
  },
  {
    "id": "cold-water-brewery-and-grill",
    "name": "Cold Water Brewery and Grill",
    "brewery_type": "brewpub",
    "street": "2544 Lake Tahoe Blvd",
    "city": "South Lake Tahoe",
    "state": "California",
    "postal_code": "96150-7707",
    "website_url": "http://www.tahoecoldwaterbrewery.com",
    "phone": "5305444677",
    "created_at": "2018-07-24 01:32:53.967173",
    "updated_at": "2018-08-23 23:26:53.644932",
    "country": "United States",
    "longitude": "-119.986213",
    "latitude": "38.925231",
    "tags": []
  },
  {
    "id": "lake-tahoe-aleworx",
    "name": "Lake Tahoe AleWorX",
    "brewery_type": "micro",
    "street": "2050 Lake Tahoe Blvd",
    "city": "South Lake Tahoe",
    "state": "California",
    "postal_code": "96150-6404",
    "website_url": "http://www.laketahoealeworx.com",
    "phone": "5306000442",
    "created_at": "2018-07-24 01:32:57.582267",
    "updated_at": "2018-08-23 23:58:45.703919",
    "country": "United States",
    "longitude": "-120.001995680535",
    "latitude": "38.9147620899163",
    "tags": []
  }
]