[
  {
    "id": "aftershock-brewing-co",
    "name": "Aftershock Brewing Co",
    "brewery_type": "micro",
    "street": "28822 Old Town Front St Ste 107",
    "city": "Temecula",
    "state": "California",
    "postal_code": "92590-2893",
    "website_url": "http://www.aftershockbrewingco.com",
    "phone": "9519722256",
    "created_at": "2018-07-24 01:32:51.385698",
    "updated_at": "2018-08-23 23:24:04.858547",
    "country": "United States",
    "longitude": "-117.148530613469",
    "latitude": "33.4931038237071",
    "tags": []
  },
  {
    "id": "black-market-brewing-co",
    "name": "Black Market Brewing Co",
    "brewery_type": "brewpub",
    "street": "41740 Enterprise Cir N Ste 109",
    "city": "Temecula",
    "state": "California",
    "postal_code": "92590-5652",
    "website_url": "",
    "phone": "",
    "created_at": "2018-07-24 01:32:52.668344",
    "updated_at": "2018-08-11 21:35:56.775081",
    "country": "United States",
    "longitude": "",
    "latitude": "",
    "tags": []
  },
  {
    "id": "ironfire-brewing-company",
    "name": "Ironfire Brewing Company",
    "brewery_type": "micro",
    "street": "42095 Zevo Dr Unit 1",
    "city": "Temecula",
    "state": "California",
    "postal_code": "92590-3741",
    "website_url": "http://www.ironfirebrewing.com",
    "phone": "9512961397",
    "created_at": "2018-07-24 01:32:56.992501",
    "updated_at": "2018-08-11 21:36:08.659283",
    "country": "United States",
    "longitude": "",
    "latitude": "",
    "tags": []
  },
  {
    "id": "karl-strauss-brewing-co",
    "name": "Karl Strauss Brewing Co",
    "brewery_type": "brewpub",
    "street": "40868 Winchester Rd",
    "city": "Temecula",
    "state": "California",
    "postal_code": "92591-5521",
    "website_url": "http://www.karlstrauss.com",
    "phone": "9512257963",
    "created_at": "2018-07-24 01:32:57.172709",
    "updated_at": "2018-08-23 23:58:15.880063",
    "country": "United States",
    "longitude": "-117.158447917817",
    "latitude": "33.5258689204202",
    "tags": []
  },
  {
    "id": "refuge-brewery-inc",
    "name": "Refuge Brewery, Inc.",
    "brewery_type": "micro",
    "street": "43040 Rancho Way Ste 200",
    "city": "Temecula",
    "state": "California",
    "postal_code": "92590-5400",
    "website_url": "http://www.refugebrew.com",
    "phone": "9515060609",
    "created_at": "2018-07-24 01:32:59.85687",
    "updated_at": "2018-08-11 21:36:17.33926",
    "country": "United States",
    "longitude": "",
    "latitude": "",
    "tags": []
  },
  {
    "id": "relentless-brewing-co",
    "name": "Relentless Brewing Co",
    "brewery_type": "micro",
    "street": "42030 Avenida Alvarado Ste F",
    "city": "Temecula",
    "state": "California",
    "postal_code": "92590-3404",
    "website_url": "http://www.relentlessbrewing.com",
    "phone": "9512969400",
    "created_at": "2018-07-24 01:32:59.869218",
    "updated_at": "2018-08-11 21:36:17.377692",
    "country": "United States",
    "longitude": "",
    "latitude": "",
    "tags": []
  },
  {
    "id": "wiens-brewing-co",
    "name": "Wiens Brewing Co",
    "brewery_type": "micro",
    "street": "27941 Diaz Rd Ste A",
    "city": "Temecula",
    "state": "California",
    "postal_code": "92590-3484",
    "website_url": "http://www.weinsbrewing.com",
    "phone": "9516949892",
    "created_at": "2018-07-24 01:33:02.934601",
    "updated_at": "2018-08-11 21:36:28.612537",
    "country": "United States",
    "longitude": "",
    "latitude": "",
    "tags": []
  }
]