[
  {
    "id": "absolution-brewing-co",
    "name": "Absolution Brewing Co",
    "brewery_type": "micro",
    "street": "2878 Columbia St",
    "city": "Torrance",
    "state": "California",
    "postal_code": "90503-3808",
    "website_url": "http://www.absolutionbrewingcompany.com",
    "phone": "3104904860",
    "created_at": "2018-07-24 01:32:51.337928",
    "updated_at": "2018-08-23 23:24:01.308679",
    "country": "United States",
    "longitude": "-118.3378601",
    "latitude": "33.8431391",
    "tags": []
  },
  {
    "id": "cosmic-brewery",
    "name": "Cosmic Brewery",
    "brewery_type": "micro",
    "street": "20316 Gramercy Pl",
    "city": "Torrance",
    "state": "California",
    "postal_code": "90501-1511",
    "website_url": "http://www.cosmicbrewery.com",
    "phone": "4242592337",
    "created_at": "2018-07-24 01:32:54.098602",
    "updated_at": "2018-08-23 23:27:02.098343",
    "country": "United States",
    "longitude": "-118.31311668331",
    "latitude": "33.8450009362138",
    "tags": []
  },
  {
    "id": "dudes-brewing-co",
    "name": "Dudes' Brewing Co",
    "brewery_type": "micro",
    "street": "1840 W 208th St",
    "city": "Torrance",
    "state": "California",
    "postal_code": "90501-1807",
    "website_url": "http://www.thedudesbrew.com",
    "phone": "4242712915",
    "created_at": "2018-07-24 01:32:54.674173",
    "updated_at": "2018-08-23 23:27:39.898317",
    "country": "United States",
    "longitude": "-118.3115036",
    "latitude": "33.8417185",
    "tags": []
  },
  {
    "id": "monkish-brewing-co",
    "name": "Monkish Brewing Co",
    "brewery_type": "micro",
    "street": "20311 S Western Ave",
    "city": "Torrance",
    "state": "California",
    "postal_code": "90501-1504",
    "website_url": "http://www.monkishbrewing.com",
    "phone": "3102952157",
    "created_at": "2018-07-24 01:32:58.412813",
    "updated_at": "2018-08-23 23:59:41.931447",
    "country": "United States",
    "longitude": "-118.3101863",
    "latitude": "33.8465751",
    "tags": []
  },
  {
    "id": "red-car-brewery-and-restaurant",
    "name": "Red Car Brewery and Restaurant",
    "brewery_type": "brewpub",
    "street": "1266 Sartori Ave",
    "city": "Torrance",
    "state": "California",
    "postal_code": "90501-2717",
    "website_url": "http://www.redcarbrewery.com",
    "phone": "3107820222",
    "created_at": "2018-07-24 01:32:59.80395",
    "updated_at": "2018-08-24 00:01:18.772223",
    "country": "United States",
    "longitude": "-118.316127395501",
    "latitude": "33.8353441138618",
    "tags": []
  },
  {
    "id": "smog-city-brewing",
    "name": "Smog City Brewing",
    "brewery_type": "micro",
    "street": "1901 del Amo Blvd Ste B",
    "city": "Torrance",
    "state": "California",
    "postal_code": "90501-1350",
    "website_url": "http://www.smogcitybrewing.com",
    "phone": "3103207664",
    "created_at": "2018-07-24 01:33:00.908484",
    "updated_at": "2018-08-11 21:36:21.121766",
    "country": "United States",
    "longitude": "",
    "latitude": "",
    "tags": []
  },
  {
    "id": "scholb-premium-ales",
    "name": "Scholb Premium Ales",
    "brewery_type": "micro",
    "street": "2964 Columbia St",
    "city": "Torrance",
    "state": "California",
    "postal_code": "90503-3806",
    "website_url": "http://www.drinkscholb.com",
    "phone": "4243507303",
    "created_at": "2018-07-24 01:33:00.610765",
    "updated_at": "2018-08-24 00:02:13.889259",
    "country": "United States",
    "longitude": "-118.339288",
    "latitude": "33.8431475",
    "tags": []
  },
  {
    "id": "smog-city-brewing-wood-cellar",
    "name": "Smog City Brewing Wood Cellar",
    "brewery_type": "micro",
    "street": "1879 Del Amo Blvd",
    "city": "Torrance",
    "state": "California",
    "postal_code": "90501",
    "website_url": "http://www.smogcitybrewing.com",
    "phone": "3103207664",
    "created_at": "2018-07-24 01:33:00.920633",
    "updated_at": "2018-08-24 00:02:37.112729",
    "country": "United States",
    "longitude": "-118.3180205",
    "latitude": "33.8467722",
    "tags": []
  },
  {
    "id": "strand-brewing-co",
    "name": "Strand Brewing Co",
    "brewery_type": "micro",
    "street": "2201 Dominguez St",
    "city": "Torrance",
    "state": "California",
    "postal_code": "90501-1418",
    "website_url": "http://www.strandbrewing.com",
    "phone": "3105170900",
    "created_at": "2018-07-24 01:33:01.521376",
    "updated_at": "2018-08-24 00:03:17.2313",
    "country": "United States",
    "longitude": "-118.3240401",
    "latitude": "33.8414814",
    "tags": []
  },
  {
    "id": "yorkshire-square-brewing-co",
    "name": "Yorkshire Square Brewing Co.",
    "brewery_type": "micro",
    "street": "1109 Van Ness Ave",
    "city": "Torrance",
    "state": "California",
    "postal_code": "90501-2236",
    "website_url": "http://www.yorkshiresquarebrewery.com",
    "phone": "4243765115",
    "created_at": "2018-07-24 01:33:03.140916",
    "updated_at": "2018-08-24 00:05:08.448002",
    "country": "United States",
    "longitude": "-118.316350719908",
    "latitude": "33.8372008461408",
    "tags": []
  },
  {
    "id": "zymurgy-brew-works",
    "name": "Zymurgy Brew Works",
    "brewery_type": "micro",
    "street": "22755 Hawthorne Blvd",
    "city": "Torrance",
    "state": "California",
    "postal_code": "90505-3613",
    "website_url": "http://www.zymurgybrewworks.com",
    "phone": "3106502474",
    "created_at": "2018-07-24 01:33:03.169143",
    "updated_at": "2018-08-24 00:05:10.420576",
    "country": "United States",
    "longitude": "-118.3524672",
    "latitude": "33.8635371",
    "tags": []
  },
  {
    "id": "hopsaint-brewing-company",
    "name": "HopSaint Brewing Company",
    "brewery_type": "brewpub",
    "street": "5160 W 190th St",
    "city": "Torrance",
    "state": "California",
    "postal_code": "90503-1005",
    "website_url": "http://www.hopsaint.com",
    "phone": "3102144611",
    "created_at": "2018-07-24 01:32:56.650455",
    "updated_at": "2018-08-23 23:29:35.668389",
    "country": "United States",
    "longitude": "-118.367733",
    "latitude": "33.8577324",
    "tags": []
  }
]