[
  {
    "id": "unsung-brewing-company",
    "name": "Unsung Brewing Company",
    "brewery_type": "micro",
    "street": "1332 Bell Ave Ste 2D",
    "city": "Tustin",
    "state": "California",
    "postal_code": "92780-6439",
    "website_url": "",
    "phone": "",
    "created_at": "2018-07-24 01:33:02.717087",
    "updated_at": "2018-08-11 21:36:27.130152",
    "country": "United States",
    "longitude": "",
    "latitude": "",
    "tags": []
  },
  {
    "id": "archaic-craft-brewery-at-centro",
    "name": "Archaic Craft Brewery At Centro",
    "brewery_type": "brewpub",
    "street": "140 E Main St",
    "city": "Tustin",
    "state": "California",
    "postal_code": "92780-4408",
    "website_url": "",
    "phone": "7142588817",
    "created_at": "2018-07-24 01:32:51.809313",
    "updated_at": "2018-08-23 23:24:32.002874",
    "country": "United States",
    "longitude": "-117.823173",
    "latitude": "33.7419754",
    "tags": []
  },
  {
    "id": "taps-brewery-and-barrel-room",
    "name": "TAPS Brewery and Barrel Room",
    "brewery_type": "planning",
    "street": "",
    "city": "Tustin",
    "state": "California",
    "postal_code": "92780-7302",
    "website_url": "",
    "phone": "",
    "created_at": "2018-07-24 01:33:01.789506",
    "updated_at": "2018-08-24 00:03:36.593805",
    "country": "United States",
    "longitude": "-117.826166",
    "latitude": "33.7458511",
    "tags": []
  },
  {
    "id": "tustin-brewing-co",
    "name": "Tustin Brewing Co",
    "brewery_type": "brewpub",
    "street": "13011 Newport Ave Ste 100",
    "city": "Tustin",
    "state": "California",
    "postal_code": "92780-3517",
    "website_url": "http://www.tustinbrewery.com",
    "phone": "7146652337",
    "created_at": "2018-07-24 01:33:02.615453",
    "updated_at": "2018-08-11 21:36:26.591998",
    "country": "United States",
    "longitude": "",
    "latitude": "",
    "tags": []
  }
]