[
  {
    "id": "topa-topa-brewing-co",
    "name": "Topa Topa Brewing Co",
    "brewery_type": "micro",
    "street": "104 E Thompson Blvd",
    "city": "Ventura",
    "state": "California",
    "postal_code": "93001-2723",
    "website_url": "http://www.topatopabrewingco.com",
    "phone": "8056289255",
    "created_at": "2018-07-24 01:33:02.401675",
    "updated_at": "2018-08-24 00:04:16.595529",
    "country": "United States",
    "longitude": "-119.299444632653",
    "latitude": "34.2781592040816",
    "tags": []
  },
  {
    "id": "anacapa-brewing-co",
    "name": "Anacapa Brewing Co",
    "brewery_type": "brewpub",
    "street": "472 E Main St",
    "city": "Ventura",
    "state": "California",
    "postal_code": "93001-2627",
    "website_url": "http://www.anacapabrewing.com",
    "phone": "8056432337",
    "created_at": "2018-07-24 01:32:51.665117",
    "updated_at": "2018-08-23 23:24:23.884878",
    "country": "United States",
    "longitude": "-119.293587428571",
    "latitude": "34.2807334693878",
    "tags": []
  },
  {
    "id": "brewery-in-planning-ventura",
    "name": "Brewery in Planning - Ventura",
    "brewery_type": "planning",
    "street": "",
    "city": "Ventura",
    "state": "California",
    "postal_code": "93003-8058",
    "website_url": "http://seawardbrewing.com",
    "phone": "8054151211",
    "created_at": "2018-07-24 01:32:53.237834",
    "updated_at": "2018-08-23 23:26:08.237828",
    "country": "United States",
    "longitude": "-119.295171010504",
    "latitude": "34.343649",
    "tags": []
  },
  {
    "id": "leashless-brewing",
    "name": "Leashless Brewing",
    "brewery_type": "micro",
    "street": "585 E Thompson Blvd",
    "city": "Ventura",
    "state": "California",
    "postal_code": "93001-2826",
    "website_url": "http://www.leashlessbrewing.com",
    "phone": "8056289474",
    "created_at": "2018-07-24 01:32:57.681288",
    "updated_at": "2018-08-23 23:58:52.803047",
    "country": "United States",
    "longitude": "-119.290873458709",
    "latitude": "34.2783583966805",
    "tags": []
  },
  {
    "id": "madewest-brewing-company",
    "name": "Madewest Brewing Company",
    "brewery_type": "micro",
    "street": "1744 Donlon St",
    "city": "Ventura",
    "state": "California",
    "postal_code": "93003-5673",
    "website_url": "http://www.madewest.com",
    "phone": "8059475002",
    "created_at": "2018-07-24 01:32:58.092635",
    "updated_at": "2018-08-23 23:59:20.499972",
    "country": "United States",
    "longitude": "-119.235440075954",
    "latitude": "34.2618160149034",
    "tags": []
  },
  {
    "id": "poseidon-brewing-company",
    "name": "Poseidon Brewing Company",
    "brewery_type": "micro",
    "street": "5777 Olivas Park Dr Unit Q",
    "city": "Ventura",
    "state": "California",
    "postal_code": "93003-7928",
    "website_url": "http://www.poseidonbrewingco.com",
    "phone": "8054770239",
    "created_at": "2018-07-24 01:32:59.691558",
    "updated_at": "2018-08-11 21:36:16.862495",
    "country": "United States",
    "longitude": "",
    "latitude": "",
    "tags": []
  },
  {
    "id": "smoke-mountain-brewery",
    "name": "Smoke Mountain Brewery",
    "brewery_type": "micro",
    "street": "6520 Casitas Pass Rd",
    "city": "Ventura",
    "state": "California",
    "postal_code": "93001-9794",
    "website_url": "http://www.smokemtn.com",
    "phone": "8058047954",
    "created_at": "2018-07-24 01:33:00.932987",
    "updated_at": "2018-08-24 00:02:38.004584",
    "country": "United States",
    "longitude": "-119.443877930774",
    "latitude": "34.3942095907318",
    "tags": []
  },
  {
    "id": "surf-brewery",
    "name": "Surf Brewery",
    "brewery_type": "micro",
    "street": "4561 Market St Ste A",
    "city": "Ventura",
    "state": "California",
    "postal_code": "93003-6483",
    "website_url": "http://www.surfbrewery.com",
    "phone": "8056442739",
    "created_at": "2018-07-24 01:33:01.648947",
    "updated_at": "2018-08-11 21:36:23.535826",
    "country": "United States",
    "longitude": "",
    "latitude": "",
    "tags": []
  },
  {
    "id": "ventura-coast-brewing-company",
    "name": "Ventura Coast Brewing Company",
    "brewery_type": "micro",
    "street": "76 S Oak St",
    "city": "Ventura",
    "state": "California",
    "postal_code": "93001-2702",
    "website_url": "http://www.vcbc.beer",
    "phone": "8056678640",
    "created_at": "2018-07-24 01:33:02.810948",
    "updated_at": "2018-08-24 00:04:45.258402",
    "country": "United States",
    "longitude": "-119.294558770833",
    "latitude": "34.2798839375",
    "tags": []
  }
]