[
  {
    "id": "aztec-brewing-company",
    "name": "Aztec Brewing Company",
    "brewery_type": "micro",
    "street": "2330 La Mirada Dr Ste 300",
    "city": "Vista",
    "state": "California",
    "postal_code": "92081-7871",
    "website_url": "http://www.aztecbrewery.com",
    "phone": "7605987720",
    "created_at": "2018-07-24 01:32:51.944198",
    "updated_at": "2018-08-11 21:35:55.089982",
    "country": "United States",
    "longitude": "",
    "latitude": "",
    "tags": []
  },
  {
    "id": "beach-grease-beer-company",
    "name": "Beach Grease Beer Company",
    "brewery_type": "micro",
    "street": "1280 Activity Dr Ste B",
    "city": "Vista",
    "state": "California",
    "postal_code": "92081",
    "website_url": "http://www.beachgreasebeerco.com",
    "phone": "",
    "created_at": "2018-07-24 01:32:52.275005",
    "updated_at": "2018-08-11 21:35:55.797364",
    "country": "United States",
    "longitude": "",
    "latitude": "",
    "tags": []
  },
  {
    "id": "belching-beaver-brewery-vista",
    "name": "Belching Beaver Brewery Vista",
    "brewery_type": "micro",
    "street": "980 Park Center Dr Ste A",
    "city": "Vista",
    "state": "California",
    "postal_code": "92081-8351",
    "website_url": "http://www.belchingbeaver.com",
    "phone": "7605995832",
    "created_at": "2018-07-24 01:32:52.396154",
    "updated_at": "2018-08-11 21:35:56.098757",
    "country": "United States",
    "longitude": "",
    "latitude": "",
    "tags": []
  },
  {
    "id": "barrel-harbor-brewing-co",
    "name": "Barrel Harbor Brewing Co.",
    "brewery_type": "micro",
    "street": "2575 Pioneer Ave Ste 104",
    "city": "Vista",
    "state": "California",
    "postal_code": "92081-8450",
    "website_url": "http://www.barrelharborbrewing.com",
    "phone": "7607343949",
    "created_at": "2018-07-24 01:32:52.174303",
    "updated_at": "2018-08-23 23:24:57.664505",
    "country": "United States",
    "longitude": "-117.221385",
    "latitude": "33.14879",
    "tags": []
  },
  {
    "id": "battlemage-brewing-co",
    "name": "Battlemage Brewing Co",
    "brewery_type": "micro",
    "street": "2870 Scott St Ste 102",
    "city": "Vista",
    "state": "California",
    "postal_code": "92081-8556",
    "website_url": "http://www.battlemagebrewing.com",
    "phone": "7602166425",
    "created_at": "2018-07-24 01:32:52.225063",
    "updated_at": "2018-08-23 23:25:01.371148",
    "country": "United States",
    "longitude": "-117.227634",
    "latitude": "33.140153",
    "tags": []
  },
  {
    "id": "bear-roots-brewing-company",
    "name": "Bear Roots Brewing Company",
    "brewery_type": "micro",
    "street": "1213 S Santa Fe Ave",
    "city": "Vista",
    "state": "California",
    "postal_code": "92083-7230",
    "website_url": "http://www.bearrootsbrewing.com",
    "phone": "7607264204",
    "created_at": "2018-07-24 01:32:52.361215",
    "updated_at": "2018-08-23 23:25:12.276812",
    "country": "United States",
    "longitude": "-117.226238",
    "latitude": "33.188251",
    "tags": []
  },
  {
    "id": "belching-beaver-brewery-tavern-and-grill",
    "name": "Belching Beaver Brewery Tavern & Grill",
    "brewery_type": "brewpub",
    "street": "302 E Broadway",
    "city": "Vista",
    "state": "California",
    "postal_code": "92084-6020",
    "website_url": "",
    "phone": "7605995832",
    "created_at": "2018-07-24 01:32:52.384299",
    "updated_at": "2018-08-23 23:25:13.936029",
    "country": "United States",
    "longitude": "-117.241029",
    "latitude": "33.2021182",
    "tags": []
  },
  {
    "id": "booze-brothers-brewing-co",
    "name": "Booze Brothers Brewing Co.",
    "brewery_type": "brewpub",
    "street": "2545 Progress St",
    "city": "Vista",
    "state": "California",
    "postal_code": "92081-8483",
    "website_url": "http://www.boozebrothersbrewery.com",
    "phone": "7602950217",
    "created_at": "2018-07-24 01:32:52.836514",
    "updated_at": "2018-08-23 23:25:46.906022",
    "country": "United States",
    "longitude": "-117.218025",
    "latitude": "33.148212",
    "tags": []
  },
  {
    "id": "ebullition-brew-works",
    "name": "Ebullition Brew Works",
    "brewery_type": "micro",
    "street": "2449 Cades Way Ste D",
    "city": "Vista",
    "state": "California",
    "postal_code": "92081",
    "website_url": "http://Www.ebullitionbrew.com",
    "phone": "7608421046",
    "created_at": "2018-07-24 01:32:54.84206",
    "updated_at": "2018-08-11 21:36:02.331137",
    "country": "United States",
    "longitude": "",
    "latitude": "",
    "tags": []
  },
  {
    "id": "iron-fist-brewing-co",
    "name": "Iron Fist Brewing Co",
    "brewery_type": "micro",
    "street": "1305 Hot Springs Way Ste 101",
    "city": "Vista",
    "state": "California",
    "postal_code": "92081-7876",
    "website_url": "http://www.ironfistbrewing.com",
    "phone": "7602166500",
    "created_at": "2018-07-24 01:32:56.957494",
    "updated_at": "2018-08-11 21:36:08.462351",
    "country": "United States",
    "longitude": "",
    "latitude": "",
    "tags": []
  },
  {
    "id": "indian-joe-brewing",
    "name": "Indian Joe Brewing",
    "brewery_type": "micro",
    "street": "2123 Industrial Ct",
    "city": "Vista",
    "state": "California",
    "postal_code": "92081-7900",
    "website_url": "http://www.indianjoebrewing.com",
    "phone": "7602953945",
    "created_at": "2018-07-24 01:32:56.844033",
    "updated_at": "2018-08-23 23:29:48.909367",
    "country": "United States",
    "longitude": "-117.2204292",
    "latitude": "33.1694168",
    "tags": []
  },
  {
    "id": "latitude-33-brewing-co",
    "name": "Latitude 33 Brewing Co",
    "brewery_type": "micro",
    "street": "1430 Vantage Ct Ste 104",
    "city": "Vista",
    "state": "California",
    "postal_code": "92081-8545",
    "website_url": "http://www.latitude33brewing.com",
    "phone": "7604106333",
    "created_at": "2018-07-24 01:32:57.641554",
    "updated_at": "2018-08-23 23:58:50.256284",
    "country": "United States",
    "longitude": "-117.22485",
    "latitude": "33.136105",
    "tags": []
  },
  {
    "id": "mother-earth-brew-co-llc",
    "name": "Mother Earth Brew Co LLC",
    "brewery_type": "regional",
    "street": "2055 Thibodo Rd Ste H",
    "city": "Vista",
    "state": "California",
    "postal_code": "92081-7991",
    "website_url": "http://www.motherearthbrewco.com",
    "phone": "7605428868",
    "created_at": "2018-07-24 01:32:58.495109",
    "updated_at": "2018-08-11 21:36:13.881396",
    "country": "United States",
    "longitude": "",
    "latitude": "",
    "tags": []
  },
  {
    "id": "prohibition-brewing",
    "name": "Prohibition Brewing",
    "brewery_type": "brewpub",
    "street": "2004 E Vista Way",
    "city": "Vista",
    "state": "California",
    "postal_code": "92084-3321",
    "website_url": "http://www.prohibitionbrewingcompany.com",
    "phone": "7602953525",
    "created_at": "2018-07-24 01:32:59.716379",
    "updated_at": "2018-08-24 00:01:12.105149",
    "country": "United States",
    "longitude": "-117.226841",
    "latitude": "33.230457",
    "tags": []
  },
  {
    "id": "toolbox-brewing-company",
    "name": "Toolbox Brewing Company",
    "brewery_type": "micro",
    "street": "1495 Poinsettia Ave Ste 148",
    "city": "Vista",
    "state": "California",
    "postal_code": "92081-8539",
    "website_url": "http://Toolboxbrewing.Com",
    "phone": "7605981477",
    "created_at": "2018-07-24 01:33:02.389561",
    "updated_at": "2018-08-24 00:04:16.030673",
    "country": "United States",
    "longitude": "-117.223973334188",
    "latitude": "33.1359933445993",
    "tags": []
  },
  {
    "id": "wavelength-brewing-company",
    "name": "Wavelength Brewing Company",
    "brewery_type": "micro",
    "street": "236 Main St",
    "city": "Vista",
    "state": "California",
    "postal_code": "92084-6008",
    "website_url": "http://www.wavelengthbrewco.com",
    "phone": "7608209283",
    "created_at": "2018-07-24 01:33:02.873259",
    "updated_at": "2018-08-24 00:04:50.224566",
    "country": "United States",
    "longitude": "-117.2418841",
    "latitude": "33.2028185",
    "tags": []
  }
]