[
  {
    "id": "dockerys",
    "name": "Dockery's",
    "brewery_type": "brewpub",
    "street": "186 Seven Farms Dr Ste F399",
    "city": "Charleston",
    "state": "South Carolina",
    "postal_code": "29492-8510",
    "website_url": "http://www.dockerysdi.com",
    "phone": "8432841173",
    "created_at": "2018-07-24 01:34:14.329207",
    "updated_at": "2018-08-11 21:39:35.740392",
    "country": "United States",
    "longitude": "",
    "latitude": "",
    "tags": []
  },
  {
    "id": "fams-brewing-company",
    "name": "Fam's Brewing Company",
    "brewery_type": "brewpub",
    "street": "1291 Folly Rd",
    "city": "Charleston",
    "state": "South Carolina",
    "postal_code": "29412",
    "website_url": "http://www.famspizza.com",
    "phone": "8437937733",
    "created_at": "2018-07-24 01:34:14.355588",
    "updated_at": "2018-08-11 21:39:35.816345",
    "country": "United States",
    "longitude": "",
    "latitude": "",
    "tags": []
  },
  {
    "id": "freehouse-brewery",
    "name": "Freehouse Brewery",
    "brewery_type": "micro",
    "street": "2895 Pringle St Ste B",
    "city": "Charleston",
    "state": "South Carolina",
    "postal_code": "29405-7506",
    "website_url": "http://www.freehousebeer.com",
    "phone": "",
    "created_at": "2018-07-24 01:34:14.394733",
    "updated_at": "2018-08-11 21:39:35.877918",
    "country": "United States",
    "longitude": "",
    "latitude": "",
    "tags": []
  },
  {
    "id": "frothy-beard-brewing-co",
    "name": "Frothy Beard Brewing Co",
    "brewery_type": "micro",
    "street": "1401 Sam Rittenberg Blvd Ste 1",
    "city": "Charleston",
    "state": "South Carolina",
    "postal_code": "29407-5031",
    "website_url": "http://www.frothybeard.com",
    "phone": "8437932970",
    "created_at": "2018-07-24 01:34:14.409574",
    "updated_at": "2018-08-11 21:39:35.908509",
    "country": "United States",
    "longitude": "",
    "latitude": "",
    "tags": []
  },
  {
    "id": "holy-city-brewing",
    "name": "Holy City Brewing",
    "brewery_type": "micro",
    "street": "4155 Dorchester Rd Ste C",
    "city": "Charleston",
    "state": "South Carolina",
    "postal_code": "29405-7486",
    "website_url": "http://www.holycitybrewing.com",
    "phone": "8432256089",
    "created_at": "2018-07-24 01:34:14.515368",
    "updated_at": "2018-08-11 21:39:36.144409",
    "country": "United States",
    "longitude": "",
    "latitude": "",
    "tags": []
  },
  {
    "id": "charles-towne-fermentory",
    "name": "Charles Towne Fermentory",
    "brewery_type": "micro",
    "street": "809 Savannah Hwy",
    "city": "Charleston",
    "state": "South Carolina",
    "postal_code": "29407-7278",
    "website_url": "http://www.chsfermentory.com",
    "phone": "8436410431",
    "created_at": "2018-07-24 01:34:14.195526",
    "updated_at": "2018-08-24 16:14:17.021412",
    "country": "United States",
    "longitude": "-79.985096",
    "latitude": "32.781811",
    "tags": []
  },
  {
    "id": "cooper-river-brewing-company",
    "name": "Cooper River Brewing Company",
    "brewery_type": "micro",
    "street": "2201-B Mechanic St",
    "city": "Charleston",
    "state": "South Carolina",
    "postal_code": "29405",
    "website_url": "http://www.cooperriverbrewing.com",
    "phone": "8434057979",
    "created_at": "2018-07-24 01:34:14.289179",
    "updated_at": "2018-08-24 16:14:26.11168",
    "country": "United States",
    "longitude": "-79.954817",
    "latitude": "32.817102",
    "tags": []
  },
  {
    "id": "fattys-beer-works",
    "name": "Fatty's Beer Works",
    "brewery_type": "contract",
    "street": "1436 Meeting Street Rd",
    "city": "Charleston",
    "state": "South Carolina",
    "postal_code": "29405-9342",
    "website_url": "http://www.followfatty.com",
    "phone": "8439745330",
    "created_at": "2018-07-24 01:34:14.368858",
    "updated_at": "2018-08-24 16:14:33.645761",
    "country": "United States",
    "longitude": "-79.950716",
    "latitude": "32.816629",
    "tags": []
  },
  {
    "id": "munkle-brewing-company",
    "name": "Munkle Brewing Company",
    "brewery_type": "micro",
    "street": "1513 Meeting Street Rd",
    "city": "Charleston",
    "state": "South Carolina",
    "postal_code": "29405-9301",
    "website_url": "http://MunkleBrewing.com",
    "phone": "8437893109",
    "created_at": "2018-07-24 01:34:14.658998",
    "updated_at": "2018-08-24 16:14:53.123595",
    "country": "United States",
    "longitude": "-79.9506892780644",
    "latitude": "32.8185299963622",
    "tags": []
  },
  {
    "id": "revelry-brewing-co",
    "name": "Revelry Brewing Co.",
    "brewery_type": "micro",
    "street": "10 Conroy St",
    "city": "Charleston",
    "state": "South Carolina",
    "postal_code": "29403-3815",
    "website_url": "http://www.revelrybrewingco.com",
    "phone": "8432036194",
    "created_at": "2018-07-24 01:34:14.787231",
    "updated_at": "2018-08-24 16:15:08.203154",
    "country": "United States",
    "longitude": "-79.9439381993063",
    "latitude": "32.8072823854694",
    "tags": []
  },
  {
    "id": "snafu-brewing-company",
    "name": "Snafu Brewing Company",
    "brewery_type": "micro",
    "street": "3280 Industry Dr",
    "city": "Charleston",
    "state": "South Carolina",
    "postal_code": "29418-8452",
    "website_url": "http://www.snafubrewingcompany.com",
    "phone": "8437674121",
    "created_at": "2018-07-24 01:34:14.894595",
    "updated_at": "2018-08-24 16:15:18.782055",
    "country": "United States",
    "longitude": "-80.0664232",
    "latitude": "32.9255082",
    "tags": []
  },
  {
    "id": "the-hold-by-revelry-brewing",
    "name": "The Hold By Revelry Brewing",
    "brewery_type": "micro",
    "street": "36 Romney St",
    "city": "Charleston",
    "state": "South Carolina",
    "postal_code": "29403-3825",
    "website_url": "http://www.revelrybrewingco.com",
    "phone": "",
    "created_at": "2018-07-24 01:34:14.973296",
    "updated_at": "2018-08-24 16:15:24.796959",
    "country": "United States",
    "longitude": "-79.9456937208899",
    "latitude": "32.8076133599163",
    "tags": []
  },
  {
    "id": "tradesman-brewing-company",
    "name": "Tradesman Brewing Company",
    "brewery_type": "micro",
    "street": "1639 Tatum St",
    "city": "Charleston",
    "state": "South Carolina",
    "postal_code": "29412-2646",
    "website_url": "http://www.tradesmanbrewing.com",
    "phone": "8434101315",
    "created_at": "2018-07-24 01:34:15.056333",
    "updated_at": "2018-08-24 16:15:27.714298",
    "country": "United States",
    "longitude": "-79.9732138160205",
    "latitude": "32.7601392286237",
    "tags": []
  },
  {
    "id": "edmundas-oast-brewing-co",
    "name": "Edmundâs Oast Brewing Co",
    "brewery_type": "brewpub",
    "street": "1505 King St Extension",
    "city": "Charleston",
    "state": "South Carolina",
    "postal_code": "29405",
    "website_url": "http://www.edmundsoast.com",
    "phone": "8437183224",
    "created_at": "2018-07-24 01:34:14.342254",
    "updated_at": "2018-08-11 21:39:35.781559",
    "country": "United States",
    "longitude": "",
    "latitude": "",
    "tags": []
  },
  {
    "id": "palmetto-brewing-co",
    "name": "Palmetto Brewing Co",
    "brewery_type": "regional",
    "street": "289 Huger St Bldg B",
    "city": "Charleston",
    "state": "South Carolina",
    "postal_code": "29403-4560",
    "website_url": "http://www.palmettobrewery.com",
    "phone": "8439370903",
    "created_at": "2018-07-24 01:34:14.722929",
    "updated_at": "2018-08-11 21:39:36.795222",
    "country": "United States",
    "longitude": "",
    "latitude": "",
    "tags": []
  },
  {
    "id": "twisted-cypress-brewing-company",
    "name": "Twisted Cypress Brewing Company",
    "brewery_type": "micro",
    "street": "1897 Sam Rittenberg Blvd",
    "city": "Charleston",
    "state": "South Carolina",
    "postal_code": "29407-4870",
    "website_url": "http://www.twistedcypressbrewingco.com",
    "phone": "8436081899",
    "created_at": "2018-07-24 01:34:15.069214",
    "updated_at": "2018-08-24 16:15:29.211155",
    "country": "United States",
    "longitude": "-80.0219063047438",
    "latitude": "32.7990541201577",
    "tags": []
  }
]