[
  {
    "id": "conquest-brewing-co",
    "name": "Conquest Brewing Co.",
    "brewery_type": "micro",
    "street": "947 S Stadium Rd",
    "city": "Columbia",
    "state": "South Carolina",
    "postal_code": "29201-4724",
    "website_url": "http://www.conquestbrewing.com",
    "phone": "8037123063",
    "created_at": "2018-07-24 01:34:14.275614",
    "updated_at": "2018-08-24 16:14:24.633496",
    "country": "United States",
    "longitude": "-81.023822122449",
    "latitude": "33.9710088163265",
    "tags": []
  },
  {
    "id": "river-rat-brewery",
    "name": "River Rat Brewery",
    "brewery_type": "brewpub",
    "street": "1231 Shop Rd",
    "city": "Columbia",
    "state": "South Carolina",
    "postal_code": "29201-4744",
    "website_url": "http://www.riverratbrewery.com",
    "phone": "8037245712",
    "created_at": "2018-07-24 01:34:14.811819",
    "updated_at": "2018-08-24 16:15:11.254459",
    "country": "United States",
    "longitude": "-81.0112538602882",
    "latitude": "33.9732558901252",
    "tags": []
  },
  {
    "id": "brewery-in-planning-dulles",
    "name": "Brewery In Planning - Dulles",
    "brewery_type": "planning",
    "street": "",
    "city": "Columbia",
    "state": "South Carolina",
    "postal_code": "29229-7322",
    "website_url": "",
    "phone": "",
    "created_at": "2018-07-24 01:34:14.101725",
    "updated_at": "2018-08-11 21:39:35.148747",
    "country": "United States",
    "longitude": "",
    "latitude": "",
    "tags": []
  },
  {
    "id": "columbia-craft-brewing-company",
    "name": "Columbia Craft Brewing Company",
    "brewery_type": "brewpub",
    "street": "520 Greene St",
    "city": "Columbia",
    "state": "South Carolina",
    "postal_code": "29201-3612",
    "website_url": "http://www.columbiacraft.com",
    "phone": "8037996027",
    "created_at": "2018-07-24 01:34:14.246566",
    "updated_at": "2018-08-24 16:14:21.614918",
    "country": "United States",
    "longitude": "-81.0420095718153",
    "latitude": "33.992366626412",
    "tags": []
  },
  {
    "id": "cottontown-brew-lab",
    "name": "CottonTown Brew Lab",
    "brewery_type": "micro",
    "street": "1223 Franklin St",
    "city": "Columbia",
    "state": "South Carolina",
    "postal_code": "29201-1958",
    "website_url": "http://www.ctbl.asurewebsites.net",
    "phone": "8444273952",
    "created_at": "2018-07-24 01:34:14.302558",
    "updated_at": "2018-08-24 16:14:27.779929",
    "country": "United States",
    "longitude": "-81.0400401428571",
    "latitude": "34.0169502857143",
    "tags": []
  },
  {
    "id": "swamp-cabbage-brewing-company",
    "name": "Swamp Cabbage Brewing Company",
    "brewery_type": "micro",
    "street": "921 Brookwood Dr",
    "city": "Columbia",
    "state": "South Carolina",
    "postal_code": "29201-4609",
    "website_url": "http://www.swampcabbagebrewing.com",
    "phone": "8039392589",
    "created_at": "2018-07-24 01:34:14.946562",
    "updated_at": "2018-08-11 21:39:37.900424",
    "country": "United States",
    "longitude": "",
    "latitude": "",
    "tags": []
  },
  {
    "id": "twisted-spur-brewing",
    "name": "Twisted Spur Brewing",
    "brewery_type": "brewpub",
    "street": "705 Gervais St Ste A",
    "city": "Columbia",
    "state": "South Carolina",
    "postal_code": "29201-6012",
    "website_url": "",
    "phone": "8037640203",
    "created_at": "2018-07-24 01:34:15.088468",
    "updated_at": "2018-08-11 21:39:38.226897",
    "country": "United States",
    "longitude": "",
    "latitude": "",
    "tags": []
  },
  {
    "id": "hunter-gatherer-brewery-and-alehouse",
    "name": "Hunter Gatherer Brewery and Alehouse",
    "brewery_type": "brewpub",
    "street": "900 Main St",
    "city": "Columbia",
    "state": "South Carolina",
    "postal_code": "29201-3964",
    "website_url": "http://www.huntergathererbrewery.com",
    "phone": "8037480540",
    "created_at": "2018-07-24 01:34:14.528093",
    "updated_at": "2018-08-24 16:14:45.766944",
    "country": "United States",
    "longitude": "-81.0315874",
    "latitude": "33.997366",
    "tags": []
  }
]