[
  {
    "id": "iron-hill-brewery-and-restaurant-greenville",
    "name": "Iron Hill Brewery & Restaurant - Greenville",
    "brewery_type": "brewpub",
    "street": "741 Haywood Rd",
    "city": "Greenville",
    "state": "South Carolina",
    "postal_code": "29607",
    "website_url": "http://www.ironhillbrewery.com",
    "phone": "8645687009",
    "created_at": "2018-07-24 01:34:14.553918",
    "updated_at": "2018-08-11 21:39:36.235137",
    "country": "United States",
    "longitude": "",
    "latitude": "",
    "tags": []
  },
  {
    "id": "liability-brewing-co",
    "name": "Liability Brewing Co.",
    "brewery_type": "planning",
    "street": "",
    "city": "Greenville",
    "state": "South Carolina",
    "postal_code": "29609-5559",
    "website_url": "http://www.liabilitybrewing.co",
    "phone": "",
    "created_at": "2018-07-24 01:34:14.592882",
    "updated_at": "2018-08-11 21:39:36.354545",
    "country": "United States",
    "longitude": "",
    "latitude": "",
    "tags": []
  },
  {
    "id": "brewery-85",
    "name": "Brewery 85",
    "brewery_type": "micro",
    "street": "6 Whitlee Ct",
    "city": "Greenville",
    "state": "South Carolina",
    "postal_code": "29607-3791",
    "website_url": "http://www.brewery85.com",
    "phone": "",
    "created_at": "2018-07-24 01:34:14.088076",
    "updated_at": "2018-08-24 16:14:13.983377",
    "country": "United States",
    "longitude": "-82.3491500488271",
    "latitude": "34.8028183",
    "tags": []
  },
  {
    "id": "think-tank-brew-lab",
    "name": "Think Tank Brew Lab",
    "brewery_type": "planning",
    "street": "",
    "city": "Greenville",
    "state": "South Carolina",
    "postal_code": "29607",
    "website_url": "http://www.thinktankbrewlab.com",
    "phone": "",
    "created_at": "2018-07-24 01:34:14.998162",
    "updated_at": "2018-08-11 21:39:38.0506",
    "country": "United States",
    "longitude": "",
    "latitude": "",
    "tags": []
  },
  {
    "id": "upstate-craft-beer-company",
    "name": "Upstate Craft Beer Company",
    "brewery_type": "brewpub",
    "street": "400 Augusta St Ste 120",
    "city": "Greenville",
    "state": "South Carolina",
    "postal_code": "29601-3552",
    "website_url": "http://www.upstatecraftbeer.com",
    "phone": "8646094590",
    "created_at": "2018-07-24 01:34:15.114005",
    "updated_at": "2018-08-11 21:39:38.333786",
    "country": "United States",
    "longitude": "",
    "latitude": "",
    "tags": []
  },
  {
    "id": "quest-brewing-company",
    "name": "Quest Brewing Company",
    "brewery_type": "micro",
    "street": "55 Airview Dr",
    "city": "Greenville",
    "state": "South Carolina",
    "postal_code": "29607-2632",
    "website_url": "http://www.questbrewing.com",
    "phone": "8642726232",
    "created_at": "2018-07-24 01:34:14.75066",
    "updated_at": "2018-08-24 16:15:03.818204",
    "country": "United States",
    "longitude": "-82.3451569114422",
    "latitude": "34.8465767",
    "tags": []
  },
  {
    "id": "thomas-creek-brewery",
    "name": "Thomas Creek Brewery",
    "brewery_type": "micro",
    "street": "2054 Piedmont Hwy",
    "city": "Greenville",
    "state": "South Carolina",
    "postal_code": "29605-4840",
    "website_url": "http://www.thomascreekbeer.com",
    "phone": "8646051166",
    "created_at": "2018-07-24 01:34:15.043931",
    "updated_at": "2018-08-24 16:15:26.259903",
    "country": "United States",
    "longitude": "-82.42335755",
    "latitude": "34.7966767",
    "tags": []
  },
  {
    "id": "birds-fly-south-ale-project",
    "name": "Birds Fly South Ale Project",
    "brewery_type": "micro",
    "street": "1320 Hampton Avenue Ext",
    "city": "Greenville",
    "state": "South Carolina",
    "postal_code": "29601-1012",
    "website_url": "",
    "phone": "8644128825",
    "created_at": "2018-07-24 01:34:14.042262",
    "updated_at": "2018-08-11 21:39:34.970197",
    "country": "United States",
    "longitude": "",
    "latitude": "",
    "tags": []
  }
]