[
  {
    "id": "old-mill-brewpub",
    "name": "Old Mill Brewpub",
    "brewery_type": "brewpub",
    "street": "711 E Main St",
    "city": "Lexington",
    "state": "South Carolina",
    "postal_code": "29072-3670",
    "website_url": "http://www.oldmillbrewpub.net",
    "phone": "8037852337",
    "created_at": "2018-07-24 01:34:14.710416",
    "updated_at": "2018-08-24 16:14:59.400847",
    "country": "United States",
    "longitude": "-81.2298014",
    "latitude": "33.9772343",
    "tags": []
  },
  {
    "id": "angry-fish-brewing-company",
    "name": "Angry Fish Brewing Company",
    "brewery_type": "micro",
    "street": "106 Fabrister Ln Ste C",
    "city": "Lexington",
    "state": "South Carolina",
    "postal_code": "29072",
    "website_url": "http://angryfishbewingco.com",
    "phone": "8035707470",
    "created_at": "2018-07-24 01:34:14.014667",
    "updated_at": "2018-08-11 21:39:34.91052",
    "country": "United States",
    "longitude": "",
    "latitude": "",
    "tags": []
  },
  {
    "id": "hazelwood-brewing-company",
    "name": "Hazelwood Brewing Company",
    "brewery_type": "planning",
    "street": "",
    "city": "Lexington",
    "state": "South Carolina",
    "postal_code": "29072",
    "website_url": "http://Hazelwoodbeer.com",
    "phone": "8034765845",
    "created_at": "2018-07-24 01:34:14.488952",
    "updated_at": "2018-08-11 21:39:36.06374",
    "country": "United States",
    "longitude": "",
    "latitude": "",
    "tags": []
  },
  {
    "id": "krafty-draft-brew-pub",
    "name": "Krafty Draft Brew Pub",
    "brewery_type": "brewpub",
    "street": "269 Charter Oak Rd",
    "city": "Lexington",
    "state": "South Carolina",
    "postal_code": "29072-9200",
    "website_url": "http://www.draftydraft.com",
    "phone": "8039960345",
    "created_at": "2018-07-24 01:34:14.565956",
    "updated_at": "2018-08-24 16:14:47.247623",
    "country": "United States",
    "longitude": "-81.305868166854",
    "latitude": "33.9871102137227",
    "tags": []
  }
]