[
  {
    "id": "coast-brewing-co",
    "name": "COAST Brewing Co",
    "brewery_type": "micro",
    "street": "1250 N 2nd St",
    "city": "North Charleston",
    "state": "South Carolina",
    "postal_code": "29405-1804",
    "website_url": "http://www.coastbrewing.com",
    "phone": "8433434727",
    "created_at": "2018-07-24 01:34:14.228523",
    "updated_at": "2018-08-11 21:39:35.500527",
    "country": "United States",
    "longitude": "",
    "latitude": "",
    "tags": []
  },
  {
    "id": "commonhouse-aleworks",
    "name": "Commonhouse Aleworks",
    "brewery_type": "micro",
    "street": "4831 Ohear Ave",
    "city": "North Charleston",
    "state": "South Carolina",
    "postal_code": "29405-4925",
    "website_url": "http://www.commonhousealeworks.com",
    "phone": "8436081331",
    "created_at": "2018-07-24 01:34:14.26129",
    "updated_at": "2018-08-24 16:14:23.133035",
    "country": "United States",
    "longitude": "-79.9755637991219",
    "latitude": "32.8829971086798",
    "tags": []
  },
  {
    "id": "lo-fi-brewing",
    "name": "Lo-Fi Brewing",
    "brewery_type": "micro",
    "street": "2038 Meeting St Rd",
    "city": "North Charleston",
    "state": "South Carolina",
    "postal_code": "29405-9357",
    "website_url": "http://www.lofibrewing.com",
    "phone": "8285822175",
    "created_at": "2018-07-24 01:34:14.632266",
    "updated_at": "2018-08-24 16:14:51.62014",
    "country": "United States",
    "longitude": "-79.9540931",
    "latitude": "32.8336083",
    "tags": []
  },
  {
    "id": "pawleys-island-brewing-company",
    "name": "Pawleys Island Brewing Company",
    "brewery_type": "brewpub",
    "street": "2668 Industrial Ave",
    "city": "North Charleston",
    "state": "South Carolina",
    "postal_code": "29405-7429",
    "website_url": "http://www.pawleysislandbrewing.com",
    "phone": "8432258292",
    "created_at": "2018-07-24 01:34:14.738774",
    "updated_at": "2018-08-24 16:15:02.355519",
    "country": "United States",
    "longitude": "-80.0042304853766",
    "latitude": "32.8533503975611",
    "tags": []
  },
  {
    "id": "rusty-bull-brewing-company",
    "name": "Rusty Bull Brewing Company",
    "brewery_type": "brewpub",
    "street": "3005 W Montague Ave Ste 110",
    "city": "North Charleston",
    "state": "South Carolina",
    "postal_code": "29418-7908",
    "website_url": "http://Www.rustybullbrewing.com",
    "phone": "8432258600",
    "created_at": "2018-07-24 01:34:14.842062",
    "updated_at": "2018-08-11 21:39:37.470849",
    "country": "United States",
    "longitude": "",
    "latitude": "",
    "tags": []
  }
]