[
  {
    "id": "brewery-in-planning-oklahoma-city-ok",
    "name": "Brewery in Planning - Oklahoma City, OK",
    "brewery_type": "planning",
    "street": "",
    "city": "Oklahoma City",
    "state": "Oklahoma",
    "postal_code": "73114-1522",
    "website_url": "",
    "phone": "2147973282",
    "created_at": "2018-07-24 01:34:03.934688",
    "updated_at": "2018-08-11 21:39:07.569483",
    "country": "United States",
    "longitude": "",
    "latitude": "",
    "tags": []
  },
  {
    "id": "bricktown-brewery",
    "name": "Bricktown Brewery",
    "brewery_type": "planning",
    "street": "",
    "city": "Oklahoma City",
    "state": "Oklahoma",
    "postal_code": "73109-6712",
    "website_url": "",
    "phone": "",
    "created_at": "2018-07-24 01:34:03.950255",
    "updated_at": "2018-08-11 21:39:07.603339",
    "country": "United States",
    "longitude": "",
    "latitude": "",
    "tags": []
  },
  {
    "id": "angry-scotsman-brewing",
    "name": "Angry Scotsman Brewing",
    "brewery_type": "contract",
    "street": "704 W Reno Ave",
    "city": "Oklahoma City",
    "state": "Oklahoma",
    "postal_code": "73102-2434",
    "website_url": "http://www.angryscotbrew.com",
    "phone": "4053342708",
    "created_at": "2018-07-24 01:34:03.834823",
    "updated_at": "2018-08-24 15:45:27.055399",
    "country": "United States",
    "longitude": "-97.6002769",
    "latitude": "35.4644206",
    "tags": []
  },
  {
    "id": "anthem-brewing-co",
    "name": "Anthem Brewing Co",
    "brewery_type": "micro",
    "street": "908 SW 4th St",
    "city": "Oklahoma City",
    "state": "Oklahoma",
    "postal_code": "73109-1012",
    "website_url": "http://www.anthembrewing.com",
    "phone": "4056040446",
    "created_at": "2018-07-24 01:34:03.847606",
    "updated_at": "2018-08-24 15:45:27.586265",
    "country": "United States",
    "longitude": "-97.5279235995217",
    "latitude": "35.460996732566",
    "tags": []
  },
  {
    "id": "bricktown-brewery",
    "name": "Bricktown Brewery",
    "brewery_type": "brewpub",
    "street": "1 N Oklahoma Ave",
    "city": "Oklahoma City",
    "state": "Oklahoma",
    "postal_code": "73104-2413",
    "website_url": "http://www.bricktownbrewery.com",
    "phone": "4052322739",
    "created_at": "2018-07-24 01:34:03.962696",
    "updated_at": "2018-08-24 15:45:29.749425",
    "country": "United States",
    "longitude": "-97.510181",
    "latitude": "35.567702",
    "tags": []
  },
  {
    "id": "red-dirt-brewing-co",
    "name": "Red Dirt Brewing Co",
    "brewery_type": "planning",
    "street": "",
    "city": "Oklahoma City",
    "state": "Oklahoma",
    "postal_code": "73120-5133",
    "website_url": "",
    "phone": "4058231632",
    "created_at": "2018-07-24 01:34:04.246825",
    "updated_at": "2018-08-11 21:39:08.814993",
    "country": "United States",
    "longitude": "",
    "latitude": "",
    "tags": []
  },
  {
    "id": "stonecloud-brewing-co",
    "name": "Stonecloud Brewing Co.",
    "brewery_type": "micro",
    "street": "1012 NW 1st St Ste 101",
    "city": "Oklahoma City",
    "state": "Oklahoma",
    "postal_code": "73106-7642",
    "website_url": "http://stonecloudbrewing.com",
    "phone": "4056023966",
    "created_at": "2018-07-24 01:34:04.323446",
    "updated_at": "2018-08-11 21:39:09.067931",
    "country": "United States",
    "longitude": "",
    "latitude": "",
    "tags": []
  },
  {
    "id": "elk-valley-brewing",
    "name": "Elk Valley Brewing",
    "brewery_type": "contract",
    "street": "520 N Meridian Ave",
    "city": "Oklahoma City",
    "state": "Oklahoma",
    "postal_code": "73107-5723",
    "website_url": "",
    "phone": "",
    "created_at": "2018-07-24 01:34:04.043077",
    "updated_at": "2018-08-24 15:45:32.956865",
    "country": "United States",
    "longitude": "-97.6011607",
    "latitude": "35.5005056",
    "tags": []
  },
  {
    "id": "huebert-brewing-co",
    "name": "Huebert Brewing Co.",
    "brewery_type": "micro",
    "street": "421 SW 26th St",
    "city": "Oklahoma City",
    "state": "Oklahoma",
    "postal_code": "73109-6712",
    "website_url": "http://www.huebertbrewing.com",
    "phone": "4056346528",
    "created_at": "2018-07-24 01:34:04.122782",
    "updated_at": "2018-08-24 15:45:34.767002",
    "country": "United States",
    "longitude": "-97.5202536538877",
    "latitude": "35.4384292026287",
    "tags": []
  },
  {
    "id": "roughtail-brewing",
    "name": "Roughtail Brewing",
    "brewery_type": "micro",
    "street": "1279 N Air Depot Blvd",
    "city": "Oklahoma City",
    "state": "Oklahoma",
    "postal_code": "73110-3333",
    "website_url": "http://www.roughtailbeer.com",
    "phone": "4057716517",
    "created_at": "2018-07-24 01:34:04.272498",
    "updated_at": "2018-08-24 15:45:38.744852",
    "country": "United States",
    "longitude": "-97.4064432",
    "latitude": "35.5367322",
    "tags": []
  },
  {
    "id": "twisted-spike-brewing-company",
    "name": "Twisted Spike Brewing Company",
    "brewery_type": "micro",
    "street": "1 NW 10th St",
    "city": "Oklahoma City",
    "state": "Oklahoma",
    "postal_code": "73103-4901",
    "website_url": "",
    "phone": "",
    "created_at": "2018-07-24 01:34:04.335393",
    "updated_at": "2018-08-24 15:45:40.359166",
    "country": "United States",
    "longitude": "-97.6785729",
    "latitude": "35.4787783",
    "tags": []
  },
  {
    "id": "vanessa-house-beer-company",
    "name": "Vanessa House Beer Company",
    "brewery_type": "micro",
    "street": "520 N Meridian Ave",
    "city": "Oklahoma City",
    "state": "Oklahoma",
    "postal_code": "73107-5723",
    "website_url": "http://www.vanessahousebeerco.com",
    "phone": "4058164870",
    "created_at": "2018-07-24 01:34:04.347699",
    "updated_at": "2018-08-24 15:45:40.905508",
    "country": "United States",
    "longitude": "-97.6011607",
    "latitude": "35.5005056",
    "tags": []
  },
  {
    "id": "belle-isle-restaurant-and-brewing-co",
    "name": "Belle Isle Restaurant and Brewing Co",
    "brewery_type": "brewpub",
    "street": "1900 NW Expressway Ste 44",
    "city": "Oklahoma City",
    "state": "Oklahoma",
    "postal_code": "73118-1832",
    "website_url": "http://www.okclive.com/belleisle",
    "phone": "4058401911",
    "created_at": "2018-07-24 01:34:03.906951",
    "updated_at": "2018-08-11 21:39:07.505649",
    "country": "United States",
    "longitude": "",
    "latitude": "",
    "tags": []
  },
  {
    "id": "coop-ale-works",
    "name": "COOP Ale Works",
    "brewery_type": "micro",
    "street": "4745 Council Heights Rd",
    "city": "Oklahoma City",
    "state": "Oklahoma",
    "postal_code": "73179-4600",
    "website_url": "http://www.coopaleworks.com",
    "phone": "4058422667",
    "created_at": "2018-07-24 01:34:04.017475",
    "updated_at": "2018-08-24 15:45:31.826315",
    "country": "United States",
    "longitude": "-97.657762025",
    "latitude": "35.4185472",
    "tags": []
  }
]