[
  {
    "id": "prairie-artisan-ales",
    "name": "Prairie Artisan Ales",
    "brewery_type": "micro",
    "street": "1803B S 49th West Ave",
    "city": "Tulsa",
    "state": "Oklahoma",
    "postal_code": "74107-",
    "website_url": "http://www.prairieales.com",
    "phone": "9189494318",
    "created_at": "2018-07-24 01:34:04.233489",
    "updated_at": "2018-08-24 15:45:37.690052",
    "country": "United States",
    "longitude": "-96.0481155",
    "latitude": "36.0784446",
    "tags": []
  },
  {
    "id": "american-solera",
    "name": "American Solera",
    "brewery_type": "micro",
    "street": "1801 S 49th West Ave",
    "city": "Tulsa",
    "state": "Oklahoma",
    "postal_code": "74107-2201",
    "website_url": "http://www.americansolera.com",
    "phone": "9189494318",
    "created_at": "2018-07-24 01:34:03.822179",
    "updated_at": "2018-08-24 15:45:26.471548",
    "country": "United States",
    "longitude": "-96.0481155",
    "latitude": "36.0784446",
    "tags": []
  },
  {
    "id": "cabin-boys-brewery",
    "name": "Cabin Boys Brewery",
    "brewery_type": "micro",
    "street": "1717 E. 7th Steeet",
    "city": "Tulsa",
    "state": "Oklahoma",
    "postal_code": "74104",
    "website_url": "http://www.cabinboysbrewery.com",
    "phone": "9189334033",
    "created_at": "2018-07-24 01:34:03.989549",
    "updated_at": "2018-08-11 21:39:07.707229",
    "country": "United States",
    "longitude": "",
    "latitude": "",
    "tags": []
  },
  {
    "id": "new-era-fine-fermentations",
    "name": "New Era Fine Fermentations",
    "brewery_type": "planning",
    "street": "",
    "city": "Tulsa",
    "state": "Oklahoma",
    "postal_code": "74120",
    "website_url": "",
    "phone": "9188636688",
    "created_at": "2018-07-24 01:34:04.207471",
    "updated_at": "2018-08-11 21:39:08.632467",
    "country": "United States",
    "longitude": "",
    "latitude": "",
    "tags": []
  },
  {
    "id": "welltown-brewing",
    "name": "Welltown Brewing",
    "brewery_type": "micro",
    "street": "114 S. Archer Street",
    "city": "Tulsa",
    "state": "Oklahoma",
    "postal_code": "74103-2202",
    "website_url": "",
    "phone": "",
    "created_at": "2018-07-24 01:34:04.371684",
    "updated_at": "2018-08-11 21:39:09.270659",
    "country": "United States",
    "longitude": "",
    "latitude": "",
    "tags": []
  },
  {
    "id": "dead-armadillo-brewery",
    "name": "Dead Armadillo Brewery",
    "brewery_type": "micro",
    "street": "1004 E 4th St",
    "city": "Tulsa",
    "state": "Oklahoma",
    "postal_code": "74120-3222",
    "website_url": "http://www.dabrewery.com",
    "phone": "9182328627",
    "created_at": "2018-07-24 01:34:04.030088",
    "updated_at": "2018-08-24 15:45:32.380775",
    "country": "United States",
    "longitude": "-95.9795864081633",
    "latitude": "36.1556190816327",
    "tags": []
  },
  {
    "id": "hanson-brothers-beer-company",
    "name": "Hanson Brothers Beer Company",
    "brewery_type": "contract",
    "street": "209 N Main St",
    "city": "Tulsa",
    "state": "Oklahoma",
    "postal_code": "74103-2005",
    "website_url": "",
    "phone": "",
    "created_at": "2018-07-24 01:34:04.08283",
    "updated_at": "2018-08-24 15:45:33.736309",
    "country": "United States",
    "longitude": "-95.9936662965295",
    "latitude": "36.1585125687048",
    "tags": []
  },
  {
    "id": "high-gravity-brewing-company",
    "name": "High Gravity Brewing Company",
    "brewery_type": "micro",
    "street": "6808 S Memorial Dr STE 144",
    "city": "Tulsa",
    "state": "Oklahoma",
    "postal_code": "74133",
    "website_url": "http://PippinsTaproom.com",
    "phone": "9184612605",
    "created_at": "2018-07-24 01:34:04.109054",
    "updated_at": "2018-08-24 15:45:34.274759",
    "country": "United States",
    "longitude": "-95.8887734",
    "latitude": "36.0655116",
    "tags": []
  },
  {
    "id": "marshall-brewing-co-llc",
    "name": "Marshall Brewing Co, LLC",
    "brewery_type": "micro",
    "street": "618 S Wheeling Ave",
    "city": "Tulsa",
    "state": "Oklahoma",
    "postal_code": "74104-3214",
    "website_url": "http://www.marshallbrewing.com",
    "phone": "9182928781",
    "created_at": "2018-07-24 01:34:04.181026",
    "updated_at": "2018-08-24 15:45:36.222929",
    "country": "United States",
    "longitude": "-95.9646299",
    "latitude": "36.134457",
    "tags": []
  },
  {
    "id": "nothings-left-brewing-co",
    "name": "Nothing's Left Brewing Co.",
    "brewery_type": "contract",
    "street": "1502 E 6th St",
    "city": "Tulsa",
    "state": "Oklahoma",
    "postal_code": "74120-4026",
    "website_url": "http://www.nothingsleftbrew.co",
    "phone": "",
    "created_at": "2018-07-24 01:34:04.220517",
    "updated_at": "2018-08-24 15:45:37.205878",
    "country": "United States",
    "longitude": "-95.9925359591837",
    "latitude": "36.1404729183674",
    "tags": []
  },
  {
    "id": "willows-family-ales",
    "name": "Willows Family Ales",
    "brewery_type": "micro",
    "street": "418 S Peoria Ave",
    "city": "Tulsa",
    "state": "Oklahoma",
    "postal_code": "74120",
    "website_url": "",
    "phone": "9188956798",
    "created_at": "2018-07-24 01:34:04.384145",
    "updated_at": "2018-08-24 15:45:42.409188",
    "country": "United States",
    "longitude": "-95.9759122588235",
    "latitude": "36.0220118941176",
    "tags": []
  },
  {
    "id": "renaissance-brewing-co",
    "name": "Renaissance Brewing Co",
    "brewery_type": "micro",
    "street": "1147 S Lewis Ave",
    "city": "Tulsa",
    "state": "Oklahoma",
    "postal_code": "74104-3905",
    "website_url": "http://www.renaissancebeer.com",
    "phone": "9184090551",
    "created_at": "2018-07-24 01:34:04.259771",
    "updated_at": "2018-08-24 15:45:38.247115",
    "country": "United States",
    "longitude": "-95.9578601",
    "latitude": "36.0617778",
    "tags": []
  }
]