[
  {
    "id": "appleton-beer-factory",
    "name": "Appleton Beer Factory",
    "brewery_type": "brewpub",
    "street": "603 W College Ave",
    "city": "Appleton",
    "state": "Wisconsin",
    "postal_code": "54911-5803",
    "website_url": "http://www.appletonbeerfactory.com",
    "phone": "9203649931",
    "created_at": "2018-07-24 01:34:34.529992",
    "updated_at": "2018-08-24 16:41:57.265472",
    "country": "United States",
    "longitude": "-88.4139147959184",
    "latitude": "44.2617360204082",
    "tags": []
  },
  {
    "id": "fox-river-brewing-co-and-restaurant",
    "name": "Fox River Brewing Co and Restaurant",
    "brewery_type": "brewpub",
    "street": "4301 W Wisconsin Ave Ste 189",
    "city": "Appleton",
    "state": "Wisconsin",
    "postal_code": "54913-6530",
    "website_url": "http://www.supplerestaurantgroup.com",
    "phone": "9209910000",
    "created_at": "2018-07-24 01:34:35.29962",
    "updated_at": "2018-08-11 21:40:32.754383",
    "country": "United States",
    "longitude": "",
    "latitude": "",
    "tags": []
  },
  {
    "id": "mcfleshmans-public-house",
    "name": "McFleshman's Public House",
    "brewery_type": "planning",
    "street": "",
    "city": "Appleton",
    "state": "Wisconsin",
    "postal_code": "54911-5840",
    "website_url": "http://www.mcfleshmans.com",
    "phone": "4056270167",
    "created_at": "2018-07-24 01:34:35.834223",
    "updated_at": "2018-08-11 21:40:34.272242",
    "country": "United States",
    "longitude": "",
    "latitude": "",
    "tags": []
  },
  {
    "id": "stone-cellar-brewpub-/-stone-arch-brew-house",
    "name": "Stone Cellar Brewpub / Stone Arch Brew House",
    "brewery_type": "brewpub",
    "street": "1004 S Olde Oneida St Uppr",
    "city": "Appleton",
    "state": "Wisconsin",
    "postal_code": "54915-1753",
    "website_url": "http://www.stonecellarbrewpub.com",
    "phone": "9207313322",
    "created_at": "2018-07-24 01:34:36.769411",
    "updated_at": "2018-08-11 21:40:36.687995",
    "country": "United States",
    "longitude": "",
    "latitude": "",
    "tags": []
  }
]