[
  {
    "id": "hinterland-brewery",
    "name": "Hinterland Brewery",
    "brewery_type": "micro",
    "street": "1001 Lombardi Ave",
    "city": "Green Bay",
    "state": "Wisconsin",
    "postal_code": "54304-3956",
    "website_url": "http://www.hinterlandbeer.com",
    "phone": "9204388050",
    "created_at": "2018-07-24 01:34:35.522198",
    "updated_at": "2018-08-24 16:43:32.279858",
    "country": "United States",
    "longitude": "-88.0489040625",
    "latitude": "44.498960015625",
    "tags": []
  },
  {
    "id": "legends-brewhouse-and-eatery-#1",
    "name": "Legends Brewhouse and Eatery (#1)",
    "brewery_type": "brewpub",
    "street": "2840 Shawano Ave",
    "city": "Green Bay",
    "state": "Wisconsin",
    "postal_code": "54313-6725",
    "website_url": "http://www.legendseatery.com",
    "phone": "9206621111",
    "created_at": "2018-07-24 01:34:35.740146",
    "updated_at": "2018-08-24 16:43:57.501792",
    "country": "United States",
    "longitude": "-88.036448",
    "latitude": "44.521795",
    "tags": []
  },
  {
    "id": "badger-state-brewing-company",
    "name": "Badger State Brewing Company",
    "brewery_type": "micro",
    "street": "990 Tony Canadeo Run",
    "city": "Green Bay",
    "state": "Wisconsin",
    "postal_code": "54304-3762",
    "website_url": "http://www.badgerstatebrewing.com",
    "phone": "9205435320",
    "created_at": "2018-07-24 01:34:34.543649",
    "updated_at": "2018-08-24 16:41:58.724746",
    "country": "United States",
    "longitude": "-88.0513647272727",
    "latitude": "44.4966971818182",
    "tags": []
  },
  {
    "id": "copper-state-brewing-co",
    "name": "Copper State Brewing Co",
    "brewery_type": "brewpub",
    "street": "313 Dousman St",
    "city": "Green Bay",
    "state": "Wisconsin",
    "postal_code": "54303-2713",
    "website_url": "http://www.copperstate.beer",
    "phone": "9204898575",
    "created_at": "2018-07-24 01:34:34.987291",
    "updated_at": "2018-08-24 16:42:39.278246",
    "country": "United States",
    "longitude": "-88.0191605414824",
    "latitude": "44.5189616395188",
    "tags": []
  },
  {
    "id": "noble-roots-brewing",
    "name": "Noble Roots Brewing",
    "brewery_type": "micro",
    "street": "2790 University Ave",
    "city": "Green Bay",
    "state": "Wisconsin",
    "postal_code": "54311-5856",
    "website_url": "",
    "phone": "",
    "created_at": "2018-07-24 01:34:36.044895",
    "updated_at": "2018-08-24 16:44:29.865722",
    "country": "United States",
    "longitude": "-87.996992",
    "latitude": "44.51462",
    "tags": []
  },
  {
    "id": "zambaldi-beer",
    "name": "Zambaldi Beer",
    "brewery_type": "contract",
    "street": "",
    "city": "Green Bay",
    "state": "Wisconsin",
    "postal_code": "54305-0246",
    "website_url": "http://www.zambaldi.com",
    "phone": "6124707926",
    "created_at": "2018-07-24 01:34:37.266144",
    "updated_at": "2018-08-11 21:40:37.80777",
    "country": "United States",
    "longitude": "",
    "latitude": "",
    "tags": []
  },
  {
    "id": "stillmank-brewing-company",
    "name": "Stillmank Brewing Company",
    "brewery_type": "micro",
    "street": "215 N Henry St",
    "city": "Green Bay",
    "state": "Wisconsin",
    "postal_code": "54302-2613",
    "website_url": "http://www.stillmankbrewery.com",
    "phone": "9207852337",
    "created_at": "2018-07-24 01:34:36.755817",
    "updated_at": "2018-08-24 16:45:46.835403",
    "country": "United States",
    "longitude": "-87.9783883301305",
    "latitude": "44.5044596",
    "tags": []
  },
  {
    "id": "titletown-brewing-co",
    "name": "Titletown Brewing Co",
    "brewery_type": "brewpub",
    "street": "200 Dousman St",
    "city": "Green Bay",
    "state": "Wisconsin",
    "postal_code": "54303-2712",
    "website_url": "http://www.titletownbrewing.com",
    "phone": "9204372337",
    "created_at": "2018-07-24 01:34:36.936323",
    "updated_at": "2018-08-24 16:46:06.736073",
    "country": "United States",
    "longitude": "-88.018517",
    "latitude": "44.51892",
    "tags": []
  }
]