[
  {
    "id": "ale-asylum",
    "name": "Ale Asylum",
    "brewery_type": "regional",
    "street": "2002 Pankratz St",
    "city": "Madison",
    "state": "Wisconsin",
    "postal_code": "53704-4024",
    "website_url": "http://www.aleasylum.com",
    "phone": "6086633926",
    "created_at": "2018-07-24 01:34:34.491886",
    "updated_at": "2018-08-24 16:41:52.715595",
    "country": "United States",
    "longitude": "-89.3541628513683",
    "latitude": "43.12046815",
    "tags": []
  },
  {
    "id": "alt-brew-/-greenview-brewing-llc",
    "name": "ALT Brew / Greenview Brewing LLC",
    "brewery_type": "brewpub",
    "street": "1808 Wright St",
    "city": "Madison",
    "state": "Wisconsin",
    "postal_code": "53704-2522",
    "website_url": "http://www.altbrew.com",
    "phone": "6083523373",
    "created_at": "2018-07-24 01:34:34.504366",
    "updated_at": "2018-08-24 16:41:54.256933",
    "country": "United States",
    "longitude": "-89.33026",
    "latitude": "43.1257630536673",
    "tags": []
  },
  {
    "id": "giant-jones-brewing-llc",
    "name": "Giant Jones Brewing LLC",
    "brewery_type": "micro",
    "street": "931 E Main St Suite 9",
    "city": "Madison ",
    "state": "Wisconsin",
    "postal_code": "53703",
    "website_url": "http://Www.giantjones.com",
    "phone": "6086205172",
    "created_at": "2018-07-24 01:34:35.382166",
    "updated_at": "2018-08-11 21:40:33.035376",
    "country": "United States",
    "longitude": "",
    "latitude": "",
    "tags": []
  },
  {
    "id": "great-dane-pub-and-brewing-co-downtown",
    "name": "Great Dane Pub and Brewing Co - Downtown",
    "brewery_type": "brewpub",
    "street": "123 E Doty St Ste 1",
    "city": "Madison",
    "state": "Wisconsin",
    "postal_code": "53703-5134",
    "website_url": "http://www.greatdanepub.com",
    "phone": "6082840000",
    "created_at": "2018-07-24 01:34:35.432163",
    "updated_at": "2018-08-11 21:40:33.151166",
    "country": "United States",
    "longitude": "",
    "latitude": "",
    "tags": []
  },
  {
    "id": "dead-bird-brewing-company",
    "name": "Dead Bird Brewing Company",
    "brewery_type": "contract",
    "street": "4539 Helgesen Dr",
    "city": "Madison",
    "state": "Wisconsin",
    "postal_code": "53718-6747",
    "website_url": "http://www.deadbirdbrewing.com",
    "phone": "",
    "created_at": "2018-07-24 01:34:35.084617",
    "updated_at": "2018-08-24 16:42:46.639182",
    "country": "United States",
    "longitude": "-89.305331202224",
    "latitude": "43.0662949",
    "tags": []
  },
  {
    "id": "flix-brewhouse-madison",
    "name": "Flix Brewhouse - Madison",
    "brewery_type": "brewpub",
    "street": "85 East Towne Mall",
    "city": "Madison",
    "state": "Wisconsin",
    "postal_code": "53704",
    "website_url": "",
    "phone": "5122442739",
    "created_at": "2018-07-24 01:34:35.247522",
    "updated_at": "2018-08-24 16:43:03.123911",
    "country": "United States",
    "longitude": "-89.3040968034347",
    "latitude": "43.1283021039365",
    "tags": []
  },
  {
    "id": "great-dane-pub-and-brewing-co-hilldale",
    "name": "Great Dane Pub and Brewing Co -- Hilldale",
    "brewery_type": "brewpub",
    "street": "357 Price Pl",
    "city": "Madison",
    "state": "Wisconsin",
    "postal_code": "53705-3208",
    "website_url": "http://www.greatdanepub.com",
    "phone": "6086619400",
    "created_at": "2018-07-24 01:34:35.458983",
    "updated_at": "2018-08-24 16:43:24.455979",
    "country": "United States",
    "longitude": "-89.4524381815434",
    "latitude": "43.0706137534088",
    "tags": []
  },
  {
    "id": "house-of-brews",
    "name": "House of Brews",
    "brewery_type": "micro",
    "street": "4539 Helgesen Dr",
    "city": "Madison",
    "state": "Wisconsin",
    "postal_code": "53718-6747",
    "website_url": "",
    "phone": "6083477243",
    "created_at": "2018-07-24 01:34:35.585867",
    "updated_at": "2018-08-24 16:43:39.75857",
    "country": "United States",
    "longitude": "-89.305331202224",
    "latitude": "43.0662949",
    "tags": []
  },
  {
    "id": "karben4-brewing",
    "name": "Karben4 Brewing",
    "brewery_type": "micro",
    "street": "3698 Kinsman Blvd",
    "city": "Madison",
    "state": "Wisconsin",
    "postal_code": "53704-2509",
    "website_url": "http://www.karben4.com",
    "phone": "6082414811",
    "created_at": "2018-07-24 01:34:35.648697",
    "updated_at": "2018-08-24 16:43:47.099614",
    "country": "United States",
    "longitude": "-89.3257324806858",
    "latitude": "43.126221",
    "tags": []
  },
  {
    "id": "luckys-1313-brewpub",
    "name": "Lucky's 1313 Brewpub",
    "brewery_type": "brewpub",
    "street": "1313 Regent St",
    "city": "Madison",
    "state": "Wisconsin",
    "postal_code": "53715-1254",
    "website_url": "http://www.luckys1313.com",
    "phone": "6082508989",
    "created_at": "2018-07-24 01:34:35.821927",
    "updated_at": "2018-08-24 16:44:06.848643",
    "country": "United States",
    "longitude": "-89.407658381214",
    "latitude": "43.0676614390108",
    "tags": []
  },
  {
    "id": "next-door-brewing-company",
    "name": "Next Door Brewing Company",
    "brewery_type": "brewpub",
    "street": "2439 Atwood Ave",
    "city": "Madison",
    "state": "Wisconsin",
    "postal_code": "53704-5604",
    "website_url": "http://www.nextdoorbrewing.com",
    "phone": "6087293683",
    "created_at": "2018-07-24 01:34:36.032538",
    "updated_at": "2018-08-24 16:44:28.217148",
    "country": "United States",
    "longitude": "-89.3457201808979",
    "latitude": "43.09371275",
    "tags": []
  },
  {
    "id": "one-barrel-brewing-company",
    "name": "One Barrel Brewing Company",
    "brewery_type": "micro",
    "street": "2001 Atwood Ave",
    "city": "Madison",
    "state": "Wisconsin",
    "postal_code": "53704-5324",
    "website_url": "http://www.onebarrelbrewing.com",
    "phone": "6086309286",
    "created_at": "2018-07-24 01:34:36.135268",
    "updated_at": "2018-08-24 16:44:37.503795",
    "country": "United States",
    "longitude": "-89.3549947891516",
    "latitude": "43.09180985",
    "tags": []
  },
  {
    "id": "rockhound-brewing-co",
    "name": "Rockhound Brewing Co",
    "brewery_type": "brewpub",
    "street": "444 S Park St",
    "city": "Madison",
    "state": "Wisconsin",
    "postal_code": "53715-1618",
    "website_url": "http://www.rockhoundbrewing.com",
    "phone": "6082859023",
    "created_at": "2018-07-24 01:34:36.434069",
    "updated_at": "2018-08-24 16:45:14.349202",
    "country": "United States",
    "longitude": "-89.4006464102564",
    "latitude": "43.0623835512821",
    "tags": []
  },
  {
    "id": "vintage-brewing-co",
    "name": "Vintage Brewing Co",
    "brewery_type": "brewpub",
    "street": "674 S Whitney Way",
    "city": "Madison",
    "state": "Wisconsin",
    "postal_code": "53711-1035",
    "website_url": "http://www.vintagebrewingco.com",
    "phone": "6082042739",
    "created_at": "2018-07-24 01:34:37.123109",
    "updated_at": "2018-08-24 16:46:19.187832",
    "country": "United States",
    "longitude": "-89.4726634457831",
    "latitude": "43.0517163253012",
    "tags": []
  },
  {
    "id": "working-draft-beer-company",
    "name": "Working Draft Beer Company",
    "brewery_type": "micro",
    "street": "1129 E Wilson St",
    "city": "Madison",
    "state": "Wisconsin",
    "postal_code": "53703-3758",
    "website_url": "http://www.workingdraftbeer.com",
    "phone": "",
    "created_at": "2018-07-24 01:34:37.252717",
    "updated_at": "2018-08-24 16:46:32.862137",
    "country": "United States",
    "longitude": "-89.3652802",
    "latitude": "43.0833378",
    "tags": []
  },
  {
    "id": "funk-factory-geuzeria",
    "name": "Funk Factory Geuzeria",
    "brewery_type": "micro",
    "street": "1602 Gilson St",
    "city": "Madison",
    "state": "Wisconsin",
    "postal_code": "53715-2128",
    "website_url": "http://www.funkfactorygeuzeria.com",
    "phone": "",
    "created_at": "2018-07-24 01:34:35.328638",
    "updated_at": "2018-08-24 16:43:10.601125",
    "country": "United States",
    "longitude": "-89.3919797327108",
    "latitude": "43.0501017743752",
    "tags": []
  }
]