[
  {
    "id": "good-city-brewing-company",
    "name": "Good City Brewing Company",
    "brewery_type": "brewpub",
    "street": "2108 N Farwell Ave",
    "city": "Milwaukee",
    "state": "Wisconsin",
    "postal_code": "53202-1115",
    "website_url": "http://www.goodcitybrewing.com",
    "phone": "4145394173",
    "created_at": "2018-07-24 01:34:35.40765",
    "updated_at": "2018-08-24 16:43:18.152086",
    "country": "United States",
    "longitude": "-87.8889038",
    "latitude": "43.0565468",
    "tags": []
  },
  {
    "id": "mobcraft-beer",
    "name": "MobCraft Beer",
    "brewery_type": "proprietor",
    "street": "505 S 5th St",
    "city": "Milwaukee",
    "state": "Wisconsin",
    "postal_code": "53204-1518",
    "website_url": "http://www.mobcraftbeer.com",
    "phone": "6083463003",
    "created_at": "2018-07-24 01:34:35.951472",
    "updated_at": "2018-08-24 16:44:20.439424",
    "country": "United States",
    "longitude": "-87.916937387519",
    "latitude": "43.0261838359198",
    "tags": []
  },
  {
    "id": "urban-harvest-brewing-company",
    "name": "Urban Harvest Brewing Company",
    "brewery_type": "micro",
    "street": "1024 S 5th St",
    "city": "Milwaukee",
    "state": "Wisconsin",
    "postal_code": "53204-1733",
    "website_url": "http://www.urbanharvestbrewing.com",
    "phone": "4142494074",
    "created_at": "2018-07-24 01:34:37.085527",
    "updated_at": "2018-08-24 16:46:14.451801",
    "country": "United States",
    "longitude": "-87.9167274897959",
    "latitude": "43.0208094081633",
    "tags": []
  },
  {
    "id": "brewery-in-planning-milwaukee",
    "name": "Brewery In Planning - Milwaukee",
    "brewery_type": "planning",
    "street": "",
    "city": "Milwaukee",
    "state": "Wisconsin",
    "postal_code": "53221",
    "website_url": "",
    "phone": "",
    "created_at": "2018-07-24 01:34:34.734953",
    "updated_at": "2018-08-11 21:40:31.17371",
    "country": "United States",
    "longitude": "",
    "latitude": "",
    "tags": []
  },
  {
    "id": "broken-bat-brewing-company-llc",
    "name": "Broken Bat Brewing Company, LLC",
    "brewery_type": "micro",
    "street": "231 E Buffalo St Lowr UNIT",
    "city": "Milwaukee",
    "state": "Wisconsin",
    "postal_code": "53202-5727",
    "website_url": "http://www.brokenbatbrewery.com",
    "phone": "4143169197",
    "created_at": "2018-07-24 01:34:34.826345",
    "updated_at": "2018-08-11 21:40:31.585495",
    "country": "United States",
    "longitude": "",
    "latitude": "",
    "tags": []
  },
  {
    "id": "1840-brewing-company",
    "name": "1840 Brewing Company",
    "brewery_type": "micro",
    "street": "342 E Ward St",
    "city": "Milwaukee",
    "state": "Wisconsin",
    "postal_code": "53207-1348",
    "website_url": "http://www.1840brewing.com",
    "phone": "4142364056",
    "created_at": "2018-07-24 01:34:34.393136",
    "updated_at": "2018-08-24 16:41:45.251754",
    "country": "United States",
    "longitude": "-87.9060694231764",
    "latitude": "43.004362417813",
    "tags": []
  },
  {
    "id": "black-husky-brewing-llc",
    "name": "Black Husky Brewing LLC",
    "brewery_type": "micro",
    "street": "909 E Locust St",
    "city": "Milwaukee",
    "state": "Wisconsin",
    "postal_code": "53212",
    "website_url": "http://www.blackhuskybrewing.com",
    "phone": "4045098855",
    "created_at": "2018-07-24 01:34:34.64459",
    "updated_at": "2018-08-24 16:42:10.931143",
    "country": "United States",
    "longitude": "-87.9000845699775",
    "latitude": "43.071024",
    "tags": []
  },
  {
    "id": "buffalo-water-beer-co",
    "name": "Buffalo Water Beer Co",
    "brewery_type": "contract",
    "street": "309 N Water St, #315",
    "city": "Milwaukee",
    "state": "Wisconsin",
    "postal_code": "53202-5710",
    "website_url": "http://www.buffalowaterbeer.com",
    "phone": "4142734680",
    "created_at": "2018-07-24 01:34:34.839281",
    "updated_at": "2018-08-24 16:42:22.911093",
    "country": "United States",
    "longitude": "-87.9092089",
    "latitude": "43.0341323",
    "tags": []
  },
  {
    "id": "component-brewing-co",
    "name": "Component Brewing Co",
    "brewery_type": "micro",
    "street": "2018 S 1st St Ste 207",
    "city": "Milwaukee",
    "state": "Wisconsin",
    "postal_code": "53207",
    "website_url": "http://www.componentbrewing.com",
    "phone": "4149791088",
    "created_at": "2018-07-24 01:34:34.974737",
    "updated_at": "2018-08-11 21:40:31.990621",
    "country": "United States",
    "longitude": "",
    "latitude": "",
    "tags": []
  },
  {
    "id": "dissident-brewing",
    "name": "Dissident Brewing",
    "brewery_type": "planning",
    "street": "",
    "city": "Milwaukee",
    "state": "Wisconsin",
    "postal_code": "53207-3221",
    "website_url": "http://www.dissidentbrewing.com",
    "phone": "4145171845",
    "created_at": "2018-07-24 01:34:35.110749",
    "updated_at": "2018-08-11 21:40:32.254258",
    "country": "United States",
    "longitude": "",
    "latitude": "",
    "tags": []
  },
  {
    "id": "enlightened-brewing-company",
    "name": "Enlightened Brewing Company",
    "brewery_type": "micro",
    "street": "2018 S 1st St Ste 170",
    "city": "Milwaukee",
    "state": "Wisconsin",
    "postal_code": "53207-1102",
    "website_url": "http://www.enlightenedbeer.com",
    "phone": "4143646225",
    "created_at": "2018-07-24 01:34:35.197251",
    "updated_at": "2018-08-11 21:40:32.482526",
    "country": "United States",
    "longitude": "",
    "latitude": "",
    "tags": []
  },
  {
    "id": "city-lights-brewing-co",
    "name": "City Lights Brewing Co.",
    "brewery_type": "micro",
    "street": "2200 W Mount Vernon Ave",
    "city": "Milwaukee",
    "state": "Wisconsin",
    "postal_code": "53233-2672",
    "website_url": "http://www.citylightsbrewing.com",
    "phone": "4145209692",
    "created_at": "2018-07-24 01:34:34.932288",
    "updated_at": "2018-08-24 16:42:33.337047",
    "country": "United States",
    "longitude": "-88.0118646",
    "latitude": "43.0339815",
    "tags": []
  },
  {
    "id": "company-brewing-co",
    "name": "Company Brewing Co",
    "brewery_type": "brewpub",
    "street": "735 E Center St",
    "city": "Milwaukee",
    "state": "Wisconsin",
    "postal_code": "53212-2944",
    "website_url": "",
    "phone": "4149300909",
    "created_at": "2018-07-24 01:34:34.962243",
    "updated_at": "2018-08-24 16:42:36.293092",
    "country": "United States",
    "longitude": "-87.901820861198",
    "latitude": "43.0672919",
    "tags": []
  },
  {
    "id": "district-14-brewery-and-pub",
    "name": "District 14 Brewery & Pub",
    "brewery_type": "brewpub",
    "street": "2273 S Howell Ave",
    "city": "Milwaukee",
    "state": "Wisconsin",
    "postal_code": "53207-1325",
    "website_url": "",
    "phone": "4147440399",
    "created_at": "2018-07-24 01:34:35.122585",
    "updated_at": "2018-08-24 16:42:49.65259",
    "country": "United States",
    "longitude": "-87.9095587",
    "latitude": "42.9581912",
    "tags": []
  },
  {
    "id": "eagle-park-brewing-company",
    "name": "Eagle Park Brewing Company",
    "brewery_type": "brewpub",
    "street": "823 E Hamilton St",
    "city": "Milwaukee",
    "state": "Wisconsin",
    "postal_code": "53202",
    "website_url": "http://www.eagleparkbrewing.com",
    "phone": "4145850123",
    "created_at": "2018-07-24 01:34:35.159329",
    "updated_at": "2018-08-24 16:42:54.112049",
    "country": "United States",
    "longitude": "-87.9014396124632",
    "latitude": "43.0542106",
    "tags": []
  },
  {
    "id": "fat-boy-brewing-co",
    "name": "Fat Boy Brewing Co",
    "brewery_type": "contract",
    "street": "2851 S Stratton Dr",
    "city": "Milwaukee",
    "state": "Wisconsin",
    "postal_code": "53219-2759",
    "website_url": "http://www.fatboybeer.com",
    "phone": "4147616366",
    "created_at": "2018-07-24 01:34:35.209884",
    "updated_at": "2018-08-24 16:42:58.598466",
    "country": "United States",
    "longitude": "-88.013008100964",
    "latitude": "42.9922707920844",
    "tags": []
  },
  {
    "id": "gathering-place-brewing-company",
    "name": "Gathering Place Brewing Company",
    "brewery_type": "micro",
    "street": "811 E Vienna Ave",
    "city": "Milwaukee",
    "state": "Wisconsin",
    "postal_code": "53212-1775",
    "website_url": "http://www.gatheringplacebrewing.com",
    "phone": "4143646328",
    "created_at": "2018-07-24 01:34:35.355699",
    "updated_at": "2018-08-24 16:43:13.546854",
    "country": "United States",
    "longitude": "-87.9010744489796",
    "latitude": "43.0857358979592",
    "tags": []
  },
  {
    "id": "new-barons-brewing-cooperative",
    "name": "New Barons Brewing Cooperative",
    "brewery_type": "planning",
    "street": "",
    "city": "Milwaukee",
    "state": "Wisconsin",
    "postal_code": "53202-2821",
    "website_url": "http://www.newbaronsbrewing.com",
    "phone": "3147050016",
    "created_at": "2018-07-24 01:34:35.988883",
    "updated_at": "2018-08-11 21:40:34.683447",
    "country": "United States",
    "longitude": "",
    "latitude": "",
    "tags": []
  },
  {
    "id": "leinenkugels-10th-street-brewery",
    "name": "Leinenkugel's 10th Street Brewery",
    "brewery_type": "large",
    "street": "1515 N 10th St",
    "city": "Milwaukee",
    "state": "Wisconsin",
    "postal_code": "53205-2157",
    "website_url": "http://www.leinie.com",
    "phone": "4149313900",
    "created_at": "2018-07-24 01:34:35.770093",
    "updated_at": "2018-08-24 16:44:00.446243",
    "country": "United States",
    "longitude": "-87.9245508313463",
    "latitude": "43.05050335",
    "tags": []
  },
  {
    "id": "like-minds-brewing-co",
    "name": "Like Minds Brewing Co.",
    "brewery_type": "micro",
    "street": "823 E Hamilton St",
    "city": "Milwaukee",
    "state": "Wisconsin",
    "postal_code": "53202-1555",
    "website_url": "http://www.likemindsbrewingco.com",
    "phone": "4142398587",
    "created_at": "2018-07-24 01:34:35.783351",
    "updated_at": "2018-08-24 16:44:01.923808",
    "country": "United States",
    "longitude": "-87.9014396124632",
    "latitude": "43.0542106",
    "tags": []
  },
  {
    "id": "millercoors-brewing-co-milwaukee",
    "name": "MillerCoors Brewing Co - Milwaukee",
    "brewery_type": "large",
    "street": "4251 W State St",
    "city": "Milwaukee",
    "state": "Wisconsin",
    "postal_code": "53208-3137",
    "website_url": "",
    "phone": "",
    "created_at": "2018-07-24 01:34:35.872402",
    "updated_at": "2018-08-24 16:44:11.320151",
    "country": "United States",
    "longitude": "-87.9663367938432",
    "latitude": "43.0420798126358",
    "tags": []
  },
  {
    "id": "milwaukee-brewing-co-production-facility",
    "name": "Milwaukee Brewing Co - Production facility",
    "brewery_type": "micro",
    "street": "613 S 2nd St",
    "city": "Milwaukee",
    "state": "Wisconsin",
    "postal_code": "53204-1616",
    "website_url": "http://www.ale-house.com",
    "phone": "4142262337",
    "created_at": "2018-07-24 01:34:35.8863",
    "updated_at": "2018-08-24 16:44:12.780487",
    "country": "United States",
    "longitude": "-87.9130368185914",
    "latitude": "43.02500965",
    "tags": []
  },
  {
    "id": "milwaukee-brewing-company",
    "name": "Milwaukee Brewing Company",
    "brewery_type": "micro",
    "street": "613 S 2nd St",
    "city": "Milwaukee",
    "state": "Wisconsin",
    "postal_code": "53204-1616",
    "website_url": "http://www.mkebrewing.com",
    "phone": "4142262337",
    "created_at": "2018-07-24 01:34:35.899208",
    "updated_at": "2018-08-24 16:44:14.33587",
    "country": "United States",
    "longitude": "-87.9130368185914",
    "latitude": "43.02500965",
    "tags": []
  },
  {
    "id": "rock-bottom-brewery-milwaukee",
    "name": "Rock Bottom Brewery - Milwaukee",
    "brewery_type": "brewpub",
    "street": "740 N Plankinton Ave Fl 1",
    "city": "Milwaukee",
    "state": "Wisconsin",
    "postal_code": "53203-2403",
    "website_url": "http://www.rockbottom.com",
    "phone": "4142763030",
    "created_at": "2018-07-24 01:34:36.408087",
    "updated_at": "2018-08-11 21:40:35.824346",
    "country": "United States",
    "longitude": "",
    "latitude": "",
    "tags": []
  },
  {
    "id": "pabst-milwaukee-brewery",
    "name": "Pabst Milwaukee Brewery",
    "brewery_type": "large",
    "street": "1037 W Juneau Ave",
    "city": "Milwaukee",
    "state": "Wisconsin",
    "postal_code": "53233-1405",
    "website_url": "",
    "phone": "4149080025",
    "created_at": "2018-07-24 01:34:36.16103",
    "updated_at": "2018-08-24 16:44:40.487744",
    "country": "United States",
    "longitude": "-87.9255251006808",
    "latitude": "43.04554365",
    "tags": []
  },
  {
    "id": "the-crafter-space",
    "name": "The Crafter Space",
    "brewery_type": "contract",
    "street": "1550 N Warren Ave Apt 114",
    "city": "Milwaukee",
    "state": "Wisconsin",
    "postal_code": "53202-2298",
    "website_url": "http://www.thecrafterspace.com",
    "phone": "4144188888",
    "created_at": "2018-07-24 01:34:36.847579",
    "updated_at": "2018-08-11 21:40:36.877945",
    "country": "United States",
    "longitude": "",
    "latitude": "",
    "tags": []
  },
  {
    "id": "third-space-brewing",
    "name": "Third Space Brewing",
    "brewery_type": "micro",
    "street": "1505 W Saint Paul Ave",
    "city": "Milwaukee",
    "state": "Wisconsin",
    "postal_code": "53233",
    "website_url": "http://www.thirdspacebrewing.com",
    "phone": "4149092337",
    "created_at": "2018-07-24 01:34:36.898604",
    "updated_at": "2018-08-24 16:46:02.211678",
    "country": "United States",
    "longitude": "-87.9146199",
    "latitude": "43.0346679",
    "tags": []
  },
  {
    "id": "water-street-brewery",
    "name": "Water Street Brewery",
    "brewery_type": "micro",
    "street": "1101 N Water St",
    "city": "Milwaukee",
    "state": "Wisconsin",
    "postal_code": "53202-3107",
    "website_url": "http://www.waterstreetbrewery.com",
    "phone": "4142721195",
    "created_at": "2018-07-24 01:34:37.14785",
    "updated_at": "2018-08-24 16:46:22.143196",
    "country": "United States",
    "longitude": "-87.9112223",
    "latitude": "43.0447248",
    "tags": []
  },
  {
    "id": "big-head-brewing-co",
    "name": "Big Head Brewing Co.",
    "brewery_type": "micro",
    "street": "6204 W State St",
    "city": "Milwaukee",
    "state": "Wisconsin",
    "postal_code": "53213-2906",
    "website_url": "http://www.bigheadbrewingco.com",
    "phone": "6082359636",
    "created_at": "2018-07-24 01:34:34.618837",
    "updated_at": "2018-08-24 16:42:07.915243",
    "country": "United States",
    "longitude": "-87.9201437",
    "latitude": "43.0429687",
    "tags": []
  },
  {
    "id": "lakefront-brewery-inc",
    "name": "Lakefront Brewery Inc",
    "brewery_type": "regional",
    "street": "1872 N Commerce St",
    "city": "Milwaukee",
    "state": "Wisconsin",
    "postal_code": "53212-3701",
    "website_url": "http://www.lakefrontbrewery.com",
    "phone": "4143728800",
    "created_at": "2018-07-24 01:34:35.712997",
    "updated_at": "2018-08-24 16:43:54.449315",
    "country": "United States",
    "longitude": "-87.9051723",
    "latitude": "43.0547874",
    "tags": []
  }
]