[
  {
    "id": "brewplan-inc",
    "name": "BrewPlan, Inc.",
    "brewery_type": "planning",
    "street": "",
    "city": "Onalaska",
    "state": "Wisconsin",
    "postal_code": "54650",
    "website_url": "http://www.brewplan.com",
    "phone": "6083869430",
    "created_at": "2018-07-24 01:34:34.799434",
    "updated_at": "2018-08-11 21:40:31.440361",
    "country": "United States",
    "longitude": "",
    "latitude": "",
    "tags": []
  },
  {
    "id": "skeleton-crew-brew",
    "name": "Skeleton Crew Brew",
    "brewery_type": "micro",
    "street": "575 Lester Ave Ste 206",
    "city": "Onalaska",
    "state": "Wisconsin",
    "postal_code": "54650-8694",
    "website_url": "http://www.skeletoncrewbrew.com",
    "phone": "7155709463",
    "created_at": "2018-07-24 01:34:36.62631",
    "updated_at": "2018-08-11 21:40:36.369522",
    "country": "United States",
    "longitude": "",
    "latitude": "",
    "tags": []
  },
  {
    "id": "two-beagles-brewpub",
    "name": "Two Beagles Brewpub",
    "brewery_type": "brewpub",
    "street": "910 2nd Ave N",
    "city": "Onalaska",
    "state": "Wisconsin",
    "postal_code": "54650-2277",
    "website_url": "http://www.twobeaglesbrewpub.com",
    "phone": "6085191921",
    "created_at": "2018-07-24 01:34:36.992623",
    "updated_at": "2018-08-11 21:40:37.259136",
    "country": "United States",
    "longitude": "",
    "latitude": "",
    "tags": []
  }
]