[
  {
    "id": "bare-bones-brewery",
    "name": "Bare Bones Brewery",
    "brewery_type": "brewpub",
    "street": "4362 County Rd S",
    "city": "Oshkosh",
    "state": "Wisconsin",
    "postal_code": "54904-9575",
    "website_url": "http://www.barebonesbrewery.us",
    "phone": "9207448045",
    "created_at": "2018-07-24 01:34:34.556442",
    "updated_at": "2018-08-24 16:42:00.28391",
    "country": "United States",
    "longitude": "-88.5907535444312",
    "latitude": "44.0785645737559",
    "tags": []
  },
  {
    "id": "fifth-ward-brewing-company",
    "name": "Fifth Ward Brewing Company",
    "brewery_type": "micro",
    "street": "1009 S Main St",
    "city": "Oshkosh",
    "state": "Wisconsin",
    "postal_code": "54902-6019",
    "website_url": "http://www.fifthwardbrewing.com",
    "phone": "9204791876",
    "created_at": "2018-07-24 01:34:35.234927",
    "updated_at": "2018-08-24 16:43:01.607405",
    "country": "United States",
    "longitude": "-88.5408574",
    "latitude": "44.0206919",
    "tags": []
  },
  {
    "id": "fox-river-brewing-co",
    "name": "Fox River Brewing Co",
    "brewery_type": "brewpub",
    "street": "1501 Arboretum Dr",
    "city": "Oshkosh",
    "state": "Wisconsin",
    "postal_code": "54901-2791",
    "website_url": "http://www.foxriverbrewing.com",
    "phone": "9202322337",
    "created_at": "2018-07-24 01:34:35.285637",
    "updated_at": "2018-08-24 16:43:07.65325",
    "country": "United States",
    "longitude": "-88.560941",
    "latitude": "44.036512",
    "tags": []
  },
  {
    "id": "highholder-brewing-company",
    "name": "Highholder Brewing Company",
    "brewery_type": "micro",
    "street": "2211 Oregon St",
    "city": "Oshkosh",
    "state": "Wisconsin",
    "postal_code": "54902-7001",
    "website_url": "http://www.highholderbrewing.com",
    "phone": "9207445122",
    "created_at": "2018-07-24 01:34:35.496862",
    "updated_at": "2018-08-24 16:43:29.002634",
    "country": "United States",
    "longitude": "-88.5425973061224",
    "latitude": "43.9938571836735",
    "tags": []
  }
]