[
  {
    "id": "brewery-in-planning-wausau-wi",
    "name": "Brewery in Planning - Wausau, WI",
    "brewery_type": "planning",
    "street": "",
    "city": "Wausau",
    "state": "Wisconsin",
    "postal_code": "54403",
    "website_url": "",
    "phone": "5128267012",
    "created_at": "2018-07-24 01:34:34.762256",
    "updated_at": "2018-08-11 21:40:31.284682",
    "country": "United States",
    "longitude": "",
    "latitude": "",
    "tags": []
  },
  {
    "id": "bull-falls-brewery-llc",
    "name": "Bull Falls Brewery LLC",
    "brewery_type": "micro",
    "street": "901 E Thomas St",
    "city": "Wausau",
    "state": "Wisconsin",
    "postal_code": "54403-6450",
    "website_url": "http://www.bullfallsbrewery.com",
    "phone": "715842",
    "created_at": "2018-07-24 01:34:34.852842",
    "updated_at": "2018-08-24 16:42:24.404552",
    "country": "United States",
    "longitude": "-89.6174386",
    "latitude": "44.951511",
    "tags": []
  },
  {
    "id": "great-dane-pub-and-brewing-co-wausau",
    "name": "Great Dane Pub and Brewing Co- Wausau",
    "brewery_type": "brewpub",
    "street": "2305 Sherman St",
    "city": "Wausau",
    "state": "Wisconsin",
    "postal_code": "54401-1708",
    "website_url": "http://www.greatdanepub.com",
    "phone": "7158453000",
    "created_at": "2018-07-24 01:34:35.471777",
    "updated_at": "2018-08-24 16:43:25.977859",
    "country": "United States",
    "longitude": "-89.6648256841412",
    "latitude": "44.9511963",
    "tags": []
  },
  {
    "id": "red-eye-brewing-co",
    "name": "Red Eye Brewing Co",
    "brewery_type": "brewpub",
    "street": "612 Washington St",
    "city": "Wausau",
    "state": "Wisconsin",
    "postal_code": "54403-5439",
    "website_url": "http://www.redeyebrewing.com",
    "phone": "7158437334",
    "created_at": "2018-07-24 01:34:36.370369",
    "updated_at": "2018-08-24 16:45:05.133227",
    "country": "United States",
    "longitude": "-89.6228425",
    "latitude": "44.9588496",
    "tags": []
  }
]