[
  {
    "id": "de-la-vegaas-pecan-grill-and-brewery",
    "name": "De La Vegaâs Pecan Grill and Brewery",
    "brewery_type": "contract",
    "street": "500 S Telshor Blvd",
    "city": "Las Cruces",
    "state": "New Mexico",
    "postal_code": "88011-4613",
    "website_url": "http://www.pecangrill.com",
    "phone": "5755211099",
    "created_at": "2018-07-24 01:33:47.961472",
    "updated_at": "2018-08-24 15:37:26.124585",
    "country": "United States",
    "longitude": "-106.7374222",
    "latitude": "32.3019659",
    "tags": []
  },
  {
    "id": "icebox-brewing-llc",
    "name": "Icebox Brewing LLC",
    "brewery_type": "planning",
    "street": "",
    "city": "Las Cruces",
    "state": "New Mexico",
    "postal_code": "88007-4722",
    "website_url": "",
    "phone": "5755267129",
    "created_at": "2018-07-24 01:33:48.21232",
    "updated_at": "2018-08-11 21:38:27.046685",
    "country": "United States",
    "longitude": "",
    "latitude": "",
    "tags": []
  },
  {
    "id": "new-mexico-state-university-department-of-chemical",
    "name": "New Mexico State University Department Of Chemical",
    "brewery_type": "planning",
    "street": "",
    "city": "Las Cruces",
    "state": "New Mexico",
    "postal_code": "88003",
    "website_url": "http://chme.nmsu.edu",
    "phone": "5756461213",
    "created_at": "2018-07-24 01:33:48.405086",
    "updated_at": "2018-08-11 21:38:27.619477",
    "country": "United States",
    "longitude": "",
    "latitude": "",
    "tags": []
  },
  {
    "id": "high-desert-brewing-co",
    "name": "High Desert Brewing Co",
    "brewery_type": "brewpub",
    "street": "1201 W Hadley Ave",
    "city": "Las Cruces",
    "state": "New Mexico",
    "postal_code": "88005-2422",
    "website_url": "http://www.highdesertbrewingco.com",
    "phone": "5755256752",
    "created_at": "2018-07-24 01:33:48.168169",
    "updated_at": "2018-08-24 15:37:32.525074",
    "country": "United States",
    "longitude": "-106.7934619",
    "latitude": "32.3096681",
    "tags": []
  },
  {
    "id": "picacho-peak-brewing-company",
    "name": "Picacho Peak Brewing Company",
    "brewery_type": "brewpub",
    "street": "3900 W Picacho Ave",
    "city": "Las Cruces",
    "state": "New Mexico",
    "postal_code": "88007",
    "website_url": "http://www.picachopeakbrewery.com",
    "phone": "5756806394",
    "created_at": "2018-07-24 01:33:48.445761",
    "updated_at": "2018-08-24 15:37:40.323644",
    "country": "United States",
    "longitude": "-106.8024024",
    "latitude": "32.3118566",
    "tags": []
  },
  {
    "id": "spotted-dog-brewery",
    "name": "Spotted Dog Brewery",
    "brewery_type": "brewpub",
    "street": "2920 Avenida De Mesilla",
    "city": "Las Cruces",
    "state": "New Mexico",
    "postal_code": "88005",
    "website_url": "http://www.spotteddogbrewery.com",
    "phone": "5756502729",
    "created_at": "2018-07-24 01:33:48.634618",
    "updated_at": "2018-08-24 15:37:46.857468",
    "country": "United States",
    "longitude": "-106.7852399",
    "latitude": "32.2938747",
    "tags": []
  }
]