[
  {
    "id": "brick-oven-pizza-co/-brick-and-forge-brewing",
    "name": "Brick Oven Pizza Co/ Brick & Forge Brewing",
    "brewery_type": "brewpub",
    "street": "4714 S 14th St",
    "city": "Abilene",
    "state": "Texas",
    "postal_code": "79605-4733",
    "website_url": "",
    "phone": "8702364200",
    "created_at": "2018-07-24 01:34:18.53124",
    "updated_at": "2018-08-24 16:19:30.693853",
    "country": "United States",
    "longitude": "-99.7833577689721",
    "latitude": "32.4296805543171",
    "tags": []
  },
  {
    "id": "grain-theory-brewing-company",
    "name": "Grain Theory Brewing Company",
    "brewery_type": "planning",
    "street": "",
    "city": "Abilene",
    "state": "Texas",
    "postal_code": "79601",
    "website_url": "http://www.graintheorybrewing.com",
    "phone": "2142260915",
    "created_at": "2018-07-24 01:34:19.483559",
    "updated_at": "2018-08-11 21:39:49.998636",
    "country": "United States",
    "longitude": "",
    "latitude": "",
    "tags": []
  },
  {
    "id": "pappy-slokum-brewing-co",
    "name": "Pappy Slokum Brewing Co.",
    "brewery_type": "micro",
    "street": "409 S Treadaway Blvd",
    "city": "Abilene",
    "state": "Texas",
    "postal_code": "79602-1750",
    "website_url": "http://waggonerr@gmail.com",
    "phone": "3252014112",
    "created_at": "2018-07-24 01:34:20.673601",
    "updated_at": "2018-08-24 16:22:25.596245",
    "country": "United States",
    "longitude": "-99.726991",
    "latitude": "32.444828",
    "tags": []
  },
  {
    "id": "sockdolager-brewing-company",
    "name": "Sockdolager Brewing Company",
    "brewery_type": "micro",
    "street": "720 China St",
    "city": "Abilene",
    "state": "Texas",
    "postal_code": "79602-2722",
    "website_url": "http://www.sockdolagerbrewery.com",
    "phone": "3257211718",
    "created_at": "2018-07-24 01:34:21.286839",
    "updated_at": "2018-08-24 16:23:12.120427",
    "country": "United States",
    "longitude": "-99.7270701020408",
    "latitude": "32.4413907142857",
    "tags": []
  }
]