[
  {
    "id": "pondaseta-brewing-co",
    "name": "Pondaseta Brewing Co.",
    "brewery_type": "planning",
    "street": "",
    "city": "Amarillo",
    "state": "Texas",
    "postal_code": "79119",
    "website_url": "http://www.pondaseta.com",
    "phone": "",
    "created_at": "2018-07-24 01:34:20.794222",
    "updated_at": "2018-08-11 21:39:53.282797",
    "country": "United States",
    "longitude": "",
    "latitude": "",
    "tags": []
  },
  {
    "id": "big-texan-brewery",
    "name": "Big Texan Brewery",
    "brewery_type": "brewpub",
    "street": "7701 Interstate 40 Access Rd",
    "city": "Amarillo",
    "state": "Texas",
    "postal_code": "79118-6915",
    "website_url": "http://www.bigtexan.com",
    "phone": "8063726000",
    "created_at": "2018-07-24 01:34:17.956665",
    "updated_at": "2018-08-11 21:39:46.408106",
    "country": "United States",
    "longitude": "",
    "latitude": "",
    "tags": []
  },
  {
    "id": "long-wooden-spoon-brewing",
    "name": "Long Wooden Spoon Brewing",
    "brewery_type": "micro",
    "street": "4098 Business Park Dr",
    "city": "Amarillo",
    "state": "Texas",
    "postal_code": "79110-4233",
    "website_url": "http://www.lwsbrewing.com",
    "phone": "8065530397",
    "created_at": "2018-07-24 01:34:20.169627",
    "updated_at": "2018-08-24 16:21:47.582017",
    "country": "United States",
    "longitude": "-101.883282639344",
    "latitude": "35.1428405409836",
    "tags": []
  },
  {
    "id": "six-car-pub",
    "name": "Six Car Pub",
    "brewery_type": "planning",
    "street": "",
    "city": "Amarillo",
    "state": "Texas",
    "postal_code": "79106",
    "website_url": "http://www.sixcarpub.com",
    "phone": "8062206881",
    "created_at": "2018-07-24 01:34:21.236539",
    "updated_at": "2018-08-11 21:39:54.27247",
    "country": "United States",
    "longitude": "",
    "latitude": "",
    "tags": []
  }
]