[
  {
    "id": "boerne-brewery",
    "name": "Boerne Brewery",
    "brewery_type": "micro",
    "street": "9 Hill View Ln",
    "city": "Boerne",
    "state": "Texas",
    "postal_code": "78006-7003",
    "website_url": "http://www.boernebrewery.com",
    "phone": "8306889693",
    "created_at": "2018-07-24 01:34:18.135594",
    "updated_at": "2018-08-11 21:39:46.777691",
    "country": "United States",
    "longitude": "",
    "latitude": "",
    "tags": []
  },
  {
    "id": "dodging-duck-brewhaus",
    "name": "Dodging Duck Brewhaus",
    "brewery_type": "brewpub",
    "street": "402 River Rd",
    "city": "Boerne",
    "state": "Texas",
    "postal_code": "78006-2312",
    "website_url": "http://www.dodgingduck.com",
    "phone": "8302483825",
    "created_at": "2018-07-24 01:34:18.980157",
    "updated_at": "2018-08-24 16:20:08.069776",
    "country": "United States",
    "longitude": "-98.725961627842",
    "latitude": "29.7896176101269",
    "tags": []
  },
  {
    "id": "kinematic-brewing-company",
    "name": "Kinematic Brewing Company",
    "brewery_type": "micro",
    "street": "635 State Highway 46 E Ste 207",
    "city": "Boerne",
    "state": "Texas",
    "postal_code": "78006-6010",
    "website_url": "",
    "phone": "",
    "created_at": "2018-07-24 01:34:19.943692",
    "updated_at": "2018-08-11 21:39:51.409063",
    "country": "United States",
    "longitude": "",
    "latitude": "",
    "tags": []
  },
  {
    "id": "tusculum-holdings-llc",
    "name": "Tusculum Holdings, LLC",
    "brewery_type": "planning",
    "street": "",
    "city": "Boerne",
    "state": "Texas",
    "postal_code": "78006-2334",
    "website_url": "http://www.tusculumbrewing.com",
    "phone": "3612286227",
    "created_at": "2018-07-24 01:34:21.948876",
    "updated_at": "2018-08-11 21:39:56.130563",
    "country": "United States",
    "longitude": "",
    "latitude": "",
    "tags": []
  },
  {
    "id": "cibolo-creek-brewing-co",
    "name": "Cibolo Creek Brewing Co.",
    "brewery_type": "brewpub",
    "street": "448 S Main St",
    "city": "Boerne",
    "state": "Texas",
    "postal_code": "78006-2338",
    "website_url": "http://www.cibolocreekbrewing.com",
    "phone": "8308165275",
    "created_at": "2018-07-24 01:34:18.730567",
    "updated_at": "2018-08-24 16:19:48.643945",
    "country": "United States",
    "longitude": "-98.7299602857143",
    "latitude": "29.7901542653061",
    "tags": []
  }
]