[
  {
    "id": "brewery-in-planning-college-station",
    "name": "Brewery In Planning - College Station",
    "brewery_type": "planning",
    "street": "",
    "city": "College Station",
    "state": "Texas",
    "postal_code": "77845",
    "website_url": "",
    "phone": "",
    "created_at": "2018-07-24 01:34:18.287928",
    "updated_at": "2018-08-11 21:39:47.198169",
    "country": "United States",
    "longitude": "",
    "latitude": "",
    "tags": []
  },
  {
    "id": "hullabaloo-diner",
    "name": "Hullabaloo Diner",
    "brewery_type": "brewpub",
    "street": "15045 FM 2154 Rd",
    "city": "College Station",
    "state": "Texas",
    "postal_code": "77845-3345",
    "website_url": "",
    "phone": "9796903002",
    "created_at": "2018-07-24 01:34:19.730208",
    "updated_at": "2018-08-11 21:39:50.92133",
    "country": "United States",
    "longitude": "",
    "latitude": "",
    "tags": []
  },
  {
    "id": "new-republic-brewing",
    "name": "New Republic Brewing",
    "brewery_type": "micro",
    "street": "11405 N Dowling Rd Ste C",
    "city": "College Station",
    "state": "Texas",
    "postal_code": "77845-8500",
    "website_url": "http://www.nrb.beer",
    "phone": "7134894667",
    "created_at": "2018-07-24 01:34:20.356968",
    "updated_at": "2018-08-11 21:39:52.323491",
    "country": "United States",
    "longitude": "",
    "latitude": "",
    "tags": []
  },
  {
    "id": "tree-farm-brewing-company-llc",
    "name": "Tree Farm Brewing Company, LLC",
    "brewery_type": "contract",
    "street": "3020 Papa Bear Dr",
    "city": "College Station",
    "state": "Texas",
    "postal_code": "77845-1402",
    "website_url": "http://www.treefarmbrewing.com",
    "phone": "9798200535",
    "created_at": "2018-07-24 01:34:21.870528",
    "updated_at": "2018-08-11 21:39:55.955685",
    "country": "United States",
    "longitude": "",
    "latitude": "",
    "tags": []
  }
]