[
  {
    "id": "b-and-js-handcrafted-texas-ales",
    "name": "B and J's Handcrafted Texas Ales",
    "brewery_type": "micro",
    "street": "6335 S Padre Island Dr",
    "city": "Corpus Christi",
    "state": "Texas",
    "postal_code": "78412-4013",
    "website_url": "http://pizzaandbrew@aol.com",
    "phone": "3619926671",
    "created_at": "2018-07-24 01:34:17.653694",
    "updated_at": "2018-08-24 16:18:44.749847",
    "country": "United States",
    "longitude": "-97.2962784",
    "latitude": "27.6749936",
    "tags": []
  },
  {
    "id": "coastal-bend-brewing",
    "name": "Coastal Bend Brewing",
    "brewery_type": "planning",
    "street": "",
    "city": "Corpus Christi",
    "state": "Texas",
    "postal_code": "78418-6697",
    "website_url": "http://www.coastalbendbrewing.com",
    "phone": "5126901050",
    "created_at": "2018-07-24 01:34:18.768482",
    "updated_at": "2018-08-11 21:39:48.402514",
    "country": "United States",
    "longitude": "",
    "latitude": "",
    "tags": []
  },
  {
    "id": "lazy-beach-brewing",
    "name": "Lazy Beach Brewing",
    "brewery_type": "micro",
    "street": "7522 Bichon Dr Ste 100",
    "city": "Corpus Christi",
    "state": "Texas",
    "postal_code": "78414-3910",
    "website_url": "http://lazybeachbrewing.com",
    "phone": "3616935347",
    "created_at": "2018-07-24 01:34:20.091525",
    "updated_at": "2018-08-24 16:21:40.121293",
    "country": "United States",
    "longitude": "-97.3721494",
    "latitude": "27.6545883",
    "tags": []
  },
  {
    "id": "railroad-seafood-station-and-brewing-co",
    "name": "Railroad Seafood Station & Brewing Co.",
    "brewery_type": "brewpub",
    "street": "1214 N Chaparral St",
    "city": "Corpus Christi",
    "state": "Texas",
    "postal_code": "78401-1503",
    "website_url": "http://www.railroadseafood.com",
    "phone": "3618836200",
    "created_at": "2018-07-24 01:34:20.862152",
    "updated_at": "2018-08-24 16:22:41.885099",
    "country": "United States",
    "longitude": "-97.394339623099",
    "latitude": "27.8027684970603",
    "tags": []
  },
  {
    "id": "rebel-toad-brewing-co",
    "name": "Rebel Toad Brewing Co",
    "brewery_type": "micro",
    "street": "425 William St",
    "city": "Corpus Christi",
    "state": "Texas",
    "postal_code": "78401-2538",
    "website_url": "http://www.rebeltoadbrewing.com",
    "phone": "5122211267",
    "created_at": "2018-07-24 01:34:20.901658",
    "updated_at": "2018-08-24 16:22:46.306502",
    "country": "United States",
    "longitude": "-97.3960541",
    "latitude": "27.7946329",
    "tags": []
  },
  {
    "id": "lorelei-brewing-co",
    "name": "Lorelei Brewing Co",
    "brewery_type": "micro",
    "street": "520 N A. S Dr",
    "city": "Corpus Christi",
    "state": "Texas",
    "postal_code": "78418-3254",
    "website_url": "http://www.loreleibrewing.beer",
    "phone": "3614458684",
    "created_at": "2018-07-24 01:34:20.195951",
    "updated_at": "2018-08-11 21:39:51.93064",
    "country": "United States",
    "longitude": "",
    "latitude": "",
    "tags": []
  }
]