[
  {
    "id": "humperdinks-dallas-greenville",
    "name": "Humperdinks - Dallas (Greenville)",
    "brewery_type": "brewpub",
    "street": "6050 Greenville Ave",
    "city": "Dallas",
    "state": "Texas",
    "postal_code": "75206-1909",
    "website_url": "http://www.humperdinks.com",
    "phone": "2143681203",
    "created_at": "2018-07-24 01:34:19.759786",
    "updated_at": "2018-08-24 16:21:15.030938",
    "country": "United States",
    "longitude": "-96.7679845479263",
    "latitude": "32.8586789",
    "tags": []
  },
  {
    "id": "pegasus-city-brewery",
    "name": "Pegasus City Brewery",
    "brewery_type": "micro",
    "street": "2222 Vantage St",
    "city": "Dallas",
    "state": "Texas",
    "postal_code": "75207-6102",
    "website_url": "http://www.pegasuscitybrewery.com",
    "phone": "9723667722",
    "created_at": "2018-07-24 01:34:20.701422",
    "updated_at": "2018-08-24 16:22:28.539183",
    "country": "United States",
    "longitude": "-96.8339969571821",
    "latitude": "32.7991564828495",
    "tags": []
  },
  {
    "id": "texas-ale-project",
    "name": "Texas Ale Project",
    "brewery_type": "micro",
    "street": "1001 N Riverfront Blvd",
    "city": "Dallas",
    "state": "Texas",
    "postal_code": "75207-4201",
    "website_url": "http://www.texasaleproject.com",
    "phone": "2149650606",
    "created_at": "2018-07-24 01:34:21.565986",
    "updated_at": "2018-08-24 16:23:32.87334",
    "country": "United States",
    "longitude": "-96.8148593",
    "latitude": "32.7818812",
    "tags": []
  },
  {
    "id": "steam-theory-brewing-co",
    "name": "Steam Theory Brewing Co",
    "brewery_type": "planning",
    "street": "",
    "city": "Dallas",
    "state": "Texas",
    "postal_code": "75212-4101",
    "website_url": "http://www.steamtheorybrewing.com",
    "phone": "",
    "created_at": "2018-07-24 01:34:21.479313",
    "updated_at": "2018-08-11 21:39:54.926964",
    "country": "United States",
    "longitude": "",
    "latitude": "",
    "tags": []
  },
  {
    "id": "brewery-in-planning-dallas",
    "name": "Brewery in Planning - Dallas",
    "brewery_type": "planning",
    "street": "",
    "city": "Dallas",
    "state": "Texas",
    "postal_code": "75287-6009",
    "website_url": "",
    "phone": "",
    "created_at": "2018-07-24 01:34:18.313979",
    "updated_at": "2018-08-11 21:39:47.281512",
    "country": "United States",
    "longitude": "",
    "latitude": "",
    "tags": []
  },
  {
    "id": "braindead-brewing",
    "name": "Braindead Brewing",
    "brewery_type": "brewpub",
    "street": "2625 Main St",
    "city": "Dallas",
    "state": "Texas",
    "postal_code": "75226-1411",
    "website_url": "http://www.braindeadbrewing.com",
    "phone": "4692869005",
    "created_at": "2018-07-24 01:34:18.1488",
    "updated_at": "2018-08-24 16:19:24.680378",
    "country": "United States",
    "longitude": "-96.7854202",
    "latitude": "32.7838067",
    "tags": []
  },
  {
    "id": "deanitude-brewing-company-llc",
    "name": "Deanitude Brewing Company, LLC",
    "brewery_type": "planning",
    "street": "",
    "city": "Dallas",
    "state": "Texas",
    "postal_code": "75225-0734",
    "website_url": "http://www.deanitudebrewing.com",
    "phone": "2143600004",
    "created_at": "2018-07-24 01:34:18.885158",
    "updated_at": "2018-08-11 21:39:48.659059",
    "country": "United States",
    "longitude": "",
    "latitude": "",
    "tags": []
  },
  {
    "id": "community-beer-co",
    "name": "Community Beer Co",
    "brewery_type": "regional",
    "street": "1530 Inspiration Dr # 200",
    "city": "Dallas",
    "state": "Texas",
    "postal_code": "75207-3703",
    "website_url": "",
    "phone": "",
    "created_at": "2018-07-24 01:34:18.780951",
    "updated_at": "2018-08-24 16:19:53.07817",
    "country": "United States",
    "longitude": "-96.8165879157057",
    "latitude": "32.7917789589184",
    "tags": []
  },
  {
    "id": "deep-ellum-brewing-co",
    "name": "Deep Ellum Brewing Co",
    "brewery_type": "regional",
    "street": "2821 Saint Louis St",
    "city": "Dallas",
    "state": "Texas",
    "postal_code": "75226-1904",
    "website_url": "http://www.deepellumbrewing.com",
    "phone": "2148883322",
    "created_at": "2018-07-24 01:34:18.899637",
    "updated_at": "2018-08-24 16:19:58.986308",
    "country": "United States",
    "longitude": "-96.7815684545455",
    "latitude": "32.7806273333333",
    "tags": []
  },
  {
    "id": "four-corners-brewing-co",
    "name": "Four Corners Brewing Co",
    "brewery_type": "micro",
    "street": "423 Singleton Blvd",
    "city": "Dallas",
    "state": "Texas",
    "postal_code": "75212-4104",
    "website_url": "http://www.fcbrewing.com",
    "phone": "2147482739",
    "created_at": "2018-07-24 01:34:19.231958",
    "updated_at": "2018-08-24 16:20:29.387764",
    "country": "United States",
    "longitude": "-96.830624167423",
    "latitude": "32.7793491",
    "tags": []
  },
  {
    "id": "four-corners-brewing-co",
    "name": "Four Corners Brewing Co",
    "brewery_type": "micro",
    "street": "1311 S Ervay St",
    "city": "Dallas",
    "state": "Texas",
    "postal_code": "75215",
    "website_url": "",
    "phone": "2147482739",
    "created_at": "2018-07-24 01:34:19.244398",
    "updated_at": "2018-08-24 16:20:30.87979",
    "country": "United States",
    "longitude": "-96.79155915",
    "latitude": "32.77172705",
    "tags": []
  },
  {
    "id": "humperdinks-restaurant",
    "name": "Humperdinks Restaurant",
    "brewery_type": "brewpub",
    "street": "2208 W Northwest Hwy",
    "city": "Dallas",
    "state": "Texas",
    "postal_code": "75220-4305",
    "website_url": "http://www.humperdinks.com",
    "phone": "2143584159",
    "created_at": "2018-07-24 01:34:19.779758",
    "updated_at": "2018-08-24 16:21:16.515745",
    "country": "United States",
    "longitude": "-96.89898835301",
    "latitude": "32.8637821",
    "tags": []
  },
  {
    "id": "noble-rey-brewing-company",
    "name": "Noble Rey Brewing Company",
    "brewery_type": "micro",
    "street": "2636 Farrington St",
    "city": "Dallas",
    "state": "Texas",
    "postal_code": "75207-5908",
    "website_url": "http://www.noblereybrewing.com",
    "phone": "9726777612",
    "created_at": "2018-07-24 01:34:20.4113",
    "updated_at": "2018-08-24 16:22:05.634163",
    "country": "United States",
    "longitude": "-96.8395214545454",
    "latitude": "32.7999840454545",
    "tags": []
  },
  {
    "id": "oak-cliff-brewing-co",
    "name": "Oak Cliff Brewing Co",
    "brewery_type": "planning",
    "street": "",
    "city": "Dallas",
    "state": "Texas",
    "postal_code": "75224-1305",
    "website_url": "",
    "phone": "",
    "created_at": "2018-07-24 01:34:20.472036",
    "updated_at": "2018-08-11 21:39:52.578073",
    "country": "United States",
    "longitude": "",
    "latitude": "",
    "tags": []
  },
  {
    "id": "oak-highlands-brewery",
    "name": "Oak Highlands Brewery",
    "brewery_type": "micro",
    "street": "10484 Brockwood Rd",
    "city": "Dallas",
    "state": "Texas",
    "postal_code": "75238-1640",
    "website_url": "http://www.ohbrewery.com",
    "phone": "4698029455",
    "created_at": "2018-07-24 01:34:20.487553",
    "updated_at": "2018-08-11 21:39:52.609354",
    "country": "United States",
    "longitude": "",
    "latitude": "",
    "tags": []
  },
  {
    "id": "peticolas-brewing-co",
    "name": "Peticolas Brewing Co",
    "brewery_type": "micro",
    "street": "2026 Farrington St",
    "city": "Dallas",
    "state": "Texas",
    "postal_code": "75207-6616",
    "website_url": "http://www.peticolasbrewing.com",
    "phone": "2142347600",
    "created_at": "2018-07-24 01:34:20.714374",
    "updated_at": "2018-08-24 16:22:30.010293",
    "country": "United States",
    "longitude": "-96.8303188181818",
    "latitude": "32.7967768686869",
    "tags": []
  },
  {
    "id": "small-brewpub",
    "name": "Small Brewpub",
    "brewery_type": "brewpub",
    "street": "333 W Jefferson Blvd",
    "city": "Dallas",
    "state": "Texas",
    "postal_code": "75208-4602",
    "website_url": "http://www.smallbrewpub.com",
    "phone": "9728631594",
    "created_at": "2018-07-24 01:34:21.274068",
    "updated_at": "2018-08-24 16:23:10.628327",
    "country": "United States",
    "longitude": "-96.924553",
    "latitude": "32.747739",
    "tags": []
  },
  {
    "id": "the-malai-kitchen",
    "name": "The Malai Kitchen",
    "brewery_type": "brewpub",
    "street": "3699 McKinney Ave Ste 319",
    "city": "Dallas",
    "state": "Texas",
    "postal_code": "75204-4563",
    "website_url": "http://www.malaikitchen.com",
    "phone": "2145997857",
    "created_at": "2018-07-24 01:34:21.717047",
    "updated_at": "2018-08-24 16:23:46.816604",
    "country": "United States",
    "longitude": "-96.796677",
    "latitude": "32.808204",
    "tags": []
  },
  {
    "id": "westlake-brewing-company",
    "name": "Westlake Brewing Company",
    "brewery_type": "planning",
    "street": "",
    "city": "Dallas",
    "state": "Texas",
    "postal_code": "75226-1607",
    "website_url": "http://www.westlakebeer.com",
    "phone": "8779942337",
    "created_at": "2018-07-24 01:34:22.200554",
    "updated_at": "2018-08-11 21:39:56.617004",
    "country": "United States",
    "longitude": "",
    "latitude": "",
    "tags": []
  },
  {
    "id": "white-rock-alehouse-and-brewery",
    "name": "White Rock Alehouse & Brewery",
    "brewery_type": "brewpub",
    "street": "7331 Gaston Ave, Suite 100",
    "city": "Dallas",
    "state": "Texas",
    "postal_code": "75214",
    "website_url": "http://www.whiterockalehouse.com",
    "phone": "2149897570",
    "created_at": "2018-07-24 01:34:22.213578",
    "updated_at": "2018-08-11 21:39:56.642725",
    "country": "United States",
    "longitude": "",
    "latitude": "",
    "tags": []
  },
  {
    "id": "on-rotation-brewery",
    "name": "On Rotation Brewery",
    "brewery_type": "micro",
    "street": "7328 Gaston Ave # 110",
    "city": "Dallas",
    "state": "Texas",
    "postal_code": "75214-4130",
    "website_url": "http://www.on-rotation.com",
    "phone": "9728072588",
    "created_at": "2018-07-24 01:34:20.589986",
    "updated_at": "2018-08-24 16:22:16.067119",
    "country": "United States",
    "longitude": "-96.731396",
    "latitude": "32.8109335",
    "tags": []
  }
]