[
  {
    "id": "acopon-brewing-co",
    "name": "Acopon Brewing Co",
    "brewery_type": "micro",
    "street": "211 W Mercer St",
    "city": "Dripping Springs",
    "state": "Texas",
    "postal_code": "78620-5363",
    "website_url": "http://www.acoponbrewing.com",
    "phone": "5128294723",
    "created_at": "2018-07-24 01:34:17.458271",
    "updated_at": "2018-08-24 16:18:29.761508",
    "country": "United States",
    "longitude": "-98.0900620791126",
    "latitude": "30.1926995701728",
    "tags": []
  },
  {
    "id": "suds-monkey-brewing",
    "name": "Suds Monkey Brewing",
    "brewery_type": "micro",
    "street": "1032 Canyon Bend Dr Suite A",
    "city": "Dripping Springs",
    "state": "Texas",
    "postal_code": "78620-5355",
    "website_url": "http://www.sudsmonkeybrew.com",
    "phone": "5122223893",
    "created_at": "2018-07-24 01:34:21.528787",
    "updated_at": "2018-08-11 21:39:55.094297",
    "country": "United States",
    "longitude": "",
    "latitude": "",
    "tags": []
  },
  {
    "id": "twisted-x-brewing-co",
    "name": "Twisted X Brewing Co",
    "brewery_type": "micro",
    "street": "23455 West RR 150",
    "city": "Dripping Springs",
    "state": "Texas",
    "postal_code": "78620",
    "website_url": "http://www.twistedxbrewing.com",
    "phone": "5128295323",
    "created_at": "2018-07-24 01:34:21.990616",
    "updated_at": "2018-08-11 21:39:56.212716",
    "country": "United States",
    "longitude": "",
    "latitude": "",
    "tags": []
  },
  {
    "id": "family-business-beer-company",
    "name": "Family Business Beer Company",
    "brewery_type": "micro",
    "street": "19510 Hamilton Pool Rd",
    "city": "Dripping Springs",
    "state": "Texas",
    "postal_code": "78620-2823",
    "website_url": "http://www.familybusinessbeerco.com",
    "phone": "5128294202",
    "created_at": "2018-07-24 01:34:19.100131",
    "updated_at": "2018-08-11 21:39:49.168601",
    "country": "United States",
    "longitude": "",
    "latitude": "",
    "tags": []
  }
]