[
  {
    "id": "brewery-in-planning-fort-worth",
    "name": "Brewery In Planning - Fort Worth",
    "brewery_type": "planning",
    "street": "",
    "city": "Fort Worth",
    "state": "Texas",
    "postal_code": "76116",
    "website_url": "",
    "phone": "",
    "created_at": "2018-07-24 01:34:18.330336",
    "updated_at": "2018-08-11 21:39:47.353382",
    "country": "United States",
    "longitude": "",
    "latitude": "",
    "tags": []
  },
  {
    "id": "cowtown-brewing-company",
    "name": "Cowtown Brewing Company",
    "brewery_type": "planning",
    "street": "",
    "city": "Fort Worth",
    "state": "Texas",
    "postal_code": "76102-2408",
    "website_url": "http://www.cowtownbrewco.com",
    "phone": "",
    "created_at": "2018-07-24 01:34:18.819826",
    "updated_at": "2018-08-11 21:39:48.511157",
    "country": "United States",
    "longitude": "",
    "latitude": "",
    "tags": []
  },
  {
    "id": "chimera-brewing-company",
    "name": "Chimera Brewing Company",
    "brewery_type": "brewpub",
    "street": "1001 W Magnolia Ave",
    "city": "Fort Worth",
    "state": "Texas",
    "postal_code": "76104-4504",
    "website_url": "http://www.chimerabrew.com",
    "phone": "8179238000",
    "created_at": "2018-07-24 01:34:18.717354",
    "updated_at": "2018-08-24 16:19:47.155675",
    "country": "United States",
    "longitude": "-97.3352878163492",
    "latitude": "32.7303843",
    "tags": []
  },
  {
    "id": "fort-brewery-and-pizza",
    "name": "Fort Brewery and Pizza",
    "brewery_type": "brewpub",
    "street": "1001 W Magnolia Ave",
    "city": "Fort Worth",
    "state": "Texas",
    "postal_code": "76104-4504",
    "website_url": "http://www.fortbrewery.com",
    "phone": "5125697369",
    "created_at": "2018-07-24 01:34:19.199081",
    "updated_at": "2018-08-24 16:20:26.343671",
    "country": "United States",
    "longitude": "-97.3352878163492",
    "latitude": "32.7303843",
    "tags": []
  },
  {
    "id": "hopfusion-ale-works",
    "name": "Hopfusion Ale Works",
    "brewery_type": "micro",
    "street": "200 E Broadway Ave",
    "city": "Fort Worth",
    "state": "Texas",
    "postal_code": "76104-1302",
    "website_url": "http://www.hopfusionaleworks.com",
    "phone": "6828411721",
    "created_at": "2018-07-24 01:34:19.663809",
    "updated_at": "2018-08-24 16:21:07.233174",
    "country": "United States",
    "longitude": "-97.324895",
    "latitude": "32.741719",
    "tags": []
  },
  {
    "id": "malai-fort-worth",
    "name": "Malai Fort Worth",
    "brewery_type": "brewpub",
    "street": "5289 Monahans Ave",
    "city": "Fort Worth",
    "state": "Texas",
    "postal_code": "76109",
    "website_url": "",
    "phone": "6827073959",
    "created_at": "2018-07-24 01:34:20.221918",
    "updated_at": "2018-08-11 21:39:51.987887",
    "country": "United States",
    "longitude": "",
    "latitude": "",
    "tags": []
  },
  {
    "id": "maple-branch-craft-brewery",
    "name": "Maple Branch Craft Brewery",
    "brewery_type": "planning",
    "street": "",
    "city": "Fort Worth",
    "state": "Texas",
    "postal_code": "76133-1226",
    "website_url": "https://www.maplebranchbrew.com/",
    "phone": "3149108854",
    "created_at": "2018-07-24 01:34:20.251059",
    "updated_at": "2018-08-11 21:39:52.053366",
    "country": "United States",
    "longitude": "",
    "latitude": "",
    "tags": []
  },
  {
    "id": "martin-house-brewing-company",
    "name": "Martin House Brewing Company",
    "brewery_type": "micro",
    "street": "220 S Sylvania Ave Ste 209",
    "city": "Fort Worth",
    "state": "Texas",
    "postal_code": "76111-2232",
    "website_url": "http://www.martinhousebrewing.com",
    "phone": "8172220177",
    "created_at": "2018-07-24 01:34:20.263924",
    "updated_at": "2018-08-11 21:39:52.104065",
    "country": "United States",
    "longitude": "",
    "latitude": "",
    "tags": []
  },
  {
    "id": "millercoors-brewing-co-fort-worth",
    "name": "MillerCoors Brewing Co - Fort Worth",
    "brewery_type": "large",
    "street": "7001 South Fwy",
    "city": "Fort Worth",
    "state": "Texas",
    "postal_code": "76134-4001",
    "website_url": "http://www.millerbrewing.com",
    "phone": "8175513255",
    "created_at": "2018-07-24 01:34:20.289878",
    "updated_at": "2018-08-24 16:21:55.028702",
    "country": "United States",
    "longitude": "-97.3194181",
    "latitude": "32.6411318",
    "tags": []
  },
  {
    "id": "panther-island-brewing-company",
    "name": "Panther Island Brewing Company",
    "brewery_type": "micro",
    "street": "501 N Main St",
    "city": "Fort Worth",
    "state": "Texas",
    "postal_code": "76164-9508",
    "website_url": "http://www.pantherislandbrewing.com",
    "phone": "8178828121",
    "created_at": "2018-07-24 01:34:20.660041",
    "updated_at": "2018-08-24 16:22:24.086017",
    "country": "United States",
    "longitude": "-97.3379353773193",
    "latitude": "32.7636809",
    "tags": []
  },
  {
    "id": "rahr-and-sons-brewing-co",
    "name": "Rahr and Sons Brewing Co",
    "brewery_type": "regional",
    "street": "701 Galveston Ave",
    "city": "Fort Worth",
    "state": "Texas",
    "postal_code": "76104-3355",
    "website_url": "http://www.rahrbrewing.com",
    "phone": "8178109266",
    "created_at": "2018-07-24 01:34:20.834778",
    "updated_at": "2018-08-24 16:22:38.997545",
    "country": "United States",
    "longitude": "-97.327292",
    "latitude": "32.7371",
    "tags": []
  },
  {
    "id": "the-collective-brewing-project",
    "name": "The Collective Brewing Project",
    "brewery_type": "micro",
    "street": "112 Saint Louis Ave",
    "city": "Fort Worth",
    "state": "Texas",
    "postal_code": "76104-1228",
    "website_url": "",
    "phone": "",
    "created_at": "2018-07-24 01:34:21.691621",
    "updated_at": "2018-08-24 16:23:45.204991",
    "country": "United States",
    "longitude": "-97.3287922727273",
    "latitude": "32.7435232424242",
    "tags": []
  },
  {
    "id": "wild-acre-brewing-company",
    "name": "Wild Acre Brewing Company",
    "brewery_type": "micro",
    "street": "1734 E El Paso St Ste 190",
    "city": "Fort Worth",
    "state": "Texas",
    "postal_code": "76102-6773",
    "website_url": "http://www.wildacrebrewing.com",
    "phone": "8178829453",
    "created_at": "2018-07-24 01:34:22.290561",
    "updated_at": "2018-08-11 21:39:56.806541",
    "country": "United States",
    "longitude": "",
    "latitude": "",
    "tags": []
  }
]