[
  {
    "id": "beerfoot-beach-bar",
    "name": "Beerfoot Beach Bar",
    "brewery_type": "micro",
    "street": "2816 Avenue R 1/2",
    "city": "Galveston",
    "state": "Texas",
    "postal_code": "77550-7742",
    "website_url": "http://www.yagaspresents.com/beerfoot/index.html",
    "phone": "4097622337",
    "created_at": "2018-07-24 01:34:17.909833",
    "updated_at": "2018-08-11 21:39:46.328045",
    "country": "United States",
    "longitude": "",
    "latitude": "",
    "tags": []
  },
  {
    "id": "brews-brothers",
    "name": "Brews Brothers",
    "brewery_type": "brewpub",
    "street": "2404 Strand St",
    "city": "Galveston",
    "state": "Texas",
    "postal_code": "77550-1412",
    "website_url": "",
    "phone": "4097632739",
    "created_at": "2018-07-24 01:34:18.516898",
    "updated_at": "2018-08-11 21:39:47.793251",
    "country": "United States",
    "longitude": "",
    "latitude": "",
    "tags": []
  },
  {
    "id": "devil-and-the-deep",
    "name": "Devil and the Deep",
    "brewery_type": "micro",
    "street": "2425 Postoffice St",
    "city": "Galveston",
    "state": "Texas",
    "postal_code": "77550-4629",
    "website_url": "http://www.devilandthedeep.com",
    "phone": "7134028868",
    "created_at": "2018-07-24 01:34:18.940433",
    "updated_at": "2018-08-11 21:39:48.783946",
    "country": "United States",
    "longitude": "",
    "latitude": "",
    "tags": []
  },
  {
    "id": "galveston-island-brewing",
    "name": "Galveston Island Brewing",
    "brewery_type": "micro",
    "street": "8423 Stewart Rd",
    "city": "Galveston",
    "state": "Texas",
    "postal_code": "77554-9242",
    "website_url": "http://www.GalvestonIslandBrewing.com",
    "phone": "4097407000",
    "created_at": "2018-07-24 01:34:19.40748",
    "updated_at": "2018-08-24 16:20:46.335656",
    "country": "United States",
    "longitude": "-94.8491535",
    "latitude": "29.2556439",
    "tags": []
  }
]