[
  {
    "id": "brewery-in-planning-somerville-ma",
    "name": "Brewery In Planning - Somerville, MA",
    "brewery_type": "planning",
    "street": "",
    "city": "Houston",
    "state": "Texas",
    "postal_code": "77043-4718",
    "website_url": "",
    "phone": "",
    "created_at": "2018-07-24 01:34:18.448964",
    "updated_at": "2018-08-11 21:39:47.661227",
    "country": "United States",
    "longitude": "",
    "latitude": "",
    "tags": []
  },
  {
    "id": "28th-state-brewing",
    "name": "28th State Brewing",
    "brewery_type": "planning",
    "street": "",
    "city": "Houston",
    "state": "Texas",
    "postal_code": "77095-6933",
    "website_url": "",
    "phone": "",
    "created_at": "2018-07-24 01:34:17.352535",
    "updated_at": "2018-08-11 21:39:44.636415",
    "country": "United States",
    "longitude": "",
    "latitude": "",
    "tags": []
  },
  {
    "id": "11-below-brewing-company",
    "name": "11 Below Brewing Company",
    "brewery_type": "micro",
    "street": "6820 Bourgeois Rd",
    "city": "Houston",
    "state": "Texas",
    "postal_code": "77066-3107",
    "website_url": "http://www.11belowbrewing.com",
    "phone": "2814442337",
    "created_at": "2018-07-24 01:34:17.33995",
    "updated_at": "2018-08-24 16:18:20.582961",
    "country": "United States",
    "longitude": "-95.5186591",
    "latitude": "29.9515464",
    "tags": []
  },
  {
    "id": "8th-wonder-brewery",
    "name": "8th Wonder Brewery",
    "brewery_type": "micro",
    "street": "2202 Dallas St",
    "city": "Houston",
    "state": "Texas",
    "postal_code": "77003-3519",
    "website_url": "http://www.8thwonderbrew.com",
    "phone": "7133970072",
    "created_at": "2018-07-24 01:34:17.432085",
    "updated_at": "2018-08-24 16:18:26.748515",
    "country": "United States",
    "longitude": "-95.3559402",
    "latitude": "29.7487783",
    "tags": []
  },
  {
    "id": "anheuser-busch-inc-a-houston",
    "name": "Anheuser-Busch Inc â Houston",
    "brewery_type": "large",
    "street": "775 Gellhorn Dr",
    "city": "Houston",
    "state": "Texas",
    "postal_code": "77029-1496",
    "website_url": "",
    "phone": "7136752311",
    "created_at": "2018-07-24 01:34:17.553656",
    "updated_at": "2018-08-24 16:18:35.809278",
    "country": "United States",
    "longitude": "-95.2713067375068",
    "latitude": "29.771858",
    "tags": []
  },
  {
    "id": "brewery-in-planning-houston",
    "name": "Brewery in Planning - Houston",
    "brewery_type": "planning",
    "street": "",
    "city": "Houston",
    "state": "Texas",
    "postal_code": "77024-4116",
    "website_url": "",
    "phone": "2817483017",
    "created_at": "2018-07-24 01:34:18.383033",
    "updated_at": "2018-08-11 21:39:47.449419",
    "country": "United States",
    "longitude": "",
    "latitude": "",
    "tags": []
  },
  {
    "id": "baileson-brewing-company-llc",
    "name": "Baileson Brewing Company, LLC",
    "brewery_type": "micro",
    "street": "2322 Bissonnet St",
    "city": "Houston",
    "state": "Texas",
    "postal_code": "77005-1512",
    "website_url": "http://www.bailesonbrewing.com",
    "phone": "8325169828",
    "created_at": "2018-07-24 01:34:17.71893",
    "updated_at": "2018-08-24 16:18:50.767103",
    "country": "United States",
    "longitude": "-95.4133746530612",
    "latitude": "29.7256240408163",
    "tags": []
  },
  {
    "id": "brash",
    "name": "Brash",
    "brewery_type": "micro",
    "street": "508 W Crosstimbers St",
    "city": "Houston",
    "state": "Texas",
    "postal_code": "77018-5521",
    "website_url": "http://www.brashbeers.com",
    "phone": "",
    "created_at": "2018-07-24 01:34:18.177057",
    "updated_at": "2018-08-24 16:19:26.139684",
    "country": "United States",
    "longitude": "-95.4097416610738",
    "latitude": "29.8272753825503",
    "tags": []
  },
  {
    "id": "buffalo-bayou-brewing-co",
    "name": "Buffalo Bayou Brewing Co",
    "brewery_type": "micro",
    "street": "5301 Nolda St",
    "city": "Houston",
    "state": "Texas",
    "postal_code": "77007-2234",
    "website_url": "http://www.buffbrew.com",
    "phone": "7137509795",
    "created_at": "2018-07-24 01:34:18.599185",
    "updated_at": "2018-08-24 16:19:38.345589",
    "country": "United States",
    "longitude": "-95.4160849",
    "latitude": "29.775978",
    "tags": []
  },
  {
    "id": "city-acre-brewing-co",
    "name": "City Acre Brewing Co",
    "brewery_type": "brewpub",
    "street": "3418 Topping St",
    "city": "Houston",
    "state": "Texas",
    "postal_code": "77093",
    "website_url": "http://www.cityacrebrewing.com",
    "phone": "8323770237",
    "created_at": "2018-07-24 01:34:18.756429",
    "updated_at": "2018-08-24 16:19:51.618042",
    "country": "United States",
    "longitude": "-95.3350882",
    "latitude": "29.8570358",
    "tags": []
  },
  {
    "id": "eureka-heights-brewing-company",
    "name": "Eureka Heights Brewing Company",
    "brewery_type": "micro",
    "street": "941 W 18th St",
    "city": "Houston",
    "state": "Texas",
    "postal_code": "77008-3336",
    "website_url": "http://www.eurekaheights.com",
    "phone": "8329534677",
    "created_at": "2018-07-24 01:34:19.086469",
    "updated_at": "2018-08-24 16:20:17.400383",
    "country": "United States",
    "longitude": "-95.4164348",
    "latitude": "29.8019913",
    "tags": []
  },
  {
    "id": "flying-rhino-brewing-company",
    "name": "Flying Rhino Brewing Company",
    "brewery_type": "planning",
    "street": "",
    "city": "Houston",
    "state": "Texas",
    "postal_code": "77077-6108",
    "website_url": "http://flyingrhinobrewing.com/",
    "phone": "8326510114",
    "created_at": "2018-07-24 01:34:19.184641",
    "updated_at": "2018-08-11 21:39:49.358018",
    "country": "United States",
    "longitude": "",
    "latitude": "",
    "tags": []
  },
  {
    "id": "holler-brewing-company",
    "name": "Holler Brewing Company",
    "brewery_type": "micro",
    "street": "2206 Edwards St Ste A",
    "city": "Houston",
    "state": "Texas",
    "postal_code": "77007-4412",
    "website_url": "http://www.hollerbeer.com",
    "phone": "8327810555",
    "created_at": "2018-07-24 01:34:19.636599",
    "updated_at": "2018-08-11 21:39:50.672805",
    "country": "United States",
    "longitude": "",
    "latitude": "",
    "tags": []
  },
  {
    "id": "great-heights-brewing-company",
    "name": "Great Heights Brewing Company",
    "brewery_type": "micro",
    "street": "938 Wakefield Dr",
    "city": "Houston",
    "state": "Texas",
    "postal_code": "77018-6204",
    "website_url": "http://www.greatheightsbrewing.com",
    "phone": "2812206900",
    "created_at": "2018-07-24 01:34:19.526239",
    "updated_at": "2018-08-24 16:20:56.762745",
    "country": "United States",
    "longitude": "-95.4223629",
    "latitude": "29.8216738",
    "tags": []
  },
  {
    "id": "industry-brewery",
    "name": "Industry Brewery",
    "brewery_type": "planning",
    "street": "",
    "city": "Houston",
    "state": "Texas",
    "postal_code": "77024-7146",
    "website_url": "",
    "phone": "7138514130",
    "created_at": "2018-07-24 01:34:19.823015",
    "updated_at": "2018-08-11 21:39:51.107767",
    "country": "United States",
    "longitude": "",
    "latitude": "",
    "tags": []
  },
  {
    "id": "klaus-brewing-company",
    "name": "Klaus Brewing Company",
    "brewery_type": "planning",
    "street": "",
    "city": "Houston",
    "state": "Texas",
    "postal_code": "77065",
    "website_url": "http://www.klausbrewing.com",
    "phone": "7134985004",
    "created_at": "2018-07-24 01:34:19.956538",
    "updated_at": "2018-08-11 21:39:51.439476",
    "country": "United States",
    "longitude": "",
    "latitude": "",
    "tags": []
  },
  {
    "id": "local-group-brewing-company-llc",
    "name": "Local Group Brewing Company, LLC.",
    "brewery_type": "planning",
    "street": "",
    "city": "Houston",
    "state": "Texas",
    "postal_code": "77008-6844",
    "website_url": "",
    "phone": "",
    "created_at": "2018-07-24 01:34:20.144",
    "updated_at": "2018-08-11 21:39:51.812172",
    "country": "United States",
    "longitude": "",
    "latitude": "",
    "tags": []
  },
  {
    "id": "mallory-brewing",
    "name": "Mallory Brewing",
    "brewery_type": "planning",
    "street": "",
    "city": "Houston",
    "state": "Texas",
    "postal_code": "77018",
    "website_url": "",
    "phone": "",
    "created_at": "2018-07-24 01:34:20.237906",
    "updated_at": "2018-08-11 21:39:52.01701",
    "country": "United States",
    "longitude": "",
    "latitude": "",
    "tags": []
  },
  {
    "id": "karbach-brewing-co",
    "name": "Karbach Brewing Co",
    "brewery_type": "large",
    "street": "2032 Karbach St",
    "city": "Houston",
    "state": "Texas",
    "postal_code": "77092-8406",
    "website_url": "",
    "phone": "",
    "created_at": "2018-07-24 01:34:19.91686",
    "updated_at": "2018-08-24 16:21:28.310369",
    "country": "United States",
    "longitude": "-95.4605283",
    "latitude": "29.8063812",
    "tags": []
  },
  {
    "id": "moon-tower-sudworks",
    "name": "Moon Tower Sudworks",
    "brewery_type": "brewpub",
    "street": "3004 Canal St",
    "city": "Houston",
    "state": "Texas",
    "postal_code": "77003-1627",
    "website_url": "http://www.damngoodfoodcoldassbeer.com",
    "phone": "8322660105",
    "created_at": "2018-07-24 01:34:20.302645",
    "updated_at": "2018-08-24 16:21:56.511865",
    "country": "United States",
    "longitude": "-95.3409715",
    "latitude": "29.7543105",
    "tags": []
  },
  {
    "id": "platypus-brewing",
    "name": "Platypus Brewing",
    "brewery_type": "brewpub",
    "street": "1902 Washington Ave Ste E",
    "city": "Houston",
    "state": "Texas",
    "postal_code": "77007-6414",
    "website_url": "http://www.platypusbrewing.com",
    "phone": "8329858007",
    "created_at": "2018-07-24 01:34:20.780626",
    "updated_at": "2018-08-11 21:39:53.253018",
    "country": "United States",
    "longitude": "",
    "latitude": "",
    "tags": []
  },
  {
    "id": "ruba-brewing",
    "name": "Ruba Brewing",
    "brewery_type": "micro",
    "street": "3310 Buttercup St",
    "city": "Houston",
    "state": "Texas",
    "postal_code": "77063",
    "website_url": "",
    "phone": "",
    "created_at": "2018-07-24 01:34:21.033966",
    "updated_at": "2018-08-24 16:22:56.638148",
    "country": "United States",
    "longitude": "-95.5169485918367",
    "latitude": "29.7287966938776",
    "tags": []
  },
  {
    "id": "saint-arnold-brewing-co",
    "name": "Saint Arnold Brewing Co",
    "brewery_type": "regional",
    "street": "2000 Lyons Ave",
    "city": "Houston",
    "state": "Texas",
    "postal_code": "77020-2028",
    "website_url": "http://www.saintarnold.com",
    "phone": "7136869494",
    "created_at": "2018-07-24 01:34:21.074413",
    "updated_at": "2018-08-24 16:22:59.506482",
    "country": "United States",
    "longitude": "-95.3484665615608",
    "latitude": "29.77112745",
    "tags": []
  },
  {
    "id": "southern-yankee-beer-company",
    "name": "Southern Yankee Beer Company",
    "brewery_type": "planning",
    "street": "",
    "city": "Houston",
    "state": "Texas",
    "postal_code": "77073",
    "website_url": "http://southernyankeebeer.com",
    "phone": "",
    "created_at": "2018-07-24 01:34:21.393395",
    "updated_at": "2018-08-11 21:39:54.61198",
    "country": "United States",
    "longitude": "",
    "latitude": "",
    "tags": []
  },
  {
    "id": "sigma-brewing-company",
    "name": "Sigma Brewing Company",
    "brewery_type": "micro",
    "street": "3118 Harrisburg Blvd # 108",
    "city": "Houston",
    "state": "Texas",
    "postal_code": "77003-2334",
    "website_url": "http://www.sigmabrewingcompany.com",
    "phone": "3463523190",
    "created_at": "2018-07-24 01:34:21.207438",
    "updated_at": "2018-08-24 16:23:07.330611",
    "country": "United States",
    "longitude": "-95.3435901",
    "latitude": "29.7489938",
    "tags": []
  },
  {
    "id": "spindletap-brewery",
    "name": "Spindletap Brewery",
    "brewery_type": "micro",
    "street": "10622 Hirsch Rd",
    "city": "Houston",
    "state": "Texas",
    "postal_code": "77016-2622",
    "website_url": "http://www.spindletap.com",
    "phone": "7133251477",
    "created_at": "2018-07-24 01:34:21.406281",
    "updated_at": "2018-08-24 16:23:21.025521",
    "country": "United States",
    "longitude": "-95.3149254",
    "latitude": "29.8677396",
    "tags": []
  },
  {
    "id": "the-phoenix-on-westheimer",
    "name": "The Phoenix On Westheimer",
    "brewery_type": "brewpub",
    "street": "1915 Westheimer Rd",
    "city": "Houston",
    "state": "Texas",
    "postal_code": "77098-1521",
    "website_url": "http://www.phoenixow.com",
    "phone": "7135263100",
    "created_at": "2018-07-24 01:34:21.741659",
    "updated_at": "2018-08-24 16:23:49.879091",
    "country": "United States",
    "longitude": "-95.4966157",
    "latitude": "29.7377481",
    "tags": []
  },
  {
    "id": "true-anomaly-brewing",
    "name": "True Anomaly Brewing",
    "brewery_type": "planning",
    "street": "",
    "city": "Houston",
    "state": "Texas",
    "postal_code": "77003",
    "website_url": "http://www.trueanomalybrewing.com",
    "phone": "3467045701",
    "created_at": "2018-07-24 01:34:21.895964",
    "updated_at": "2018-08-11 21:39:56.022955",
    "country": "United States",
    "longitude": "",
    "latitude": "",
    "tags": []
  },
  {
    "id": "whitis-aleworks",
    "name": "Whitis AleWorks",
    "brewery_type": "planning",
    "street": "",
    "city": "Houston",
    "state": "Texas",
    "postal_code": "77069-3424",
    "website_url": "",
    "phone": "",
    "created_at": "2018-07-24 01:34:22.239424",
    "updated_at": "2018-08-11 21:39:56.698725",
    "country": "United States",
    "longitude": "",
    "latitude": "",
    "tags": []
  },
  {
    "id": "whole-foods-market-brewing-company",
    "name": "Whole Foods Market Brewing Company",
    "brewery_type": "micro",
    "street": "1700 Post Oak Blvd Ste 1G101",
    "city": "Houston",
    "state": "Texas",
    "postal_code": "77056-3963",
    "website_url": "",
    "phone": "7133460537",
    "created_at": "2018-07-24 01:34:22.251487",
    "updated_at": "2018-08-11 21:39:56.72608",
    "country": "United States",
    "longitude": "",
    "latitude": "",
    "tags": []
  },
  {
    "id": "town-in-city-brewing-co-llc",
    "name": "Town In City Brewing Co, LLC",
    "brewery_type": "micro",
    "street": "1125 W Cavalcade St",
    "city": "Houston",
    "state": "Texas",
    "postal_code": "77009-2907",
    "website_url": "http://townincitybrewing.com",
    "phone": "8328347151",
    "created_at": "2018-07-24 01:34:21.85763",
    "updated_at": "2018-08-24 16:23:58.856272",
    "country": "United States",
    "longitude": "-95.3870438",
    "latitude": "29.8036158",
    "tags": []
  },
  {
    "id": "under-the-radar-brewery",
    "name": "Under The Radar Brewery",
    "brewery_type": "micro",
    "street": "1506 Truxillo St",
    "city": "Houston",
    "state": "Texas",
    "postal_code": "77004-3960",
    "website_url": "http://www.undertheradarbrewery.com",
    "phone": "7133202766",
    "created_at": "2018-07-24 01:34:22.089408",
    "updated_at": "2018-08-24 16:24:13.693529",
    "country": "United States",
    "longitude": "-95.3759411",
    "latitude": "29.7342113",
    "tags": []
  },
  {
    "id": "stained-glass-beerworks",
    "name": "Stained Glass Beerworks",
    "brewery_type": "planning",
    "street": "",
    "city": "Houston",
    "state": "Texas",
    "postal_code": "77066-2310",
    "website_url": "http://www.stainedglassbeerworks.com",
    "phone": "7134529337",
    "created_at": "2018-07-24 01:34:21.46749",
    "updated_at": "2018-08-11 21:39:54.866695",
    "country": "United States",
    "longitude": "",
    "latitude": "",
    "tags": []
  }
]