[
  {
    "id": "the-brewery-lbk",
    "name": "The Brewery LBK",
    "brewery_type": "brewpub",
    "street": "1204 Broadway #104",
    "city": "Lubbock",
    "state": "Texas",
    "postal_code": "79401",
    "website_url": "http://www.thebrewerylbk.com",
    "phone": "8069939378",
    "created_at": "2018-07-24 01:34:21.666752",
    "updated_at": "2018-08-11 21:39:55.433073",
    "country": "United States",
    "longitude": "",
    "latitude": "",
    "tags": []
  },
  {
    "id": "the-plains-brewing-company",
    "name": "The Plains Brewing Company",
    "brewery_type": "micro",
    "street": "515 N FM 179",
    "city": "Lubbock",
    "state": "Texas",
    "postal_code": "79416-9512",
    "website_url": "",
    "phone": "8067868583",
    "created_at": "2018-07-24 01:34:21.753834",
    "updated_at": "2018-08-11 21:39:55.683922",
    "country": "United States",
    "longitude": "",
    "latitude": "",
    "tags": []
  },
  {
    "id": "two-docs-brewing-co",
    "name": "Two Docs Brewing Co.",
    "brewery_type": "planning",
    "street": "",
    "city": "Lubbock",
    "state": "Texas",
    "postal_code": "79401",
    "website_url": "http://twodocsbrewing.com",
    "phone": "",
    "created_at": "2018-07-24 01:34:22.004532",
    "updated_at": "2018-08-11 21:39:56.239449",
    "country": "United States",
    "longitude": "",
    "latitude": "",
    "tags": []
  },
  {
    "id": "triple-j-chophouse-and-brew-co",
    "name": "Triple J Chophouse and Brew Co",
    "brewery_type": "brewpub",
    "street": "1807 Buddy Holly Ave",
    "city": "Lubbock",
    "state": "Texas",
    "postal_code": "79401-5136",
    "website_url": "http://www.triplejchophouseandbrewco.com",
    "phone": "8067716555",
    "created_at": "2018-07-24 01:34:21.883462",
    "updated_at": "2018-08-24 16:24:01.746535",
    "country": "United States",
    "longitude": "-101.844037476289",
    "latitude": "33.5785911",
    "tags": []
  }
]