[
  {
    "id": "faust-hotel-restaurant-and-brew-pub",
    "name": "Faust Hotel Restaurant and Brew Pub",
    "brewery_type": "micro",
    "street": "499 S Castell Ave",
    "city": "New Braunfels",
    "state": "Texas",
    "postal_code": "78130-7618",
    "website_url": "http://www.faustbrewing.com",
    "phone": "8306257791",
    "created_at": "2018-07-24 01:34:19.114095",
    "updated_at": "2018-08-24 16:20:20.414866",
    "country": "United States",
    "longitude": "-98.12031",
    "latitude": "29.698525",
    "tags": []
  },
  {
    "id": "5-stones-artisan-brewery",
    "name": "5 Stones Artisan Brewery",
    "brewery_type": "micro",
    "street": "11335 Farm To Market Road 1863",
    "city": "New Braunfels",
    "state": "Texas",
    "postal_code": "78132",
    "website_url": "",
    "phone": "2103808215",
    "created_at": "2018-07-24 01:34:17.391347",
    "updated_at": "2018-08-24 16:18:25.18855",
    "country": "United States",
    "longitude": "-98.232345",
    "latitude": "29.711365",
    "tags": []
  },
  {
    "id": "new-braunfels-brewing",
    "name": "New Braunfels Brewing",
    "brewery_type": "micro",
    "street": "180 W Mill St Ste 100",
    "city": "New Braunfels",
    "state": "Texas",
    "postal_code": "78130-5058",
    "website_url": "http://www.nbbrewing.com",
    "phone": "8306262739",
    "created_at": "2018-07-24 01:34:20.342823",
    "updated_at": "2018-08-11 21:39:52.296249",
    "country": "United States",
    "longitude": "",
    "latitude": "",
    "tags": []
  },
  {
    "id": "weilbacher-brewery",
    "name": "Weilbacher Brewery",
    "brewery_type": "planning",
    "street": "",
    "city": "New Braunfels",
    "state": "Texas",
    "postal_code": "78130-5104",
    "website_url": "http://www.weilbacherbeer.com",
    "phone": "5126637507",
    "created_at": "2018-07-24 01:34:22.187115",
    "updated_at": "2018-08-11 21:39:56.588158",
    "country": "United States",
    "longitude": "",
    "latitude": "",
    "tags": []
  },
  {
    "id": "ruggedman-brewing-company",
    "name": "Ruggedman Brewing Company",
    "brewery_type": "micro",
    "street": "7600 Old Bastrop Rd",
    "city": "New Braunfels",
    "state": "Texas",
    "postal_code": "78130",
    "website_url": "http://www.drinkthedamnbeer.com",
    "phone": "8306322104",
    "created_at": "2018-07-24 01:34:21.048356",
    "updated_at": "2018-08-11 21:39:53.859443",
    "country": "United States",
    "longitude": "",
    "latitude": "",
    "tags": []
  }
]