[
  {
    "id": "brewery-in-planning-plano",
    "name": "Brewery in Planning - Plano",
    "brewery_type": "planning",
    "street": "",
    "city": "Plano",
    "state": "Texas",
    "postal_code": "75023-6320",
    "website_url": "",
    "phone": "",
    "created_at": "2018-07-24 01:34:18.435555",
    "updated_at": "2018-08-11 21:39:47.598125",
    "country": "United States",
    "longitude": "",
    "latitude": "",
    "tags": []
  },
  {
    "id": "brewery-in-planning-plano-tx",
    "name": "Brewery In Planning- Plano, TX.",
    "brewery_type": "planning",
    "street": "",
    "city": "Plano",
    "state": "Texas",
    "postal_code": "75075-3012",
    "website_url": "",
    "phone": "",
    "created_at": "2018-07-24 01:34:18.502368",
    "updated_at": "2018-08-11 21:39:47.765309",
    "country": "United States",
    "longitude": "",
    "latitude": "",
    "tags": []
  },
  {
    "id": "gordon-biersch-brewery-restaurant-plano",
    "name": "Gordon Biersch Brewery Restaurant - Plano",
    "brewery_type": "brewpub",
    "street": "7401 Lone Star Dr Ste B120",
    "city": "Plano",
    "state": "Texas",
    "postal_code": "75024-5646",
    "website_url": "http://www.craftworksrestaurants.com",
    "phone": "4694670464",
    "created_at": "2018-07-24 01:34:19.455729",
    "updated_at": "2018-08-11 21:39:49.938853",
    "country": "United States",
    "longitude": "",
    "latitude": "",
    "tags": []
  },
  {
    "id": "union-bear-brewing-co",
    "name": "Union Bear Brewing Co.",
    "brewery_type": "brewpub",
    "street": "5880 State Highway 121 Ste 101",
    "city": "Plano",
    "state": "Texas",
    "postal_code": "75024",
    "website_url": "http://www.unionbear.com",
    "phone": "2142972337",
    "created_at": "2018-07-24 01:34:22.103542",
    "updated_at": "2018-08-24 16:24:15.292657",
    "country": "United States",
    "longitude": "-96.8494045",
    "latitude": "33.083072",
    "tags": []
  },
  {
    "id": "unlawful-assembly-brewing-company",
    "name": "Unlawful Assembly Brewing Company",
    "brewery_type": "brewpub",
    "street": "7800 Windrose Ave",
    "city": "Plano",
    "state": "Texas",
    "postal_code": "75024-0114",
    "website_url": "http://www.unlawfulassembly.com",
    "phone": "9728967668",
    "created_at": "2018-07-24 01:34:22.117242",
    "updated_at": "2018-08-24 16:24:16.792302",
    "country": "United States",
    "longitude": "-96.8267889",
    "latitude": "33.078317",
    "tags": []
  }
]