[
  {
    "id": "pinthouse-pizza-round-rock",
    "name": "Pinthouse Pizza Round Rock",
    "brewery_type": "planning",
    "street": "",
    "city": "Round Rock",
    "state": "Texas",
    "postal_code": "78681",
    "website_url": "",
    "phone": "",
    "created_at": "2018-07-24 01:34:20.753926",
    "updated_at": "2018-08-11 21:39:53.189523",
    "country": "United States",
    "longitude": "",
    "latitude": "",
    "tags": []
  },
  {
    "id": "flix-brewhouse",
    "name": "Flix Brewhouse",
    "brewery_type": "micro",
    "street": "2000 S Interstate 35 Ste B1",
    "city": "Round Rock",
    "state": "Texas",
    "postal_code": "78681-6900",
    "website_url": "http://www.flixbrewhouse.com",
    "phone": "5122442739",
    "created_at": "2018-07-24 01:34:19.144319",
    "updated_at": "2018-08-11 21:39:49.270371",
    "country": "United States",
    "longitude": "",
    "latitude": "",
    "tags": []
  },
  {
    "id": "idle-vine-brewing-company",
    "name": "Idle Vine Brewing Company",
    "brewery_type": "micro",
    "street": "16920 Joe Barbee Dr",
    "city": "Round Rock",
    "state": "Texas",
    "postal_code": "78664-2373",
    "website_url": "http://www.IdleVineBrewery.com",
    "phone": "5125273235",
    "created_at": "2018-07-24 01:34:19.793047",
    "updated_at": "2018-08-11 21:39:51.042524",
    "country": "United States",
    "longitude": "",
    "latitude": "",
    "tags": []
  },
  {
    "id": "the-humble-pint",
    "name": "The Humble Pint",
    "brewery_type": "planning",
    "street": "",
    "city": "Round Rock",
    "state": "Texas",
    "postal_code": "78681-5504",
    "website_url": "http://www.humblepint.com",
    "phone": "5129475913",
    "created_at": "2018-07-24 01:34:21.704498",
    "updated_at": "2018-08-11 21:39:55.552332",
    "country": "United States",
    "longitude": "",
    "latitude": "",
    "tags": []
  },
  {
    "id": "bluebonnet-beer-co",
    "name": "Bluebonnet Beer Co",
    "brewery_type": "micro",
    "street": "1700 Bryant Dr Ste 107",
    "city": "Round Rock",
    "state": "Texas",
    "postal_code": "78664-3898",
    "website_url": "http://www.bluebonnetbeerco.com",
    "phone": "5127744258",
    "created_at": "2018-07-24 01:34:18.109183",
    "updated_at": "2018-08-24 16:19:21.721384",
    "country": "United States",
    "longitude": "-97.645332",
    "latitude": "30.491657",
    "tags": []
  }
]