[
  {
    "id": "freetail-brewing-co",
    "name": "Freetail Brewing Co",
    "brewery_type": "micro",
    "street": "2000 S Presa St",
    "city": "San Antonio",
    "state": "Texas",
    "postal_code": "78210-2835",
    "website_url": "http://www.freetailbrewing.com",
    "phone": "2103954974",
    "created_at": "2018-07-24 01:34:19.298053",
    "updated_at": "2018-08-24 16:20:37.310394",
    "country": "United States",
    "longitude": "-98.482853",
    "latitude": "29.401901",
    "tags": []
  },
  {
    "id": "alamo-beer-co",
    "name": "Alamo Beer Co",
    "brewery_type": "micro",
    "street": "415 Burnet St",
    "city": "San Antonio",
    "state": "Texas",
    "postal_code": "78202-1909",
    "website_url": "http://www.alamobeer.com",
    "phone": "2108725589",
    "created_at": "2018-07-24 01:34:17.489385",
    "updated_at": "2018-08-24 16:18:32.840553",
    "country": "United States",
    "longitude": "-98.477163798982",
    "latitude": "29.4290232136232",
    "tags": []
  },
  {
    "id": "branchline-brewing-company",
    "name": "Branchline Brewing Company",
    "brewery_type": "contract",
    "street": "",
    "city": "San Antonio",
    "state": "Texas",
    "postal_code": "78247-3502",
    "website_url": "http://www.branchlinebrewing.com",
    "phone": "3612908817",
    "created_at": "2018-07-24 01:34:18.162038",
    "updated_at": "2018-08-11 21:39:46.864799",
    "country": "United States",
    "longitude": "",
    "latitude": "",
    "tags": []
  },
  {
    "id": "busted-sandal-brewing-company",
    "name": "Busted Sandal Brewing Company",
    "brewery_type": "micro",
    "street": "7114 Oaklawn Dr",
    "city": "San Antonio",
    "state": "Texas",
    "postal_code": "78229-3021",
    "website_url": "http://www.bustedsandalbrewing.com",
    "phone": "2108721486",
    "created_at": "2018-07-24 01:34:18.626133",
    "updated_at": "2018-08-11 21:39:48.050186",
    "country": "United States",
    "longitude": "",
    "latitude": "",
    "tags": []
  },
  {
    "id": "dorcol-distilling-and-brewing-co",
    "name": "Dorcol Distilling and Brewing CO",
    "brewery_type": "micro",
    "street": "1902 S Flores St",
    "city": "San Antonio",
    "state": "Texas",
    "postal_code": "78204",
    "website_url": "http://www.dorcolspirits.com",
    "phone": "2102290607",
    "created_at": "2018-07-24 01:34:18.993151",
    "updated_at": "2018-08-24 16:20:09.693126",
    "country": "United States",
    "longitude": "-98.502373",
    "latitude": "29.405708",
    "tags": []
  },
  {
    "id": "freetail-brewing-co-brewpub",
    "name": "Freetail Brewing Co - Brewpub",
    "brewery_type": "brewpub",
    "street": "4035 N Loop 1604 W Ste 105",
    "city": "San Antonio",
    "state": "Texas",
    "postal_code": "78257-9547",
    "website_url": "http://www.freetailbrewing.com",
    "phone": "2106256000",
    "created_at": "2018-07-24 01:34:19.310865",
    "updated_at": "2018-08-11 21:39:49.610253",
    "country": "United States",
    "longitude": "",
    "latitude": "",
    "tags": []
  },
  {
    "id": "granary-cue-and-brew",
    "name": "Granary 'Cue and Brew",
    "brewery_type": "brewpub",
    "street": "602 Avenue A",
    "city": "San Antonio",
    "state": "Texas",
    "postal_code": "78215-1222",
    "website_url": "http://www.thegranarysa.com",
    "phone": "2102280124",
    "created_at": "2018-07-24 01:34:19.497498",
    "updated_at": "2018-08-24 16:20:53.870921",
    "country": "United States",
    "longitude": "-98.4791698311979",
    "latitude": "29.44143325",
    "tags": []
  },
  {
    "id": "longtab-brewing-company-llc",
    "name": "Longtab Brewing Company LLC",
    "brewery_type": "planning",
    "street": "",
    "city": "San Antonio",
    "state": "Texas",
    "postal_code": "78238-1920",
    "website_url": "http://www.longtabbrewing.com",
    "phone": "2106024561",
    "created_at": "2018-07-24 01:34:20.183073",
    "updated_at": "2018-08-11 21:39:51.901393",
    "country": "United States",
    "longitude": "",
    "latitude": "",
    "tags": []
  },
  {
    "id": "mad-pecker-brewing",
    "name": "Mad Pecker Brewing",
    "brewery_type": "brewpub",
    "street": "6025 Tezel Rd Ste 122",
    "city": "San Antonio",
    "state": "Texas",
    "postal_code": "78250-4180",
    "website_url": "http://www.madpeckerbrewing.com",
    "phone": "2105623059",
    "created_at": "2018-07-24 01:34:20.20906",
    "updated_at": "2018-08-11 21:39:51.96056",
    "country": "United States",
    "longitude": "",
    "latitude": "",
    "tags": []
  },
  {
    "id": "ka¼nstler-brewing",
    "name": "KÃ¼nstler Brewing",
    "brewery_type": "brewpub",
    "street": "302 E Lachapelle",
    "city": "San Antonio",
    "state": "Texas",
    "postal_code": "78204-1945",
    "website_url": "http://www.kuenstlerbrewing.com",
    "phone": "2106884519",
    "created_at": "2018-07-24 01:34:19.969439",
    "updated_at": "2018-08-24 16:21:31.242443",
    "country": "United States",
    "longitude": "-98.5000987979798",
    "latitude": "29.4050302626263",
    "tags": []
  },
  {
    "id": "ranger-creek-brewery",
    "name": "Ranger Creek Brewery",
    "brewery_type": "micro",
    "street": "4834 Whirlwind Dr Ste 2",
    "city": "San Antonio",
    "state": "Texas",
    "postal_code": "78217-3740",
    "website_url": "http://www.drinkrangercreek.com",
    "phone": "8329693800",
    "created_at": "2018-07-24 01:34:20.875153",
    "updated_at": "2018-08-11 21:39:53.466777",
    "country": "United States",
    "longitude": "",
    "latitude": "",
    "tags": []
  },
  {
    "id": "roadmap-brewing-co",
    "name": "Roadmap Brewing Co",
    "brewery_type": "planning",
    "street": "",
    "city": "San Antonio",
    "state": "Texas",
    "postal_code": "78215-1812",
    "website_url": "http://www.roadmapbrewing.com",
    "phone": "",
    "created_at": "2018-07-24 01:34:20.990103",
    "updated_at": "2018-08-11 21:39:53.732297",
    "country": "United States",
    "longitude": "",
    "latitude": "",
    "tags": []
  },
  {
    "id": "southerleigh-brewing",
    "name": "Southerleigh Brewing",
    "brewery_type": "brewpub",
    "street": "136 E Grayson St., Ste 120",
    "city": "San Antonio",
    "state": "Texas",
    "postal_code": "78212-4114",
    "website_url": "http://www.southerleigh.com",
    "phone": "2103137627",
    "created_at": "2018-07-24 01:34:21.324492",
    "updated_at": "2018-08-11 21:39:54.514666",
    "country": "United States",
    "longitude": "",
    "latitude": "",
    "tags": []
  },
  {
    "id": "twin-sisters",
    "name": "TWIN SISTERS",
    "brewery_type": "planning",
    "street": "",
    "city": "San Antonio",
    "state": "Texas",
    "postal_code": "78210",
    "website_url": "",
    "phone": "2108186515",
    "created_at": "2018-07-24 01:34:21.976965",
    "updated_at": "2018-08-11 21:39:56.184664",
    "country": "United States",
    "longitude": "",
    "latitude": "",
    "tags": []
  },
  {
    "id": "weathered-souls-brewing-co",
    "name": "Weathered Souls Brewing Co.",
    "brewery_type": "brewpub",
    "street": "606 Embassy Oaks Ste 500",
    "city": "San Antonio",
    "state": "Texas",
    "postal_code": "78216-1501",
    "website_url": "http://www.weatheredsouls.beer",
    "phone": "7047706605",
    "created_at": "2018-07-24 01:34:22.174162",
    "updated_at": "2018-08-11 21:39:56.555207",
    "country": "United States",
    "longitude": "",
    "latitude": "",
    "tags": []
  },
  {
    "id": "blue-star-brewing-co",
    "name": "Blue Star Brewing Co",
    "brewery_type": "brewpub",
    "street": "1414 S Alamo St # 105",
    "city": "San Antonio",
    "state": "Texas",
    "postal_code": "78210-1117",
    "website_url": "http://www.bluestarbrewing.com",
    "phone": "2102125506",
    "created_at": "2018-07-24 01:34:18.095951",
    "updated_at": "2018-08-24 16:19:20.1624",
    "country": "United States",
    "longitude": "-98.4961530696048",
    "latitude": "29.4098956943037",
    "tags": []
  }
]