[
  {
    "id": "altmeyer-and-lewis-brewing-company",
    "name": "Altmeyer and Lewis Brewing Company",
    "brewery_type": "micro",
    "street": "15898 N Hwy 123",
    "city": "San Marcos",
    "state": "Texas",
    "postal_code": "78666-2418",
    "website_url": "http://www.altmeyerlewisbrewing.com",
    "phone": "5126679537",
    "created_at": "2018-07-24 01:34:17.515391",
    "updated_at": "2018-08-11 21:39:45.242275",
    "country": "United States",
    "longitude": "",
    "latitude": "",
    "tags": []
  },
  {
    "id": "aquabrew",
    "name": "Aquabrew",
    "brewery_type": "brewpub",
    "street": "150 S L B J Dr",
    "city": "San Marcos",
    "state": "Texas",
    "postal_code": "78666-5506",
    "website_url": "http://www.aqua-brew.com",
    "phone": "5123532739",
    "created_at": "2018-07-24 01:34:17.582018",
    "updated_at": "2018-08-11 21:39:45.425081",
    "country": "United States",
    "longitude": "",
    "latitude": "",
    "tags": []
  },
  {
    "id": "middleton-brewing-mbtx",
    "name": "Middleton Brewing (MBTX)",
    "brewery_type": "micro",
    "street": "101 Oakwood Loop",
    "city": "San Marcos",
    "state": "Texas",
    "postal_code": "78666-1762",
    "website_url": "http://www.mbtx.com",
    "phone": "5128473435",
    "created_at": "2018-07-24 01:34:20.276856",
    "updated_at": "2018-08-11 21:39:52.13312",
    "country": "United States",
    "longitude": "",
    "latitude": "",
    "tags": []
  },
  {
    "id": "sean-patricks-pub",
    "name": "Sean Patrick's Pub",
    "brewery_type": "planning",
    "street": "",
    "city": "San Marcos",
    "state": "Texas",
    "postal_code": "78666-5590",
    "website_url": "",
    "phone": "",
    "created_at": "2018-07-24 01:34:21.15237",
    "updated_at": "2018-08-11 21:39:54.061309",
    "country": "United States",
    "longitude": "",
    "latitude": "",
    "tags": []
  },
  {
    "id": "the-root-cellar",
    "name": "The Root Cellar",
    "brewery_type": "brewpub",
    "street": "215 N Lbj Dr",
    "city": "San Marcos",
    "state": "Texas",
    "postal_code": "78666-5621",
    "website_url": "http://www.rootcellarcafe.com",
    "phone": "5123925158",
    "created_at": "2018-07-24 01:34:21.766231",
    "updated_at": "2018-08-11 21:39:55.710194",
    "country": "United States",
    "longitude": "",
    "latitude": "",
    "tags": []
  }
]