[
  {
    "id": "angry-hanks-microbrewery",
    "name": "Angry Hank's Microbrewery",
    "brewery_type": "micro",
    "street": "20 N 30th St",
    "city": "Billings",
    "state": "Montana",
    "postal_code": "59101-2140",
    "website_url": "",
    "phone": "4062523370",
    "created_at": "2018-07-24 01:33:42.043111",
    "updated_at": "2018-08-24 00:46:56.319957",
    "country": "United States",
    "longitude": "-108.507602476104",
    "latitude": "45.78022172594",
    "tags": []
  },
  {
    "id": "canyon-creek-brewing",
    "name": "Canyon Creek Brewing",
    "brewery_type": "micro",
    "street": "3060 Gabel Rd",
    "city": "Billings",
    "state": "Montana",
    "postal_code": "59102-7336",
    "website_url": "http://www.canyoncreekbrewing.com",
    "phone": "4066562528",
    "created_at": "2018-07-24 01:33:42.388474",
    "updated_at": "2018-08-24 00:47:05.421559",
    "country": "United States",
    "longitude": "-108.591675204462",
    "latitude": "45.7443650206617",
    "tags": []
  },
  {
    "id": "carters-brewing",
    "name": "Carters Brewing",
    "brewery_type": "micro",
    "street": "2526 Montana Ave",
    "city": "Billings",
    "state": "Montana",
    "postal_code": "59101-2313",
    "website_url": "http://www.cartersbrewing.com",
    "phone": "4068617712",
    "created_at": "2018-07-24 01:33:42.400621",
    "updated_at": "2018-08-24 00:47:05.853626",
    "country": "United States",
    "longitude": "-108.501653826985",
    "latitude": "45.7829133357354",
    "tags": []
  },
  {
    "id": "montana-brewing-co",
    "name": "Montana Brewing Co",
    "brewery_type": "brewpub",
    "street": "113 N Broadway",
    "city": "Billings",
    "state": "Montana",
    "postal_code": "59101-2043",
    "website_url": "http://www.montanabrewingcompany.com",
    "phone": "4062529200",
    "created_at": "2018-07-24 01:33:42.940394",
    "updated_at": "2018-08-11 21:38:12.775027",
    "country": "United States",
    "longitude": "",
    "latitude": "",
    "tags": []
  },
  {
    "id": "thirsty-street-brewing",
    "name": "Thirsty Street Brewing",
    "brewery_type": "brewpub",
    "street": "3008 1st Ave N",
    "city": "Billings",
    "state": "Montana",
    "postal_code": "59101-2134",
    "website_url": "http://www.thirstystreet.com",
    "phone": "4069693200",
    "created_at": "2018-07-24 01:33:43.22974",
    "updated_at": "2018-08-24 00:47:28.74616",
    "country": "United States",
    "longitude": "-108.508367554058",
    "latitude": "45.7807684579042",
    "tags": []
  },
  {
    "id": "uberbrew",
    "name": "Uberbrew",
    "brewery_type": "brewpub",
    "street": "2305 Montana Ave",
    "city": "Billings",
    "state": "Montana",
    "postal_code": "59101-2421",
    "website_url": "http://uberbrewmt.com",
    "phone": "4065346960",
    "created_at": "2018-07-24 01:33:43.26678",
    "updated_at": "2018-08-24 00:47:30.017036",
    "country": "United States",
    "longitude": "-108.499045606394",
    "latitude": "45.7841710578742",
    "tags": []
  },
  {
    "id": "yellowstone-valley-brewing-co",
    "name": "Yellowstone Valley Brewing Co.",
    "brewery_type": "micro",
    "street": "2123B 1st Ave N",
    "city": "Billings",
    "state": "Montana",
    "postal_code": "59101-2404",
    "website_url": "http://www.yellowstonevalleybrew.com",
    "phone": "4062450918",
    "created_at": "2018-07-24 01:33:43.316567",
    "updated_at": "2018-08-11 21:38:14.215529",
    "country": "United States",
    "longitude": "",
    "latitude": "",
    "tags": []
  }
]