[
  {
    "id": "map-brewing-company",
    "name": "MAP Brewing Company",
    "brewery_type": "brewpub",
    "street": "510 Manley Rd",
    "city": "Bozeman",
    "state": "Montana",
    "postal_code": "59715-8784",
    "website_url": "http://www.mapbrewing.com",
    "phone": "4065874070",
    "created_at": "2018-07-24 01:33:42.876968",
    "updated_at": "2018-08-24 00:47:19.247974",
    "country": "United States",
    "longitude": "-111.0400807",
    "latitude": "45.7033199",
    "tags": []
  },
  {
    "id": "406-brewing-company",
    "name": "406 Brewing Company",
    "brewery_type": "micro",
    "street": "101 E Oak St,Â Ste D",
    "city": "Bozeman",
    "state": "Montana",
    "postal_code": "59715-2967",
    "website_url": "http://www.406brewingcompany.com",
    "phone": "4065853745",
    "created_at": "2018-07-24 01:33:42.028946",
    "updated_at": "2018-08-11 21:38:10.197919",
    "country": "United States",
    "longitude": "",
    "latitude": "",
    "tags": []
  },
  {
    "id": "dog-tag-brewing",
    "name": "Dog Tag Brewing",
    "brewery_type": "contract",
    "street": "2042 Stadium Dr Ste 2",
    "city": "Bozeman",
    "state": "Montana",
    "postal_code": "59715-0710",
    "website_url": "http://www.dogtagbrewing.org",
    "phone": "",
    "created_at": "2018-07-24 01:33:42.481971",
    "updated_at": "2018-08-11 21:38:11.344419",
    "country": "United States",
    "longitude": "",
    "latitude": "",
    "tags": []
  },
  {
    "id": "bozeman-brewing-co",
    "name": "Bozeman Brewing Co",
    "brewery_type": "micro",
    "street": "504 N Broadway Ave",
    "city": "Bozeman",
    "state": "Montana",
    "postal_code": "59715-3006",
    "website_url": "http://www.bozemanbrewing.com",
    "phone": "4065859142",
    "created_at": "2018-07-24 01:33:42.281959",
    "updated_at": "2018-08-24 00:47:03.182743",
    "country": "United States",
    "longitude": "-111.0238884",
    "latitude": "45.6845234",
    "tags": []
  },
  {
    "id": "bridger-brewing-company",
    "name": "Bridger Brewing Company",
    "brewery_type": "brewpub",
    "street": "1609 S 11th Ave",
    "city": "Bozeman",
    "state": "Montana",
    "postal_code": "59715-5466",
    "website_url": "http://www.bridgerbrewing.com",
    "phone": "4065872124",
    "created_at": "2018-07-24 01:33:42.321712",
    "updated_at": "2018-08-24 00:47:03.647536",
    "country": "United States",
    "longitude": "-111.0526959",
    "latitude": "45.6627215",
    "tags": []
  },
  {
    "id": "the-bunkhouse-brewery",
    "name": "The Bunkhouse Brewery",
    "brewery_type": "micro",
    "street": "1216 W Lincoln St Ste A",
    "city": "Bozeman",
    "state": "Montana",
    "postal_code": "59715-5417",
    "website_url": "http://www.bunkhousebrewery.com",
    "phone": "4065772074",
    "created_at": "2018-07-24 01:33:43.217613",
    "updated_at": "2018-08-11 21:38:13.768182",
    "country": "United States",
    "longitude": "",
    "latitude": "",
    "tags": []
  },
  {
    "id": "julius-lehrkind-brewing",
    "name": "Julius Lehrkind Brewing",
    "brewery_type": "micro",
    "street": "1717 N Rouse Ave",
    "city": "Bozeman",
    "state": "Montana",
    "postal_code": "59715-2426",
    "website_url": "http://www.juliusbrewing.com",
    "phone": "4065510199",
    "created_at": "2018-07-24 01:33:42.739135",
    "updated_at": "2018-08-24 00:47:14.851792",
    "country": "United States",
    "longitude": "-111.031558026981",
    "latitude": "45.696333352463",
    "tags": []
  },
  {
    "id": "mountains-walking",
    "name": "Mountains Walking",
    "brewery_type": "brewpub",
    "street": "422 N Plum Ave",
    "city": "Bozeman",
    "state": "Montana",
    "postal_code": "59718",
    "website_url": "http://www.mountainswalking.com",
    "phone": "4062193480",
    "created_at": "2018-07-24 01:33:42.969341",
    "updated_at": "2018-08-24 00:47:21.91535",
    "country": "United States",
    "longitude": "-111.025560977778",
    "latitude": "45.6841878888889",
    "tags": []
  },
  {
    "id": "outlaw-brewing-co",
    "name": "Outlaw Brewing Co",
    "brewery_type": "micro",
    "street": "2876 N 27th Ave",
    "city": "Bozeman",
    "state": "Montana",
    "postal_code": "59718-7168",
    "website_url": "http://www.outlaw-brewing.com",
    "phone": "4063889182",
    "created_at": "2018-07-24 01:33:43.044285",
    "updated_at": "2018-08-24 00:47:23.77383",
    "country": "United States",
    "longitude": "-111.07251894026",
    "latitude": "45.70878295",
    "tags": []
  },
  {
    "id": "white-dog-brewing-company",
    "name": "White Dog Brewing Company",
    "brewery_type": "micro",
    "street": "121 W Main St",
    "city": "Bozeman",
    "state": "Montana",
    "postal_code": "59715-4644",
    "website_url": "http://www.whitedogbrewing.com",
    "phone": "4065955574",
    "created_at": "2018-07-24 01:33:43.291112",
    "updated_at": "2018-08-24 00:47:30.486971",
    "country": "United States",
    "longitude": "-111.039389424987",
    "latitude": "45.67961135",
    "tags": []
  }
]