[
  {
    "id": "brewery-in-planning-helena",
    "name": "Brewery in Planning - Helena",
    "brewery_type": "planning",
    "street": "",
    "city": "Helena",
    "state": "Montana",
    "postal_code": "59602-0552",
    "website_url": "http://brewingeducation.com",
    "phone": "4065584619",
    "created_at": "2018-07-24 01:33:42.295098",
    "updated_at": "2018-08-11 21:38:10.817043",
    "country": "United States",
    "longitude": "",
    "latitude": "",
    "tags": []
  },
  {
    "id": "crooked-furrow-brewing",
    "name": "Crooked Furrow Brewing",
    "brewery_type": "micro",
    "street": "2801 N Roberts Ave",
    "city": "Helena",
    "state": "Montana",
    "postal_code": "59601",
    "website_url": "http://www.crookedfurrowbrewing.com",
    "phone": "4064225975",
    "created_at": "2018-07-24 01:33:42.444982",
    "updated_at": "2018-08-11 21:38:11.242257",
    "country": "United States",
    "longitude": "",
    "latitude": "",
    "tags": []
  },
  {
    "id": "blackfoot-river-brewing-co",
    "name": "Blackfoot River Brewing Co",
    "brewery_type": "micro",
    "street": "66 S Park Ave",
    "city": "Helena",
    "state": "Montana",
    "postal_code": "59601-6271",
    "website_url": "http://www.blackfootriverbrewing.com",
    "phone": "4064493005",
    "created_at": "2018-07-24 01:33:42.222844",
    "updated_at": "2018-08-24 00:47:01.834067",
    "country": "United States",
    "longitude": "-112.0417121",
    "latitude": "46.5862933",
    "tags": []
  },
  {
    "id": "lewis-and-clark-brewing-co",
    "name": "Lewis & Clark Brewing Co",
    "brewery_type": "micro",
    "street": "1517 Dodge Ave",
    "city": "Helena",
    "state": "Montana",
    "postal_code": "59601-2970",
    "website_url": "http://www.lewisandclarkbrewing.com",
    "phone": "4064425960",
    "created_at": "2018-07-24 01:33:42.81511",
    "updated_at": "2018-08-11 21:38:12.324878",
    "country": "United States",
    "longitude": "",
    "latitude": "",
    "tags": []
  },
  {
    "id": "snow-hop-brewery",
    "name": "Snow Hop Brewery",
    "brewery_type": "micro",
    "street": "685 Barney St Ste A",
    "city": "Helena",
    "state": "Montana",
    "postal_code": "59602",
    "website_url": "",
    "phone": "4064225026",
    "created_at": "2018-07-24 01:33:43.165287",
    "updated_at": "2018-08-11 21:38:13.550629",
    "country": "United States",
    "longitude": "",
    "latitude": "",
    "tags": []
  },
  {
    "id": "ten-mile-creek-brewery",
    "name": "Ten Mile Creek Brewery",
    "brewery_type": "micro",
    "street": "48 N Last Chance Gulch",
    "city": "Helena",
    "state": "Montana",
    "postal_code": "59601-4122",
    "website_url": "http://www.tenmilecreekbrewing.com",
    "phone": "4065021382",
    "created_at": "2018-07-24 01:33:43.205343",
    "updated_at": "2018-08-11 21:38:13.7268",
    "country": "United States",
    "longitude": "",
    "latitude": "",
    "tags": []
  }
]