[
  {
    "id": "bias-brewing",
    "name": "Bias Brewing",
    "brewery_type": "micro",
    "street": "409 1st Ave E Ste B",
    "city": "Kalispell",
    "state": "Montana",
    "postal_code": "59901",
    "website_url": "http://www.biasbrewing.com",
    "phone": "4067303020",
    "created_at": "2018-07-24 01:33:42.169015",
    "updated_at": "2018-08-11 21:38:10.507663",
    "country": "United States",
    "longitude": "",
    "latitude": "",
    "tags": []
  },
  {
    "id": "brewing-academy-of-montana-at-fvcc",
    "name": "Brewing Academy Of Montana At FVCC",
    "brewery_type": "planning",
    "street": "",
    "city": "Kalispell",
    "state": "Montana",
    "postal_code": "59901",
    "website_url": "http://www.fvcc.edu",
    "phone": "4067564359",
    "created_at": "2018-07-24 01:33:42.308634",
    "updated_at": "2018-08-11 21:38:10.857259",
    "country": "United States",
    "longitude": "",
    "latitude": "",
    "tags": []
  },
  {
    "id": "kalispell-brewing-co",
    "name": "Kalispell Brewing Co",
    "brewery_type": "micro",
    "street": "412 Main St",
    "city": "Kalispell",
    "state": "Montana",
    "postal_code": "59901-4849",
    "website_url": "http://www.kalispellbrewing.com",
    "phone": "4067562739",
    "created_at": "2018-07-24 01:33:42.752143",
    "updated_at": "2018-08-11 21:38:12.10548",
    "country": "United States",
    "longitude": "",
    "latitude": "",
    "tags": []
  },
  {
    "id": "sacred-waters-brewing-company",
    "name": "Sacred Waters Brewing Company",
    "brewery_type": "planning",
    "street": "",
    "city": "Kalispell",
    "state": "Montana",
    "postal_code": "59901-6641",
    "website_url": "http://www.sacredwatersbrewing.com",
    "phone": "4062530746",
    "created_at": "2018-07-24 01:33:43.138337",
    "updated_at": "2018-08-11 21:38:13.459158",
    "country": "United States",
    "longitude": "",
    "latitude": "",
    "tags": []
  },
  {
    "id": "sunrift-beer-company",
    "name": "SunRift Beer Company",
    "brewery_type": "micro",
    "street": "55 1st Ave WN",
    "city": "Kalispell",
    "state": "Montana",
    "postal_code": "59901",
    "website_url": "http://www.sunriftbeer.com",
    "phone": "4068712567",
    "created_at": "2018-07-24 01:33:43.179096",
    "updated_at": "2018-08-24 00:47:26.942552",
    "country": "United States",
    "longitude": "-114.3181197",
    "latitude": "48.2059559",
    "tags": []
  }
]