[
  {
    "id": "conflux-brewing",
    "name": "Conflux Brewing",
    "brewery_type": "planning",
    "street": "",
    "city": "Missoula",
    "state": "Montana",
    "postal_code": "59802-4418",
    "website_url": "",
    "phone": "",
    "created_at": "2018-07-24 01:33:42.423725",
    "updated_at": "2018-08-11 21:38:11.205288",
    "country": "United States",
    "longitude": "",
    "latitude": "",
    "tags": []
  },
  {
    "id": "gild-brewing",
    "name": "GILD BREWING",
    "brewery_type": "planning",
    "street": "",
    "city": "Missoula",
    "state": "Montana",
    "postal_code": "59801-2734",
    "website_url": "",
    "phone": "",
    "created_at": "2018-07-24 01:33:42.600992",
    "updated_at": "2018-08-11 21:38:11.66805",
    "country": "United States",
    "longitude": "",
    "latitude": "",
    "tags": []
  },
  {
    "id": "bayern-brewing-inc",
    "name": "Bayern Brewing Inc.",
    "brewery_type": "micro",
    "street": "1507 Montana St",
    "city": "Missoula",
    "state": "Montana",
    "postal_code": "59801-1409",
    "website_url": "http://www.bayernbrewery.com",
    "phone": "4067211482",
    "created_at": "2018-07-24 01:33:42.114747",
    "updated_at": "2018-08-24 00:46:58.12443",
    "country": "United States",
    "longitude": "-114.0202088",
    "latitude": "46.8725952",
    "tags": []
  },
  {
    "id": "draught-works-brewing",
    "name": "Draught Works Brewing",
    "brewery_type": "micro",
    "street": "915 Toole Ave",
    "city": "Missoula",
    "state": "Montana",
    "postal_code": "59802-2625",
    "website_url": "http://www.draughtworksbrewery.com",
    "phone": "4062412423",
    "created_at": "2018-07-24 01:33:42.507624",
    "updated_at": "2018-08-24 00:47:08.050953",
    "country": "United States",
    "longitude": "-114.0044493",
    "latitude": "46.8782576",
    "tags": []
  },
  {
    "id": "great-burn-brewing",
    "name": "Great Burn Brewing",
    "brewery_type": "micro",
    "street": "2230 McDonald Ave",
    "city": "Missoula",
    "state": "Montana",
    "postal_code": "59801-8802",
    "website_url": "http://www.greatburnbrewing.com",
    "phone": "4063171557",
    "created_at": "2018-07-24 01:33:42.631883",
    "updated_at": "2018-08-24 00:47:10.842586",
    "country": "United States",
    "longitude": "-114.033997040816",
    "latitude": "46.8397919183673",
    "tags": []
  },
  {
    "id": "oddpitch-brewing-co",
    "name": "OddPitch Brewing Co.",
    "brewery_type": "planning",
    "street": "",
    "city": "Missoula",
    "state": "Montana",
    "postal_code": "59801-4473",
    "website_url": "http://www.oddpitch.com",
    "phone": "4063605363",
    "created_at": "2018-07-24 01:33:43.009173",
    "updated_at": "2018-08-11 21:38:13.030522",
    "country": "United States",
    "longitude": "",
    "latitude": "",
    "tags": []
  },
  {
    "id": "kettlehouse-brewing-co-southside",
    "name": "Kettlehouse Brewing Co - Southside",
    "brewery_type": "micro",
    "street": "602 Myrtle St",
    "city": "Missoula",
    "state": "Montana",
    "postal_code": "59801-2704",
    "website_url": "http://www.kettlehouse.com",
    "phone": "4067281660",
    "created_at": "2018-07-24 01:33:42.802879",
    "updated_at": "2018-08-24 00:47:17.074253",
    "country": "United States",
    "longitude": "-113.9987621",
    "latitude": "46.8655748",
    "tags": []
  },
  {
    "id": "missoula-brewing-company",
    "name": "Missoula Brewing Company",
    "brewery_type": "brewpub",
    "street": "200 International Dr",
    "city": "Missoula",
    "state": "Montana",
    "postal_code": "59808-1584",
    "website_url": "http://www.highlanderbeer.com",
    "phone": "4065498193",
    "created_at": "2018-07-24 01:33:42.915037",
    "updated_at": "2018-08-24 00:47:20.595996",
    "country": "United States",
    "longitude": "-114.043307798163",
    "latitude": "46.9045483527514",
    "tags": []
  },
  {
    "id": "big-sky-brewing-co",
    "name": "Big Sky Brewing Co",
    "brewery_type": "regional",
    "street": "5417 Trumpeter Way",
    "city": "Missoula",
    "state": "Montana",
    "postal_code": "59808-8680",
    "website_url": "http://www.bigskybrew.com",
    "phone": "4065492777",
    "created_at": "2018-07-24 01:33:42.181166",
    "updated_at": "2018-08-24 00:47:00.320641",
    "country": "United States",
    "longitude": "-114.0730248",
    "latitude": "46.9224156",
    "tags": []
  },
  {
    "id": "imagine-nation-brewing",
    "name": "Imagine Nation Brewing",
    "brewery_type": "micro",
    "street": "1151 W Broadway St",
    "city": "Missoula",
    "state": "Montana",
    "postal_code": "59802-3916",
    "website_url": "http://www.imaginenationbrewing.com",
    "phone": "4069261251",
    "created_at": "2018-07-24 01:33:42.713727",
    "updated_at": "2018-08-24 00:47:13.910658",
    "country": "United States",
    "longitude": "-114.0099097",
    "latitude": "46.8766353",
    "tags": []
  }
]