[
  {
    "id": "long-live-beerworks",
    "name": "Long Live Beerworks",
    "brewery_type": "micro",
    "street": "425 W Fountain St Unit 104",
    "city": "Providence",
    "state": "Rhode Island",
    "postal_code": "02903-3530",
    "website_url": "http://www.longlivebeerworks.com",
    "phone": "",
    "created_at": "2018-07-24 01:34:13.754923",
    "updated_at": "2018-08-11 21:39:34.085316",
    "country": "United States",
    "longitude": "",
    "latitude": "",
    "tags": []
  },
  {
    "id": "providence-brewing-company",
    "name": "Providence Brewing Company",
    "brewery_type": "micro",
    "street": "1920 Mineral Spring Ave Unit 11",
    "city": "Providence",
    "state": "Rhode Island",
    "postal_code": "02904-3742",
    "website_url": "http://www.pvdbc.com",
    "phone": "4013491260",
    "created_at": "2018-07-24 01:34:13.821452",
    "updated_at": "2018-08-11 21:39:34.272921",
    "country": "United States",
    "longitude": "",
    "latitude": "",
    "tags": []
  },
  {
    "id": "union-station-brewery",
    "name": "Union Station Brewery",
    "brewery_type": "brewpub",
    "street": "36 Exchange Ter Ste 2",
    "city": "Providence",
    "state": "Rhode Island",
    "postal_code": "02903-1798",
    "website_url": "http://www.johnharvards.com",
    "phone": "4012742739",
    "created_at": "2018-07-24 01:34:13.941905",
    "updated_at": "2018-08-11 21:39:34.777593",
    "country": "United States",
    "longitude": "",
    "latitude": "",
    "tags": []
  },
  {
    "id": "trinity-brewhouse",
    "name": "Trinity Brewhouse",
    "brewery_type": "brewpub",
    "street": "186 Fountain St",
    "city": "Providence",
    "state": "Rhode Island",
    "postal_code": "02903-1813",
    "website_url": "http://www.trinitybrewhouse.com",
    "phone": "4014532337",
    "created_at": "2018-07-24 01:34:13.928659",
    "updated_at": "2018-08-24 16:14:02.33651",
    "country": "United States",
    "longitude": "-71.4168238",
    "latitude": "41.8223638",
    "tags": []
  }
]