[
  {
    "id": "rock-house-brewing",
    "name": "Rock House Brewing",
    "brewery_type": "micro",
    "street": "119 Luigart Ct",
    "city": "Lexington",
    "state": "Kentucky",
    "postal_code": "40508-1686",
    "website_url": "http://www.rockhousebrewing.com",
    "phone": "8593687064",
    "created_at": "2018-07-24 01:33:25.882008",
    "updated_at": "2018-08-24 00:39:03.899837",
    "country": "United States",
    "longitude": "-84.4822984081633",
    "latitude": "38.0565233673469",
    "tags": []
  },
  {
    "id": "alltechs-lexington-brewing",
    "name": "Alltech's Lexington Brewing",
    "brewery_type": "regional",
    "street": "475 Angliana Ave",
    "city": "Lexington",
    "state": "Kentucky",
    "postal_code": "40508-3134",
    "website_url": "http://www.Kentuckyale.com",
    "phone": "8592552337",
    "created_at": "2018-07-24 01:33:25.324585",
    "updated_at": "2018-08-24 00:38:42.052227",
    "country": "United States",
    "longitude": "-84.5159964457831",
    "latitude": "38.0495065060241",
    "tags": []
  },
  {
    "id": "country-boy-brewing",
    "name": "Country Boy Brewing",
    "brewery_type": "micro",
    "street": "436 Chair Ave",
    "city": "Lexington",
    "state": "Kentucky",
    "postal_code": "40508-3106",
    "website_url": "http://www.countryboybrewing.com",
    "phone": "",
    "created_at": "2018-07-24 01:33:25.457148",
    "updated_at": "2018-08-24 00:38:47.168088",
    "country": "United States",
    "longitude": "-84.5092526703915",
    "latitude": "38.0439487",
    "tags": []
  },
  {
    "id": "ethereal-brewing",
    "name": "Ethereal Brewing",
    "brewery_type": "micro",
    "street": "1224 Manchester St",
    "city": "Lexington",
    "state": "Kentucky",
    "postal_code": "40504-1129",
    "website_url": "http://www.etherealbrew.com",
    "phone": "8593091254",
    "created_at": "2018-07-24 01:33:25.556511",
    "updated_at": "2018-08-24 00:38:50.958895",
    "country": "United States",
    "longitude": "-84.5200035",
    "latitude": "38.056562",
    "tags": []
  },
  {
    "id": "west-sixth-brewing-co",
    "name": "West Sixth Brewing Co",
    "brewery_type": "micro",
    "street": "501 W Sixth St",
    "city": "Lexington",
    "state": "Kentucky",
    "postal_code": "40508-1341",
    "website_url": "http://www.westsixth.com",
    "phone": "8597050915",
    "created_at": "2018-07-24 01:33:25.979577",
    "updated_at": "2018-08-11 21:37:28.551186",
    "country": "United States",
    "longitude": "",
    "latitude": "",
    "tags": []
  },
  {
    "id": "life-brewpub",
    "name": "Life Brewpub",
    "brewery_type": "brewpub",
    "street": "2628 Richmond Rd",
    "city": "Lexington",
    "state": "Kentucky",
    "postal_code": "40509-1501",
    "website_url": "http://www.LifeBrewpub.com",
    "phone": "8592665433",
    "created_at": "2018-07-24 01:33:25.756802",
    "updated_at": "2018-08-24 00:38:59.049304",
    "country": "United States",
    "longitude": "-84.43443",
    "latitude": "37.991255",
    "tags": []
  },
  {
    "id": "mirror-twin-brewing",
    "name": "Mirror Twin Brewing",
    "brewery_type": "brewpub",
    "street": "725 National Ave",
    "city": "Lexington",
    "state": "Kentucky",
    "postal_code": "40502-1431",
    "website_url": "http://www.mirrortwinbrewing.com",
    "phone": "8594478146",
    "created_at": "2018-07-24 01:33:25.811708",
    "updated_at": "2018-08-24 00:39:01.393309",
    "country": "United States",
    "longitude": "-84.4784656",
    "latitude": "38.04042235",
    "tags": []
  },
  {
    "id": "pivot-brewing-company",
    "name": "Pivot Brewing Company",
    "brewery_type": "micro",
    "street": "1400 Delaware Ave",
    "city": "Lexington",
    "state": "Kentucky",
    "postal_code": "40505",
    "website_url": "http://www.pivotbrewingcompany.com",
    "phone": "8592856778",
    "created_at": "2018-07-24 01:33:25.868143",
    "updated_at": "2018-08-24 00:39:03.450218",
    "country": "United States",
    "longitude": "-84.470627",
    "latitude": "38.038574",
    "tags": []
  },
  {
    "id": "town-branch-distillery",
    "name": "Town Branch Distillery",
    "brewery_type": "micro",
    "street": "401 Cross St",
    "city": "Lexington",
    "state": "Kentucky",
    "postal_code": "40508",
    "website_url": "",
    "phone": "8592552337",
    "created_at": "2018-07-24 01:33:25.953328",
    "updated_at": "2018-08-24 00:39:06.289547",
    "country": "United States",
    "longitude": "-84.508892125",
    "latitude": "38.0499736875",
    "tags": []
  },
  {
    "id": "west-sixth-greenroom",
    "name": "West Sixth Greenroom",
    "brewery_type": "micro",
    "street": "109 W Main St",
    "city": "Lexington",
    "state": "Kentucky",
    "postal_code": "40507",
    "website_url": "",
    "phone": "8597050915",
    "created_at": "2018-07-24 01:33:25.992073",
    "updated_at": "2018-08-24 00:39:07.322712",
    "country": "United States",
    "longitude": "-84.4971282380952",
    "latitude": "38.0465831428571",
    "tags": []
  },
  {
    "id": "blue-stallion-brewing-company",
    "name": "Blue Stallion Brewing Company",
    "brewery_type": "micro",
    "street": "610 W Third St",
    "city": "Lexington",
    "state": "Kentucky",
    "postal_code": "40508-1243",
    "website_url": "http://www.bluestallionbrewing.com",
    "phone": "8596088490",
    "created_at": "2018-07-24 01:33:25.379512",
    "updated_at": "2018-08-24 00:38:44.183936",
    "country": "United States",
    "longitude": "-84.5013623362983",
    "latitude": "38.05710985",
    "tags": []
  },
  {
    "id": "chase-brewing-company-/-chase-tap-room",
    "name": "Chase Brewing Company / Chase Tap Room",
    "brewery_type": "brewpub",
    "street": "266 Jefferson St",
    "city": "Lexington",
    "state": "Kentucky",
    "postal_code": "40508-1217",
    "website_url": "http://www.chasebrewing.com",
    "phone": "8597973113",
    "created_at": "2018-07-24 01:33:25.444401",
    "updated_at": "2018-08-24 00:38:46.63002",
    "country": "United States",
    "longitude": "-84.4986682",
    "latitude": "38.0546834",
    "tags": []
  }
]